[
    {
        "name": "Vienna",
        "country": "Austria",
        "province": "Vienna",
        "population": 1691468,
        "latitude": 48.2084877601653,
        "longitude": 16.3720750808716
    },
    {
        "name": "Linz",
        "country": "Austria",
        "province": "Upper Austria",
        "population": 204846,
        "latitude": 48.3063888888,
        "longitude": 14.286111111
    },
    {
        "name": "Innsbruck",
        "country": "Austria",
        "province": "Tyrol",
        "population": 132493,
        "latitude": 47.2626600380713,
        "longitude": 11.3945388793945
    },
    {
        "name": "Klagenfurt",
        "country": "Austria",
        "province": "Carinthia",
        "population": 100316,
        "latitude": 46.6247222,
        "longitude": 14.3052778
    },
    {
        "name": "Graz",
        "country": "Austria",
        "province": "Styria",
        "population": 295424,
        "latitude": 47.0666667,
        "longitude": 15.45
    },
    {
        "name": "Simmering",
        "country": "Austria",
        "province": "Vienna",
        "population": 101420,
        "latitude": 48.1833333,
        "longitude": 16.4333333
    },
    {
        "name": "St. Pölten",
        "country": "Austria",
        "province": "Lower Austria",
        "population": 21911,
        "latitude": 48.2,
        "longitude": 15.6333333
    },
    {
        "name": "Salzburg",
        "country": "Austria",
        "province": "Salzburg",
        "population": 157245,
        "latitude": 47.79940564350643,
        "longitude": 13.043990135192871
    },
    {
        "name": "Floridsdorf",
        "country": "Austria",
        "province": "Vienna",
        "population": 162779,
        "latitude": 48.25,
        "longitude": 16.4
    },
    {
        "name": "Favoriten",
        "country": "Austria",
        "province": "Vienna",
        "population": 201882,
        "latitude": 48.16116195751926,
        "longitude": 16.38233184814453
    },
    {
        "name": "Donaustadt",
        "country": "Austria",
        "province": "Vienna",
        "population": 187007,
        "latitude": 48.2333,
        "longitude": 16.46002
    },
    {
        "name": "Ottakring",
        "country": "Austria",
        "province": "Vienna",
        "population": 104627,
        "latitude": 48.2166667,
        "longitude": 16.3
    },
    {
        "name": "Eisenstadt",
        "country": "Austria",
        "province": "Burgenland",
        "population": 9217,
        "latitude": 47.84565309972307,
        "longitude": 16.523265838623047
    },
    {
        "name": "Bregenz",
        "country": "Austria",
        "province": "Vorarlberg",
        "population": 29806,
        "latitude": 47.5031127355309,
        "longitude": 9.74710464477539
    },
    {
        "name": "Wiener Neustadt",
        "country": "Austria",
        "province": "Lower Austria",
        "population": 44820,
        "latitude": 47.80485,
        "longitude": 16.23196
    },
    {
        "name": "Villach",
        "country": "Austria",
        "province": "Carinthia",
        "population": 58882,
        "latitude": 46.6102778,
        "longitude": 13.8558333
    },
    {
        "name": "Steyr",
        "country": "Austria",
        "province": "Upper Austria",
        "population": 38331,
        "latitude": 48.042742317061474,
        "longitude": 14.421272277832031
    },
    {
        "name": "Dornbirn",
        "country": "Austria",
        "province": "Vorarlberg",
        "population": 49278,
        "latitude": 47.4142657985086,
        "longitude": 9.741954803466797
    },
    {
        "name": "Braunau am Inn",
        "country": "Austria",
        "province": "Upper Austria",
        "population": 4194,
        "latitude": 48.2562841867061,
        "longitude": 13.0434322357178
    },
    {
        "name": "Baden bei Wien",
        "country": "Austria",
        "province": "Lower Austria",
        "population": 26286,
        "latitude": 48.00542898995101,
        "longitude": 16.232643127441406
    },
    {
        "name": "Gmunden",
        "country": "Austria",
        "province": "Upper Austria",
        "population": 13191,
        "latitude": 47.91839,
        "longitude": 13.79933
    },
    {
        "name": "Spittal an der Drau",
        "country": "Austria",
        "province": "Carinthia",
        "population": 12880,
        "latitude": 46.8,
        "longitude": 13.5
    },
    {
        "name": "Saint Anton",
        "country": "Austria",
        "province": "Tyrol",
        "population": 1763,
        "latitude": 47.1274981577535,
        "longitude": 10.2637195587158
    },
    {
        "name": "Lustenau",
        "country": "Austria",
        "province": "Vorarlberg",
        "population": 22821,
        "latitude": 47.42642328871124,
        "longitude": 9.658513963222504
    },
    {
        "name": "Lienz",
        "country": "Austria",
        "province": "Tyrol",
        "population": 11572,
        "latitude": 46.82890045936844,
        "longitude": 12.769031524658203
    },
    {
        "name": "Fugging",
        "country": "Austria",
        "province": "Upper Austria",
        "population": 106,
        "latitude": 48.0674116741979,
        "longitude": 12.8631019592285
    },
    {
        "name": "Feldkirch",
        "country": "Austria",
        "province": "Vorarlberg",
        "population": 33420,
        "latitude": 47.2330556,
        "longitude": 9.6
    },
    {
        "name": "Bludenz",
        "country": "Austria",
        "province": "Vorarlberg",
        "population": 13534,
        "latitude": 47.154762359749355,
        "longitude": 9.822549819946289
    },
    {
        "name": "Bad Ischl",
        "country": "Austria",
        "province": "Upper Austria",
        "population": 1914,
        "latitude": 47.7110898748883,
        "longitude": 13.6189270019531
    },
    {
        "name": "Kitzbühel",
        "country": "Austria",
        "province": "Tyrol",
        "population": 8272,
        "latitude": 47.44637479554694,
        "longitude": 12.392148971557617
    },
    {
        "name": "Kirchdorf an der Krems",
        "country": "Austria",
        "province": "Upper Austria",
        "population": 4502,
        "latitude": 47.9055837447187,
        "longitude": 14.1222810745239
    },
    {
        "name": "Imst",
        "country": "Austria",
        "province": "Tyrol",
        "population": 10504,
        "latitude": 47.24503708355682,
        "longitude": 10.739736557006836
    },
    {
        "name": "Hopfgarten im Brixental",
        "country": "Austria",
        "province": "Tyrol",
        "population": 2646,
        "latitude": 47.4498,
        "longitude": 12.15659
    },
    {
        "name": "Hohenems",
        "country": "Austria",
        "province": "Vorarlberg",
        "population": 16317,
        "latitude": 47.36121,
        "longitude": 9.68694
    },
    {
        "name": "Hochfilzen",
        "country": "Austria",
        "province": "Tyrol",
        "population": 1196,
        "latitude": 47.4666667,
        "longitude": 12.6166667
    },
    {
        "name": "Hallstatt",
        "country": "Austria",
        "province": "Upper Austria",
        "population": 779,
        "latitude": 47.5623088920153,
        "longitude": 13.6491179466248
    },
    {
        "name": "Hallein",
        "country": "Austria",
        "province": "Salzburg",
        "population": 7208,
        "latitude": 47.6833333,
        "longitude": 13.1
    },
    {
        "name": "Hainburg an der Donau",
        "country": "Austria",
        "province": "Lower Austria",
        "population": 6570,
        "latitude": 48.14627419979311,
        "longitude": 16.945037841796875
    },
    {
        "name": "Götzis",
        "country": "Austria",
        "province": "Vorarlberg",
        "population": 11473,
        "latitude": 47.3330556,
        "longitude": 9.6330556
    },
    {
        "name": "Solden",
        "country": "Austria",
        "province": "Tyrol",
        "population": 2205,
        "latitude": 46.9666667,
        "longitude": 11
    },
    {
        "name": "Hall in Tirol",
        "country": "Austria",
        "province": "Tyrol",
        "population": 13334,
        "latitude": 47.2833333,
        "longitude": 11.5166667
    },
    {
        "name": "Seefeld in Tirol",
        "country": "Austria",
        "province": "Tyrol",
        "population": 3440,
        "latitude": 47.330155524134554,
        "longitude": 11.187858581542969
    },
    {
        "name": "Schwechat",
        "country": "Austria",
        "province": "Lower Austria",
        "population": 12351,
        "latitude": 48.1333333,
        "longitude": 16.4666667
    },
    {
        "name": "Schwaz",
        "country": "Austria",
        "province": "Tyrol",
        "population": 13728,
        "latitude": 47.35169285403405,
        "longitude": 11.710138320922852
    },
    {
        "name": "Schruns",
        "country": "Austria",
        "province": "Vorarlberg",
        "population": 3818,
        "latitude": 47.080278,
        "longitude": 9.91917
    },
    {
        "name": "Sankt Veit an der Glan",
        "country": "Austria",
        "province": "Carinthia",
        "population": 10841,
        "latitude": 46.768056,
        "longitude": 14.360278
    },
    {
        "name": "St Johann im Pongau",
        "country": "Austria",
        "province": "Salzburg",
        "population": 4690,
        "latitude": 47.35,
        "longitude": 13.2
    },
    {
        "name": "Rohrbach in Oberösterreich",
        "country": "Austria",
        "province": "Upper Austria",
        "population": 2432,
        "latitude": 48.5727454592771,
        "longitude": 13.9883422851562
    },
    {
        "name": "Ried im Traunkreis",
        "country": "Austria",
        "province": "Upper Austria",
        "population": 1368,
        "latitude": 48.0258111546209,
        "longitude": 14.0745162963867
    },
    {
        "name": "Ried im Innkreis",
        "country": "Austria",
        "province": "Upper Austria",
        "population": 11903,
        "latitude": 48.2112332607229,
        "longitude": 13.4885501861572
    },
    {
        "name": "Rankweil",
        "country": "Austria",
        "province": "Vorarlberg",
        "population": 11855,
        "latitude": 47.271076206060826,
        "longitude": 9.643077850341797
    },
    {
        "name": "Ramsau am Dachstein",
        "country": "Austria",
        "province": "Styria",
        "population": 2812,
        "latitude": 47.42149638627311,
        "longitude": 13.655447959899902
    },
    {
        "name": "Pörtschach am Wörthersee",
        "country": "Austria",
        "province": "Carinthia",
        "population": 2751,
        "latitude": 46.636389,
        "longitude": 14.146389
    },
    {
        "name": "Perchtoldsdorf",
        "country": "Austria",
        "province": "Lower Austria",
        "population": 15047,
        "latitude": 48.11935075227587,
        "longitude": 16.266074180603027
    },
    {
        "name": "Oberwart",
        "country": "Austria",
        "province": "Burgenland",
        "population": 7288,
        "latitude": 47.289709323867314,
        "longitude": 16.205949783325195
    },
    {
        "name": "Neustift",
        "country": "Austria",
        "province": "Tyrol",
        "population": 4747,
        "latitude": 47.1166667,
        "longitude": 11.3166667
    },
    {
        "name": "Neusiedl am See",
        "country": "Austria",
        "province": "Burgenland",
        "population": 8235,
        "latitude": 47.94900593043644,
        "longitude": 16.841697692871094
    },
    {
        "name": "Neumarkt im Mühlkreis",
        "country": "Austria",
        "province": "Upper Austria",
        "population": 1167,
        "latitude": 48.4281753997708,
        "longitude": 14.4844436645508
    },
    {
        "name": "Mödling",
        "country": "Austria",
        "province": "Lower Austria",
        "population": 20555,
        "latitude": 48.08604927627401,
        "longitude": 16.28920555114746
    },
    {
        "name": "Melk",
        "country": "Austria",
        "province": "Lower Austria",
        "population": 3788,
        "latitude": 48.22736725128168,
        "longitude": 15.331860780715942
    },
    {
        "name": "Mayrhofen",
        "country": "Austria",
        "province": "Tyrol",
        "population": 3720,
        "latitude": 47.1666667,
        "longitude": 11.8666667
    },
    {
        "name": "Mattersburg",
        "country": "Austria",
        "province": "Burgenland",
        "population": 6577,
        "latitude": 47.7333333,
        "longitude": 16.4
    },
    {
        "name": "Mariazell",
        "country": "Austria",
        "province": "Styria",
        "population": 1254,
        "latitude": 47.773056,
        "longitude": 15.316389
    },
    {
        "name": "Leonding",
        "country": "Austria",
        "province": "Upper Austria",
        "population": 4657,
        "latitude": 48.2796515822581,
        "longitude": 14.2533016204834
    },
    {
        "name": "Leoben",
        "country": "Austria",
        "province": "Styria",
        "population": 8264,
        "latitude": 47.37649961666246,
        "longitude": 15.091438293457031
    },
    {
        "name": "Kufstein",
        "country": "Austria",
        "province": "Tyrol",
        "population": 9848,
        "latitude": 47.5833333,
        "longitude": 12.1666667
    },
    {
        "name": "Kremsmünster",
        "country": "Austria",
        "province": "Upper Austria",
        "population": 6585,
        "latitude": 48.0528983441817,
        "longitude": 14.1291904449463
    },
    {
        "name": "Krems",
        "country": "Austria",
        "province": "Lower Austria",
        "population": 14473,
        "latitude": 48.4092062871808,
        "longitude": 15.6141471862793
    },
    {
        "name": "Korneuburg",
        "country": "Austria",
        "province": "Lower Austria",
        "population": 12986,
        "latitude": 48.35,
        "longitude": 16.3333333
    },
    {
        "name": "Knittelfeld",
        "country": "Austria",
        "province": "Styria",
        "population": 11521,
        "latitude": 47.2166667,
        "longitude": 14.8166667
    },
    {
        "name": "Klosterneuburg",
        "country": "Austria",
        "province": "Lower Austria",
        "population": 15614,
        "latitude": 48.3052063585096,
        "longitude": 16.3252222537994
    },
    {
        "name": "Zell am See",
        "country": "Austria",
        "province": "Salzburg",
        "population": 7619,
        "latitude": 47.32306,
        "longitude": 12.79839
    },
    {
        "name": "Ybbs an der Donau",
        "country": "Austria",
        "province": "Lower Austria",
        "population": 4310,
        "latitude": 48.1666667,
        "longitude": 15.0833333
    },
    {
        "name": "Wörgl",
        "country": "Austria",
        "province": "Tyrol",
        "population": 13811,
        "latitude": 47.48906,
        "longitude": 12.06174
    },
    {
        "name": "Wolkersdorf im Weinviertel",
        "country": "Austria",
        "province": "Lower Austria",
        "population": 4115,
        "latitude": 48.383333,
        "longitude": 16.516667
    },
    {
        "name": "Wels",
        "country": "Austria",
        "province": "Upper Austria",
        "population": 16857,
        "latitude": 48.1666667,
        "longitude": 14.0333333
    },
    {
        "name": "Wartberg",
        "country": "Austria",
        "province": "Styria",
        "population": 1958,
        "latitude": 47.5271654,
        "longitude": 15.4809494
    },
    {
        "name": "Waidhofen an der Ybbs",
        "country": "Austria",
        "province": "Lower Austria",
        "population": 3811,
        "latitude": 47.960042579686736,
        "longitude": 14.77360725402832
    },
    {
        "name": "Vomp",
        "country": "Austria",
        "province": "Tyrol",
        "population": 3287,
        "latitude": 47.3333333,
        "longitude": 11.6833333
    },
    {
        "name": "Treffen",
        "country": "Austria",
        "province": "Carinthia",
        "population": 815,
        "latitude": 46.6702778,
        "longitude": 13.8586111
    },
    {
        "name": "Telfs",
        "country": "Austria",
        "province": "Tyrol",
        "population": 15229,
        "latitude": 47.307065,
        "longitude": 11.068169
    },
    {
        "name": "Straßgang",
        "country": "Austria",
        "province": "Styria",
        "population": 16268,
        "latitude": 47.0333333,
        "longitude": 15.4
    },
    {
        "name": "Stockerau",
        "country": "Austria",
        "province": "Lower Austria",
        "population": 16292,
        "latitude": 48.3833333,
        "longitude": 16.2166667
    },
    {
        "name": "Freistadt",
        "country": "Austria",
        "province": "Upper Austria",
        "population": 7397,
        "latitude": 48.5110323011627,
        "longitude": 14.5045280456543
    },
    {
        "name": "Eferding",
        "country": "Austria",
        "province": "Upper Austria",
        "population": 4100,
        "latitude": 48.3086602686664,
        "longitude": 14.022331237793
    },
    {
        "name": "Brunn am Gebirge",
        "country": "Austria",
        "province": "Lower Austria",
        "population": 11864,
        "latitude": 48.1069726885011,
        "longitude": 16.284656524658203
    },
    {
        "name": "Bruck an der Mur",
        "country": "Austria",
        "province": "Styria",
        "population": 9093,
        "latitude": 47.4166667,
        "longitude": 15.2833333
    },
    {
        "name": "Bleiburg",
        "country": "Austria",
        "province": "Carinthia",
        "population": 1395,
        "latitude": 46.59,
        "longitude": 14.7988889
    },
    {
        "name": "Bischofshofen",
        "country": "Austria",
        "province": "Salzburg",
        "population": 7457,
        "latitude": 47.4166667,
        "longitude": 13.2166667
    },
    {
        "name": "Bad Sankt Leonhard im Lavanttal",
        "country": "Austria",
        "province": "Carinthia",
        "population": 1940,
        "latitude": 46.9627778,
        "longitude": 14.7916667
    },
    {
        "name": "Bad Goisern am Hallstättersee",
        "country": "Austria",
        "province": "Upper Austria",
        "population": 1987,
        "latitude": 47.6425210786504,
        "longitude": 13.6160945892334
    },
    {
        "name": "Ansfelden",
        "country": "Austria",
        "province": "Upper Austria",
        "population": 1944,
        "latitude": 48.2096889347707,
        "longitude": 14.2900371551514
    },
    {
        "name": "Amstetten",
        "country": "Austria",
        "province": "Lower Austria",
        "population": 15559,
        "latitude": 48.122903164263626,
        "longitude": 14.872055053710938
    },
    {
        "name": "Altmünster",
        "country": "Austria",
        "province": "Upper Austria",
        "population": 4496,
        "latitude": 47.9021889520709,
        "longitude": 13.7641525268555
    },
    {
        "name": "Kirchbichl",
        "country": "Austria",
        "province": "Tyrol",
        "population": 5855,
        "latitude": 47.51743256681715,
        "longitude": 12.096290588378906
    },
    {
        "name": "Jakomini",
        "country": "Austria",
        "province": "Styria",
        "population": 32912,
        "latitude": 47.05441,
        "longitude": 15.44984
    },
    {
        "name": "Lend",
        "country": "Austria",
        "province": "Styria",
        "population": 31147,
        "latitude": 47.08256,
        "longitude": 15.41589
    },
    {
        "name": "Gries",
        "country": "Austria",
        "province": "Styria",
        "population": 29363,
        "latitude": 47.06236,
        "longitude": 15.42421
    },
    {
        "name": "Alpbach",
        "country": "Austria",
        "province": "Tyrol",
        "population": 2561,
        "latitude": 47.3987849376884,
        "longitude": 11.9437265396118
    },
    {
        "name": "Kittsee",
        "country": "Austria",
        "province": "Burgenland",
        "population": 3162,
        "latitude": 48.0925,
        "longitude": 17.0638889
    },
    {
        "name": "Kirchdorf in Tirol",
        "country": "Austria",
        "province": "Tyrol",
        "population": 2795,
        "latitude": 47.556256161495256,
        "longitude": 12.445106506347656
    },
    {
        "name": "Kematen in Tirol",
        "country": "Austria",
        "province": "Tyrol",
        "population": 2822,
        "latitude": 47.25,
        "longitude": 11.2666667
    },
    {
        "name": "Kematen an der Krems",
        "country": "Austria",
        "province": "Upper Austria",
        "population": 1613,
        "latitude": 48.1115001965602,
        "longitude": 14.1939067840576
    },
    {
        "name": "Kapfenberg",
        "country": "Austria",
        "province": "Styria",
        "population": 3296,
        "latitude": 47.444575351967075,
        "longitude": 15.293312072753906
    },
    {
        "name": "Judenburg",
        "country": "Austria",
        "province": "Styria",
        "population": 8481,
        "latitude": 47.1666667,
        "longitude": 14.6666667
    },
    {
        "name": "Jennersdorf",
        "country": "Austria",
        "province": "Burgenland",
        "population": 2358,
        "latitude": 46.93848418389872,
        "longitude": 16.141576766967773
    },
    {
        "name": "Ischgl",
        "country": "Austria",
        "province": "Tyrol",
        "population": 1233,
        "latitude": 47.01256661176913,
        "longitude": 10.291786193847656
    },
    {
        "name": "Inzersdorf im Kremstal",
        "country": "Austria",
        "province": "Upper Austria",
        "population": 1111,
        "latitude": 47.9280758117892,
        "longitude": 14.0810394287109
    },
    {
        "name": "Hörbranz",
        "country": "Austria",
        "province": "Vorarlberg",
        "population": 6346,
        "latitude": 47.55,
        "longitude": 9.75
    },
    {
        "name": "Hollabrunn",
        "country": "Austria",
        "province": "Lower Austria",
        "population": 6882,
        "latitude": 48.55,
        "longitude": 16.0833333
    },
    {
        "name": "Höflein",
        "country": "Austria",
        "province": "Lower Austria",
        "population": 1234,
        "latitude": 48.0666667,
        "longitude": 16.7833333
    },
    {
        "name": "Hofkirchen im Traunkreis",
        "country": "Austria",
        "province": "Upper Austria",
        "population": 1266,
        "latitude": 48.1431243128933,
        "longitude": 14.3777561187744
    },
    {
        "name": "Hirschegg",
        "country": "Austria",
        "province": "Vorarlberg",
        "population": 1354,
        "latitude": 47.34812813983327,
        "longitude": 10.171365737915039
    },
    {
        "name": "Henndorf am Wallersee",
        "country": "Austria",
        "province": "Salzburg",
        "population": 4947,
        "latitude": 47.9,
        "longitude": 13.1833333
    },
    {
        "name": "Heiligenblut am Großglockner",
        "country": "Austria",
        "province": "Carinthia",
        "population": 1069,
        "latitude": 47.03978731997451,
        "longitude": 12.843446731567383
    },
    {
        "name": "Haslach an der Mühl",
        "country": "Austria",
        "province": "Upper Austria",
        "population": 1688,
        "latitude": 48.5756985295714,
        "longitude": 14.0398406982422
    },
    {
        "name": "Hartkirchen",
        "country": "Austria",
        "province": "Upper Austria",
        "population": 1120,
        "latitude": 48.3634918628892,
        "longitude": 14.0042209625244
    },
    {
        "name": "Hartheim",
        "country": "Austria",
        "province": "Upper Austria",
        "population": 1131,
        "latitude": 48.2807939681873,
        "longitude": 14.1142559051514
    },
    {
        "name": "Hartberg",
        "country": "Austria",
        "province": "Styria",
        "population": 4170,
        "latitude": 47.2833333,
        "longitude": 15.9666667
    },
    {
        "name": "Harland",
        "country": "Austria",
        "province": "Lower Austria",
        "population": 1537,
        "latitude": 48.161619973873094,
        "longitude": 15.638351440429688
    },
    {
        "name": "Hard",
        "country": "Austria",
        "province": "Vorarlberg",
        "population": 13495,
        "latitude": 47.4830556,
        "longitude": 9.6830556
    },
    {
        "name": "Hagenberg im Mühlkreis",
        "country": "Austria",
        "province": "Upper Austria",
        "population": 1686,
        "latitude": 48.3678826855985,
        "longitude": 14.5168876647949
    },
    {
        "name": "Güssing",
        "country": "Austria",
        "province": "Burgenland",
        "population": 2719,
        "latitude": 47.0593641866528,
        "longitude": 16.3243103027344
    },
    {
        "name": "Grünau im Almtal",
        "country": "Austria",
        "province": "Upper Austria",
        "population": 2064,
        "latitude": 47.8549264436283,
        "longitude": 13.9557266235352
    },
    {
        "name": "Grosspetersdorf",
        "country": "Austria",
        "province": "Burgenland",
        "population": 3531,
        "latitude": 47.238947790884865,
        "longitude": 16.317830085754395
    },
    {
        "name": "Grosshöflein",
        "country": "Austria",
        "province": "Burgenland",
        "population": 2048,
        "latitude": 47.835859570294716,
        "longitude": 16.480350494384766
    },
    {
        "name": "Groß-Gerungs",
        "country": "Austria",
        "province": "Lower Austria",
        "population": 1121,
        "latitude": 48.5742220159848,
        "longitude": 14.9578857421875
    },
    {
        "name": "Groß-Enzersdorf",
        "country": "Austria",
        "province": "Lower Austria",
        "population": 6616,
        "latitude": 48.2027778,
        "longitude": 16.5508333
    },
    {
        "name": "Grieskirchen",
        "country": "Austria",
        "province": "Upper Austria",
        "population": 4515,
        "latitude": 48.233333,
        "longitude": 13.833333
    },
    {
        "name": "Grein",
        "country": "Austria",
        "province": "Upper Austria",
        "population": 2068,
        "latitude": 48.2286180128869,
        "longitude": 14.8588371276855
    },
    {
        "name": "Gösting",
        "country": "Austria",
        "province": "Styria",
        "population": 11255,
        "latitude": 47.09788286254141,
        "longitude": 15.397768020629883
    },
    {
        "name": "Gosau",
        "country": "Austria",
        "province": "Upper Austria",
        "population": 1792,
        "latitude": 47.5841681936917,
        "longitude": 13.5344696044922
    },
    {
        "name": "Golling an der Salzach",
        "country": "Austria",
        "province": "Salzburg",
        "population": 2014,
        "latitude": 47.6,
        "longitude": 13.1666667
    },
    {
        "name": "Gneixendorf",
        "country": "Austria",
        "province": "Lower Austria",
        "population": 1150,
        "latitude": 48.43751494400337,
        "longitude": 15.618095397949219
    },
    {
        "name": "Gmünd",
        "country": "Austria",
        "province": "Carinthia",
        "population": 1317,
        "latitude": 46.9072222,
        "longitude": 13.5294444
    },
    {
        "name": "Spital am Pyhrn",
        "country": "Austria",
        "province": "Upper Austria",
        "population": 1435,
        "latitude": 47.6648671225289,
        "longitude": 14.3401408195496
    },
    {
        "name": "Sooss",
        "country": "Austria",
        "province": "Lower Austria",
        "population": 1050,
        "latitude": 47.98463662615423,
        "longitude": 16.217365264892578
    },
    {
        "name": "Sigless",
        "country": "Austria",
        "province": "Burgenland",
        "population": 1183,
        "latitude": 47.77532914630374,
        "longitude": 16.395034790039062
    },
    {
        "name": "Sieggraben",
        "country": "Austria",
        "province": "Burgenland",
        "population": 1248,
        "latitude": 47.65128140482982,
        "longitude": 16.379928588867188
    },
    {
        "name": "Serfaus",
        "country": "Austria",
        "province": "Tyrol",
        "population": 1134,
        "latitude": 47.04018,
        "longitude": 10.60339
    },
    {
        "name": "Seitenstetten Markt",
        "country": "Austria",
        "province": "Lower Austria",
        "population": 3394,
        "latitude": 48.0333333,
        "longitude": 14.65
    },
    {
        "name": "Seekirchen am Wallersee",
        "country": "Austria",
        "province": "Salzburg",
        "population": 3579,
        "latitude": 47.9,
        "longitude": 13.1333333
    },
    {
        "name": "Schwarzach im Pongau",
        "country": "Austria",
        "province": "Salzburg",
        "population": 3515,
        "latitude": 47.32048,
        "longitude": 13.15171
    },
    {
        "name": "Schönau im Mühlkreis",
        "country": "Austria",
        "province": "Upper Austria",
        "population": 850,
        "latitude": 48.3945616220251,
        "longitude": 14.7301769256592
    },
    {
        "name": "Schladming",
        "country": "Austria",
        "province": "Styria",
        "population": 3452,
        "latitude": 47.392887653551746,
        "longitude": 13.686990737915039
    },
    {
        "name": "Scharnstein",
        "country": "Austria",
        "province": "Upper Austria",
        "population": 1287,
        "latitude": 47.9042603774534,
        "longitude": 13.9613485336304
    },
    {
        "name": "Schärding",
        "country": "Austria",
        "province": "Upper Austria",
        "population": 4919,
        "latitude": 48.4529442093236,
        "longitude": 13.4372234344482
    },
    {
        "name": "Sarleinsbach",
        "country": "Austria",
        "province": "Upper Austria",
        "population": 1115,
        "latitude": 48.5452509151079,
        "longitude": 13.904914855957
    },
    {
        "name": "Sankt Wolfgang im Salzkammergut",
        "country": "Austria",
        "province": "Upper Austria",
        "population": 2794,
        "latitude": 47.7393233613686,
        "longitude": 13.4466648101807
    },
    {
        "name": "Sankt Valentin",
        "country": "Austria",
        "province": "Lower Austria",
        "population": 9340,
        "latitude": 48.1666667,
        "longitude": 14.5166667
    },
    {
        "name": "Sankt Stefan im Rosental",
        "country": "Austria",
        "province": "Styria",
        "population": 3929,
        "latitude": 46.9038889,
        "longitude": 15.71
    },
    {
        "name": "Sankt Paul im Lavanttal",
        "country": "Austria",
        "province": "Carinthia",
        "population": 1735,
        "latitude": 46.7005556,
        "longitude": 14.8755556
    },
    {
        "name": "Sankt Martin im Mühlkreis",
        "country": "Austria",
        "province": "Upper Austria",
        "population": 1111,
        "latitude": 48.4155301111782,
        "longitude": 14.0382099151611
    },
    {
        "name": "Sankt Margarethen im Burgenland",
        "country": "Austria",
        "province": "Burgenland",
        "population": 2636,
        "latitude": 47.80335485406359,
        "longitude": 16.608753204345703
    },
    {
        "name": "Sankt Marein im Mürztal",
        "country": "Austria",
        "province": "Styria",
        "population": 1436,
        "latitude": 47.4666667,
        "longitude": 15.3666667
    },
    {
        "name": "Sankt Jakob",
        "country": "Austria",
        "province": "Carinthia",
        "population": 651,
        "latitude": 46.5477778,
        "longitude": 14.0572222
    },
    {
        "name": "St. Gilgen",
        "country": "Austria",
        "province": "Salzburg",
        "population": 1113,
        "latitude": 47.7666667,
        "longitude": 13.3666667
    },
    {
        "name": "Sankt Georgen bei Salzburg",
        "country": "Austria",
        "province": "Salzburg",
        "population": 297,
        "latitude": 47.99078330761298,
        "longitude": 12.884988784790039
    },
    {
        "name": "Sankt Andrä am Zicksee",
        "country": "Austria",
        "province": "Burgenland",
        "population": 1371,
        "latitude": 47.78409601241377,
        "longitude": 16.94194793701172
    },
    {
        "name": "Sankt Andrä",
        "country": "Austria",
        "province": "Carinthia",
        "population": 1271,
        "latitude": 46.76829,
        "longitude": 14.81991
    },
    {
        "name": "Sankt Aegyd am Neuwalde",
        "country": "Austria",
        "province": "Lower Austria",
        "population": 1341,
        "latitude": 47.85383216014649,
        "longitude": 15.569686889648438
    },
    {
        "name": "Sachsenburg",
        "country": "Austria",
        "province": "Carinthia",
        "population": 1026,
        "latitude": 46.8291667,
        "longitude": 13.355
    },
    {
        "name": "Saalfelden am Steinernen Meer",
        "country": "Austria",
        "province": "Salzburg",
        "population": 16790,
        "latitude": 47.426809799671524,
        "longitude": 12.84799575805664
    },
    {
        "name": "Rust",
        "country": "Austria",
        "province": "Burgenland",
        "population": 1921,
        "latitude": 47.80122174112071,
        "longitude": 16.671581268310547
    },
    {
        "name": "Riezlern",
        "country": "Austria",
        "province": "Vorarlberg",
        "population": 1998,
        "latitude": 47.35778080535772,
        "longitude": 10.18758773803711
    },
    {
        "name": "Reutte",
        "country": "Austria",
        "province": "Tyrol",
        "population": 6704,
        "latitude": 47.4833333,
        "longitude": 10.7166667
    },
    {
        "name": "Retz",
        "country": "Austria",
        "province": "Lower Austria",
        "population": 2493,
        "latitude": 48.75712,
        "longitude": 15.95485
    },
    {
        "name": "Reith im Alpbachtal",
        "country": "Austria",
        "province": "Tyrol",
        "population": 2181,
        "latitude": 47.416937456635445,
        "longitude": 11.877851486206055
    },
    {
        "name": "Raiding",
        "country": "Austria",
        "province": "Burgenland",
        "population": 865,
        "latitude": 47.565812784824004,
        "longitude": 16.530561447143555
    },
    {
        "name": "Radstadt",
        "country": "Austria",
        "province": "Salzburg",
        "population": 2410,
        "latitude": 47.3833333,
        "longitude": 13.45
    },
    {
        "name": "Bad Radkersburg",
        "country": "Austria",
        "province": "Styria",
        "population": 1368,
        "latitude": 46.6880556,
        "longitude": 15.9880556
    },
    {
        "name": "Radenthein",
        "country": "Austria",
        "province": "Carinthia",
        "population": 1846,
        "latitude": 46.8005556,
        "longitude": 13.7116667
    },
    {
        "name": "Purbach am Neusiedler See",
        "country": "Austria",
        "province": "Burgenland",
        "population": 2901,
        "latitude": 47.912890424335735,
        "longitude": 16.695613861083984
    },
    {
        "name": "Pucking",
        "country": "Austria",
        "province": "Upper Austria",
        "population": 1751,
        "latitude": 48.1888645867246,
        "longitude": 14.1882419586182
    },
    {
        "name": "Pollau",
        "country": "Austria",
        "province": "Styria",
        "population": 6014,
        "latitude": 47.3,
        "longitude": 15.8333333
    },
    {
        "name": "Podersdorf am See",
        "country": "Austria",
        "province": "Burgenland",
        "population": 2135,
        "latitude": 47.85412013172273,
        "longitude": 16.83706283569336
    },
    {
        "name": "Pöchlarn",
        "country": "Austria",
        "province": "Lower Austria",
        "population": 3515,
        "latitude": 48.2,
        "longitude": 15.2
    },
    {
        "name": "Pinsdorf",
        "country": "Austria",
        "province": "Upper Austria",
        "population": 1240,
        "latitude": 47.9298011419631,
        "longitude": 13.7706756591797
    },
    {
        "name": "Pinkafeld",
        "country": "Austria",
        "province": "Burgenland",
        "population": 5438,
        "latitude": 47.3709,
        "longitude": 16.1241
    },
    {
        "name": "Perg",
        "country": "Austria",
        "province": "Upper Austria",
        "population": 5812,
        "latitude": 48.25,
        "longitude": 14.633333
    },
    {
        "name": "Pasching",
        "country": "Austria",
        "province": "Upper Austria",
        "population": 2409,
        "latitude": 48.2593128380802,
        "longitude": 14.2036914825439
    },
    {
        "name": "Parndorf",
        "country": "Austria",
        "province": "Burgenland",
        "population": 4689,
        "latitude": 47.99962864829864,
        "longitude": 16.86049461364746
    },
    {
        "name": "Oetz",
        "country": "Austria",
        "province": "Tyrol",
        "population": 2402,
        "latitude": 47.2,
        "longitude": 10.9
    },
    {
        "name": "Oberpullendorf",
        "country": "Austria",
        "province": "Burgenland",
        "population": 2019,
        "latitude": 47.5035186145045,
        "longitude": 16.5044689178467
    },
    {
        "name": "Oberndorf bei Salzburg",
        "country": "Austria",
        "province": "Salzburg",
        "population": 5794,
        "latitude": 47.95,
        "longitude": 12.9333333
    },
    {
        "name": "Nickelsdorf",
        "country": "Austria",
        "province": "Burgenland",
        "population": 1772,
        "latitude": 47.9405556,
        "longitude": 17.0694444
    },
    {
        "name": "Neumarkt in Steiermark",
        "country": "Austria",
        "province": "Styria",
        "population": 1678,
        "latitude": 47.07398001251913,
        "longitude": 14.42728042602539
    },
    {
        "name": "Neumarkt am Wallersee",
        "country": "Austria",
        "province": "Salzburg",
        "population": 4456,
        "latitude": 47.95,
        "longitude": 13.2333333
    },
    {
        "name": "Neuhofen an der Krems",
        "country": "Austria",
        "province": "Upper Austria",
        "population": 6269,
        "latitude": 48.1386568691032,
        "longitude": 14.2276382446289
    },
    {
        "name": "Neufeld an der Leitha",
        "country": "Austria",
        "province": "Burgenland",
        "population": 3418,
        "latitude": 47.865580102019884,
        "longitude": 16.378555297851562
    },
    {
        "name": "Neckenmarkt",
        "country": "Austria",
        "province": "Burgenland",
        "population": 1528,
        "latitude": 47.59963790490336,
        "longitude": 16.54669761657715
    },
    {
        "name": "Naarn im Machlande",
        "country": "Austria",
        "province": "Upper Austria",
        "population": 1563,
        "latitude": 48.2255303631157,
        "longitude": 14.6083831787109
    },
    {
        "name": "Mürzzuschlag",
        "country": "Austria",
        "province": "Styria",
        "population": 5975,
        "latitude": 47.6066,
        "longitude": 15.67226
    },
    {
        "name": "Münzkirchen",
        "country": "Austria",
        "province": "Upper Austria",
        "population": 1865,
        "latitude": 48.4833333,
        "longitude": 13.5666667
    },
    {
        "name": "Münzbach",
        "country": "Austria",
        "province": "Upper Austria",
        "population": 1041,
        "latitude": 48.2673693200408,
        "longitude": 14.7100925445557
    },
    {
        "name": "Mittersill",
        "country": "Austria",
        "province": "Salzburg",
        "population": 1888,
        "latitude": 47.28333,
        "longitude": 12.48333
    },
    {
        "name": "Micheldorf in Oberösterreich",
        "country": "Austria",
        "province": "Upper Austria",
        "population": 5854,
        "latitude": 47.8776420069449,
        "longitude": 14.1335678100586
    },
    {
        "name": "Meidling",
        "country": "Austria",
        "province": "Vienna",
        "population": 97624,
        "latitude": 48.1666667,
        "longitude": 16.3333333
    },
    {
        "name": "Mehrnbach",
        "country": "Austria",
        "province": "Upper Austria",
        "population": 1002,
        "latitude": 48.2080873623694,
        "longitude": 13.4352493286133
    },
    {
        "name": "Mauthausen",
        "country": "Austria",
        "province": "Upper Austria",
        "population": 848,
        "latitude": 48.24114,
        "longitude": 14.51963
    },
    {
        "name": "Mauerkirchen",
        "country": "Austria",
        "province": "Upper Austria",
        "population": 2384,
        "latitude": 48.1917255756187,
        "longitude": 13.1333827972412
    },
    {
        "name": "Mauer bei Amstetten",
        "country": "Austria",
        "province": "Lower Austria",
        "population": 2278,
        "latitude": 48.09643,
        "longitude": 14.8006
    },
    {
        "name": "Matzen",
        "country": "Austria",
        "province": "Lower Austria",
        "population": 1796,
        "latitude": 48.4,
        "longitude": 16.7
    },
    {
        "name": "Matrei in Osttirol",
        "country": "Austria",
        "province": "Tyrol",
        "population": 2482,
        "latitude": 47,
        "longitude": 12.5333333
    },
    {
        "name": "Maria Saal",
        "country": "Austria",
        "province": "Carinthia",
        "population": 1094,
        "latitude": 46.6808333,
        "longitude": 14.3486111
    },
    {
        "name": "Luftenberg an der Donau",
        "country": "Austria",
        "province": "Upper Austria",
        "population": 1556,
        "latitude": 48.2746247806694,
        "longitude": 14.4130325317383
    },
    {
        "name": "Liebenau",
        "country": "Austria",
        "province": "Styria",
        "population": 14447,
        "latitude": 47.0333333,
        "longitude": 15.4666667
    },
    {
        "name": "Lembach im Mühlkreis",
        "country": "Austria",
        "province": "Upper Austria",
        "population": 1354,
        "latitude": 48.4951656667812,
        "longitude": 13.8951301574707
    },
    {
        "name": "Leibnitz, Styria",
        "country": "Austria",
        "province": "Styria",
        "population": 8533,
        "latitude": 46.781607187183205,
        "longitude": 15.538358688354492
    },
    {
        "name": "Laxenburg",
        "country": "Austria",
        "province": "Lower Austria",
        "population": 2828,
        "latitude": 48.06832937569164,
        "longitude": 16.356067657470703
    },
    {
        "name": "Lauterach",
        "country": "Austria",
        "province": "Vorarlberg",
        "population": 10267,
        "latitude": 47.47572,
        "longitude": 9.72941
    },
    {
        "name": "Langenstein",
        "country": "Austria",
        "province": "Upper Austria",
        "population": 1351,
        "latitude": 48.2519980526963,
        "longitude": 14.4765472412109
    },
    {
        "name": "Laakirchen",
        "country": "Austria",
        "province": "Upper Austria",
        "population": 9861,
        "latitude": 47.9818789984859,
        "longitude": 13.8216590881348
    },
    {
        "name": "Laa an der Thaya",
        "country": "Austria",
        "province": "Lower Austria",
        "population": 4777,
        "latitude": 48.7166667,
        "longitude": 16.3833333
    },
    {
        "name": "Kundl",
        "country": "Austria",
        "province": "Tyrol",
        "population": 3771,
        "latitude": 47.4666667,
        "longitude": 11.9833333
    },
    {
        "name": "Krumpendorf",
        "country": "Austria",
        "province": "Carinthia",
        "population": 3264,
        "latitude": 46.62526,
        "longitude": 14.21664
    },
    {
        "name": "Kronstorf",
        "country": "Austria",
        "province": "Upper Austria",
        "population": 1617,
        "latitude": 48.1432388576219,
        "longitude": 14.4630718231201
    },
    {
        "name": "Königswiesen",
        "country": "Austria",
        "province": "Upper Austria",
        "population": 1271,
        "latitude": 48.404534128302,
        "longitude": 14.8382377624512
    },
    {
        "name": "Zwentendorf",
        "country": "Austria",
        "province": "Lower Austria",
        "population": 1039,
        "latitude": 48.34529727896014,
        "longitude": 15.910263061523438
    },
    {
        "name": "Zell-Pfarre",
        "country": "Austria",
        "province": "Carinthia",
        "population": 213,
        "latitude": 46.472222,
        "longitude": 14.388889
    },
    {
        "name": "Zell am Ziller",
        "country": "Austria",
        "province": "Tyrol",
        "population": 1758,
        "latitude": 47.2333333,
        "longitude": 11.8833333
    },
    {
        "name": "Wolfurt",
        "country": "Austria",
        "province": "Vorarlberg",
        "population": 8446,
        "latitude": 47.4666667,
        "longitude": 9.75
    },
    {
        "name": "Windischgarsten",
        "country": "Austria",
        "province": "Upper Austria",
        "population": 2392,
        "latitude": 47.7222349808205,
        "longitude": 14.3275451660156
    },
    {
        "name": "Wetzelsdorf",
        "country": "Austria",
        "province": "Styria",
        "population": 15687,
        "latitude": 47.052931953657705,
        "longitude": 15.399227142333984
    },
    {
        "name": "Weiz",
        "country": "Austria",
        "province": "Styria",
        "population": 9221,
        "latitude": 47.2166667,
        "longitude": 15.6166667
    },
    {
        "name": "Weinzierl bei Krems",
        "country": "Austria",
        "province": "Lower Austria",
        "population": 24092,
        "latitude": 48.4,
        "longitude": 15.6
    },
    {
        "name": "Waltendorf",
        "country": "Austria",
        "province": "Styria",
        "population": 11960,
        "latitude": 47.0666667,
        "longitude": 15.4666667
    },
    {
        "name": "Wallern an der Trattnach",
        "country": "Austria",
        "province": "Upper Austria",
        "population": 1965,
        "latitude": 48.2329632784769,
        "longitude": 13.9461994171143
    },
    {
        "name": "Waldzell",
        "country": "Austria",
        "province": "Upper Austria",
        "population": 687,
        "latitude": 48.1356210764842,
        "longitude": 13.4270095825195
    },
    {
        "name": "Waidhofen an der Thaya",
        "country": "Austria",
        "province": "Lower Austria",
        "population": 4280,
        "latitude": 48.8166667,
        "longitude": 15.2833333
    },
    {
        "name": "Murau",
        "country": "Austria",
        "province": "Styria",
        "population": 3534,
        "latitude": 47.1105556,
        "longitude": 14.1694444
    },
    {
        "name": "Vorchdorf",
        "country": "Austria",
        "province": "Upper Austria",
        "population": 7475,
        "latitude": 48.0038784674403,
        "longitude": 13.9212226867676
    },
    {
        "name": "Völkermarkt",
        "country": "Austria",
        "province": "Carinthia",
        "population": 4653,
        "latitude": 46.6622222,
        "longitude": 14.6344444
    },
    {
        "name": "Vöcklabruck",
        "country": "Austria",
        "province": "Upper Austria",
        "population": 3789,
        "latitude": 48.00279,
        "longitude": 13.65652
    },
    {
        "name": "Viktring",
        "country": "Austria",
        "province": "Carinthia",
        "population": 9407,
        "latitude": 46.5919444,
        "longitude": 14.2691667
    },
    {
        "name": "Velden am Wörther See",
        "country": "Austria",
        "province": "Carinthia",
        "population": 2325,
        "latitude": 46.61301173956687,
        "longitude": 14.041299819946289
    },
    {
        "name": "Übelbach",
        "country": "Austria",
        "province": "Styria",
        "population": 1078,
        "latitude": 47.22533904314095,
        "longitude": 15.236148834228516
    },
    {
        "name": "Tribuswinkel",
        "country": "Austria",
        "province": "Lower Austria",
        "population": 3533,
        "latitude": 48.00623294623685,
        "longitude": 16.270751953125
    },
    {
        "name": "Traunkirchen",
        "country": "Austria",
        "province": "Upper Austria",
        "population": 1624,
        "latitude": 47.8446162252977,
        "longitude": 13.7893867492676
    },
    {
        "name": "Tragwein",
        "country": "Austria",
        "province": "Upper Austria",
        "population": 1534,
        "latitude": 48.3331449266204,
        "longitude": 14.6223735809326
    },
    {
        "name": "Thalheim bei Wels",
        "country": "Austria",
        "province": "Upper Austria",
        "population": 4294,
        "latitude": 48.15,
        "longitude": 14.0333333
    },
    {
        "name": "Ternitz",
        "country": "Austria",
        "province": "Lower Austria",
        "population": 7378,
        "latitude": 47.715652149444615,
        "longitude": 16.035747528076172
    },
    {
        "name": "Tamsweg",
        "country": "Austria",
        "province": "Salzburg",
        "population": 3509,
        "latitude": 47.12808212013255,
        "longitude": 13.811016082763672
    },
    {
        "name": "Strobl",
        "country": "Austria",
        "province": "Salzburg",
        "population": 1393,
        "latitude": 47.7166667,
        "longitude": 13.4833333
    },
    {
        "name": "Strasshof an der Nordbahn",
        "country": "Austria",
        "province": "Lower Austria",
        "population": 10009,
        "latitude": 48.3166667,
        "longitude": 16.6666667
    },
    {
        "name": "Strassengel",
        "country": "Austria",
        "province": "Styria",
        "population": 2822,
        "latitude": 47.11573,
        "longitude": 15.33288
    },
    {
        "name": "Strass",
        "country": "Austria",
        "province": "Lower Austria",
        "population": 1336,
        "latitude": 48.4666667,
        "longitude": 15.7333333
    },
    {
        "name": "Steyregg",
        "country": "Austria",
        "province": "Upper Austria",
        "population": 2987,
        "latitude": 48.2851348017313,
        "longitude": 14.369945526123
    },
    {
        "name": "Steinach am Brenner",
        "country": "Austria",
        "province": "Tyrol",
        "population": 2716,
        "latitude": 47.0833333,
        "longitude": 11.4666667
    },
    {
        "name": "Stegersbach",
        "country": "Austria",
        "province": "Burgenland",
        "population": 2658,
        "latitude": 47.1666667,
        "longitude": 16.1666667
    },
    {
        "name": "Stattersdorf",
        "country": "Austria",
        "province": "Lower Austria",
        "population": 1963,
        "latitude": 48.1833333,
        "longitude": 15.6333333
    },
    {
        "name": "Gaspoltshofen",
        "country": "Austria",
        "province": "Upper Austria",
        "population": 1313,
        "latitude": 48.1432388576219,
        "longitude": 13.7364292144775
    },
    {
        "name": "Gamlitz",
        "country": "Austria",
        "province": "Styria",
        "population": 1572,
        "latitude": 46.7202778,
        "longitude": 15.5533333
    },
    {
        "name": "Gainfarn",
        "country": "Austria",
        "province": "Lower Austria",
        "population": 3926,
        "latitude": 47.96280137366943,
        "longitude": 16.193675994873047
    },
    {
        "name": "Fürstenfeld",
        "country": "Austria",
        "province": "Styria",
        "population": 6327,
        "latitude": 47.05,
        "longitude": 16.0833333
    },
    {
        "name": "Frohsdorf",
        "country": "Austria",
        "province": "Lower Austria",
        "population": 1163,
        "latitude": 47.75076,
        "longitude": 16.26383
    },
    {
        "name": "Finkenberg",
        "country": "Austria",
        "province": "Tyrol",
        "population": 1221,
        "latitude": 47.15279,
        "longitude": 11.82212
    },
    {
        "name": "Fieberbrunn",
        "country": "Austria",
        "province": "Tyrol",
        "population": 4287,
        "latitude": 47.47626,
        "longitude": 12.54347
    },
    {
        "name": "Ferlach",
        "country": "Austria",
        "province": "Carinthia",
        "population": 4342,
        "latitude": 46.5269444,
        "longitude": 14.3019444
    },
    {
        "name": "Feldkirchen in Kärnten",
        "country": "Austria",
        "province": "Carinthia",
        "population": 2831,
        "latitude": 46.7236824559436,
        "longitude": 14.095802307128906
    },
    {
        "name": "Feldkirchen bei Graz",
        "country": "Austria",
        "province": "Styria",
        "population": 1625,
        "latitude": 47.0166667,
        "longitude": 15.45
    },
    {
        "name": "Feistritz an der Drau",
        "country": "Austria",
        "province": "Carinthia",
        "population": 1720,
        "latitude": 46.70157,
        "longitude": 13.66479
    },
    {
        "name": "Ernsthofen",
        "country": "Austria",
        "province": "Lower Austria",
        "population": 2230,
        "latitude": 48.1291479381486,
        "longitude": 14.4805812835693
    },
    {
        "name": "Eggenberg",
        "country": "Austria",
        "province": "Styria",
        "population": 20511,
        "latitude": 47.07000490466424,
        "longitude": 15.398712158203125
    },
    {
        "name": "Eberndorf",
        "country": "Austria",
        "province": "Carinthia",
        "population": 1124,
        "latitude": 46.5913889,
        "longitude": 14.6436111
    },
    {
        "name": "Ebenthal",
        "country": "Austria",
        "province": "Carinthia",
        "population": 1333,
        "latitude": 46.6080556,
        "longitude": 14.3641667
    },
    {
        "name": "Ebensee",
        "country": "Austria",
        "province": "Upper Austria",
        "population": 4125,
        "latitude": 47.8071596488696,
        "longitude": 13.7790012359619
    },
    {
        "name": "Ebbs",
        "country": "Austria",
        "province": "Tyrol",
        "population": 3050,
        "latitude": 47.6333333,
        "longitude": 12.2166667
    },
    {
        "name": "Drassburg",
        "country": "Austria",
        "province": "Burgenland",
        "population": 1199,
        "latitude": 47.746451484020724,
        "longitude": 16.486787796020508
    },
    {
        "name": "Dietach",
        "country": "Austria",
        "province": "Upper Austria",
        "population": 1389,
        "latitude": 48.0901773084643,
        "longitude": 14.4164657592773
    },
    {
        "name": "Deutsch-Wagram",
        "country": "Austria",
        "province": "Lower Austria",
        "population": 8651,
        "latitude": 48.2997222,
        "longitude": 16.5666667
    },
    {
        "name": "Deutsch Schützen-Eisenberg",
        "country": "Austria",
        "province": "Burgenland",
        "population": 416,
        "latitude": 47.1666667,
        "longitude": 16.45
    },
    {
        "name": "Deutschlandsberg",
        "country": "Austria",
        "province": "Styria",
        "population": 8429,
        "latitude": 46.8152778,
        "longitude": 15.2222222
    },
    {
        "name": "Bürmoos",
        "country": "Austria",
        "province": "Salzburg",
        "population": 4899,
        "latitude": 47.9834301821763,
        "longitude": 12.9178619384766
    },
    {
        "name": "Bruck an der Leitha",
        "country": "Austria",
        "province": "Lower Austria",
        "population": 6882,
        "latitude": 48.0242,
        "longitude": 16.7757
    },
    {
        "name": "Brixen im Thale",
        "country": "Austria",
        "province": "Tyrol",
        "population": 2639,
        "latitude": 47.45,
        "longitude": 12.25
    },
    {
        "name": "Breitenfurt bei Wien",
        "country": "Austria",
        "province": "Lower Austria",
        "population": 5853,
        "latitude": 48.1333333,
        "longitude": 16.15
    },
    {
        "name": "Bramberg am Wildkogel",
        "country": "Austria",
        "province": "Salzburg",
        "population": 2096,
        "latitude": 47.26979,
        "longitude": 12.3385
    },
    {
        "name": "Bad Vöslau",
        "country": "Austria",
        "province": "Lower Austria",
        "population": 7469,
        "latitude": 47.96533013872905,
        "longitude": 16.21358871459961
    },
    {
        "name": "Bad Schallerbach",
        "country": "Austria",
        "province": "Upper Austria",
        "population": 4028,
        "latitude": 48.2299902418817,
        "longitude": 13.9192485809326
    },
    {
        "name": "Bad Hofgastein",
        "country": "Austria",
        "province": "Salzburg",
        "population": 2951,
        "latitude": 47.17273623792938,
        "longitude": 13.09870719909668
    },
    {
        "name": "Bad Hall",
        "country": "Austria",
        "province": "Upper Austria",
        "population": 5296,
        "latitude": 48.0383235332417,
        "longitude": 14.2077255249023
    },
    {
        "name": "Bad Gleichenberg",
        "country": "Austria",
        "province": "Styria",
        "population": 1516,
        "latitude": 46.8755556,
        "longitude": 15.9086111
    },
    {
        "name": "Aurolzmünster",
        "country": "Austria",
        "province": "Upper Austria",
        "population": 1137,
        "latitude": 48.2483402675605,
        "longitude": 13.4553337097168
    },
    {
        "name": "Aschach an der Steyr",
        "country": "Austria",
        "province": "Upper Austria",
        "population": 1678,
        "latitude": 48.01312348608404,
        "longitude": 14.335441589355469
    },
    {
        "name": "Aschach an der Donau",
        "country": "Austria",
        "province": "Upper Austria",
        "population": 1933,
        "latitude": 48.3645753478274,
        "longitude": 14.0204429626465
    },
    {
        "name": "Arnoldstein",
        "country": "Austria",
        "province": "Carinthia",
        "population": 2080,
        "latitude": 46.5461111,
        "longitude": 13.71
    },
    {
        "name": "Apetlon",
        "country": "Austria",
        "province": "Burgenland",
        "population": 1760,
        "latitude": 47.74394088010389,
        "longitude": 16.830196380615234
    },
    {
        "name": "Anif",
        "country": "Austria",
        "province": "Salzburg",
        "population": 1814,
        "latitude": 47.75,
        "longitude": 13.0666667
    },
    {
        "name": "Andau",
        "country": "Austria",
        "province": "Burgenland",
        "population": 2285,
        "latitude": 47.77440623229445,
        "longitude": 17.032928466796875
    },
    {
        "name": "Ampass",
        "country": "Austria",
        "province": "Tyrol",
        "population": 1827,
        "latitude": 47.26251,
        "longitude": 11.46226
    },
    {
        "name": "Altlichtenberg",
        "country": "Austria",
        "province": "Upper Austria",
        "population": 1174,
        "latitude": 48.36001315019808,
        "longitude": 14.258451461791992
    },
    {
        "name": "Altenmarkt im Pongau",
        "country": "Austria",
        "province": "Salzburg",
        "population": 4218,
        "latitude": 47.3833333,
        "longitude": 13.4166667
    },
    {
        "name": "Altach",
        "country": "Austria",
        "province": "Vorarlberg",
        "population": 6624,
        "latitude": 47.35438,
        "longitude": 9.65207
    },
    {
        "name": "Aigen im Mühlkreis",
        "country": "Austria",
        "province": "Upper Austria",
        "population": 1778,
        "latitude": 48.6457832600814,
        "longitude": 13.9710903167725
    },
    {
        "name": "Adnet",
        "country": "Austria",
        "province": "Salzburg",
        "population": 1464,
        "latitude": 47.69746,
        "longitude": 13.13115
    },
    {
        "name": "Adlwang",
        "country": "Austria",
        "province": "Upper Austria",
        "population": 1806,
        "latitude": 47.992449104538,
        "longitude": 14.2174243927002
    },
    {
        "name": "Haus im Ennstal",
        "country": "Austria",
        "province": "Styria",
        "population": 2475,
        "latitude": 47.41058,
        "longitude": 13.76759
    },
    {
        "name": "Prottes",
        "country": "Austria",
        "province": "Lower Austria",
        "population": 1436,
        "latitude": 48.3868,
        "longitude": 16.7389
    },
    {
        "name": "Frastanz",
        "country": "Austria",
        "province": "Vorarlberg",
        "population": 6434,
        "latitude": 47.217352840714064,
        "longitude": 9.629945755004883
    },
    {
        "name": "Alberschwende",
        "country": "Austria",
        "province": "Vorarlberg",
        "population": 3247,
        "latitude": 47.45025,
        "longitude": 9.83152
    },
    {
        "name": "Längenfeld",
        "country": "Austria",
        "province": "Tyrol",
        "population": 4611,
        "latitude": 47.07398,
        "longitude": 10.96951
    },
    {
        "name": "Schwarzenberg",
        "country": "Austria",
        "province": "Vorarlberg",
        "population": 1850,
        "latitude": 47.41415,
        "longitude": 9.85154
    },
    {
        "name": "Hittisau",
        "country": "Austria",
        "province": "Vorarlberg",
        "population": 1569,
        "latitude": 47.45781,
        "longitude": 9.95962
    },
    {
        "name": "Geidorf",
        "country": "Austria",
        "province": "Styria",
        "population": 24767,
        "latitude": 47.08393,
        "longitude": 15.444
    },
    {
        "name": "Andritz",
        "country": "Austria",
        "province": "Styria",
        "population": 19020,
        "latitude": 47.11387,
        "longitude": 15.42348
    },
    {
        "name": "Vomperbach",
        "country": "Austria",
        "province": "Tyrol",
        "population": 579,
        "latitude": 47.3333333,
        "longitude": 11.6666667
    },
    {
        "name": "Leutasch",
        "country": "Austria",
        "province": "Tyrol",
        "population": 2380,
        "latitude": 47.368903167119925,
        "longitude": 11.144042015075684
    },
    {
        "name": "Sankt Leonhard im Pitztal",
        "country": "Austria",
        "province": "Tyrol",
        "population": 743,
        "latitude": 47.0666667,
        "longitude": 10.85
    },
    {
        "name": "Ehrwald",
        "country": "Austria",
        "province": "Tyrol",
        "population": 2593,
        "latitude": 47.4,
        "longitude": 10.9166667
    },
    {
        "name": "Schloßberg",
        "country": "Austria",
        "province": "Lower Austria",
        "population": -1,
        "latitude": 48.5675,
        "longitude": 16.3602778
    },
    {
        "name": "Großhart",
        "country": "Austria",
        "province": "Upper Austria",
        "population": 42,
        "latitude": 48.2652778,
        "longitude": 14.1255556
    },
    {
        "name": "Pinswang",
        "country": "Austria",
        "province": "Salzburg",
        "population": -1,
        "latitude": 47.9916667,
        "longitude": 13.0255556
    },
    {
        "name": "Ried im Zillertal",
        "country": "Austria",
        "province": "Tyrol",
        "population": 1280,
        "latitude": 47.3,
        "longitude": 11.8666667
    },
    {
        "name": "Heiligenstadt",
        "country": "Austria",
        "province": "Vienna",
        "population": -1,
        "latitude": 48.25,
        "longitude": 16.3666667
    },
    {
        "name": "Murfeld",
        "country": "Austria",
        "province": "Styria",
        "population": -1,
        "latitude": 47.0333333,
        "longitude": 15.4666667
    },
    {
        "name": "Sankt Josef",
        "country": "Austria",
        "province": "Styria",
        "population": -1,
        "latitude": 47.1333333,
        "longitude": 15.4833333
    },
    {
        "name": "Sankt Johann im Walde",
        "country": "Austria",
        "province": "Tyrol",
        "population": 285,
        "latitude": 46.90264,
        "longitude": 12.6279
    },
    {
        "name": "Finkenstein am Faaker See",
        "country": "Austria",
        "province": "Carinthia",
        "population": 8406,
        "latitude": 46.56081,
        "longitude": 13.87115
    },
    {
        "name": "Attnang-Puchheim",
        "country": "Austria",
        "province": "Upper Austria",
        "population": 8908,
        "latitude": 48.0083333,
        "longitude": 13.7166667
    },
    {
        "name": "Abersee",
        "country": "Austria",
        "province": "Salzburg",
        "population": -1,
        "latitude": 47.73193447949174,
        "longitude": 13.429069519042969
    },
    {
        "name": "Axamer Lizum",
        "country": "Austria",
        "province": "Tyrol",
        "population": 14,
        "latitude": 47.195739,
        "longitude": 11.302496
    },
    {
        "name": "Turracherhöhe",
        "country": "Austria",
        "province": "Carinthia",
        "population": -1,
        "latitude": 46.918655,
        "longitude": 13.879358
    },
    {
        "name": "Alpendorf",
        "country": "Austria",
        "province": "Salzburg",
        "population": -1,
        "latitude": 47.3166667,
        "longitude": 13.2
    },
    {
        "name": "Neuhaus am Klausenbach",
        "country": "Austria",
        "province": "Burgenland",
        "population": 489,
        "latitude": 46.8666667,
        "longitude": 16.0333333
    },
    {
        "name": "Stein",
        "country": "Austria",
        "province": "Styria",
        "population": 52,
        "latitude": 47.5333333,
        "longitude": 14.2166667
    },
    {
        "name": "Kleinzell im Mühlkreis",
        "country": "Austria",
        "province": "Upper Austria",
        "population": 437,
        "latitude": 48.4558473477493,
        "longitude": 13.9919471740723
    },
    {
        "name": "Klein Sankt Paul",
        "country": "Austria",
        "province": "Carinthia",
        "population": 1030,
        "latitude": 46.8361111,
        "longitude": 14.5413889
    },
    {
        "name": "Kleinreifling",
        "country": "Austria",
        "province": "Upper Austria",
        "population": 761,
        "latitude": 47.8166667,
        "longitude": 14.6333333
    },
    {
        "name": "Kleinmutschen",
        "country": "Austria",
        "province": "Burgenland",
        "population": 106,
        "latitude": 47.46297321014047,
        "longitude": 16.574678421020508
    },
    {
        "name": "Kleinmariazell",
        "country": "Austria",
        "province": "Lower Austria",
        "population": 206,
        "latitude": 48.035970519685286,
        "longitude": 15.97412109375
    },
    {
        "name": "Kleinhöflein im Burgenland",
        "country": "Austria",
        "province": "Burgenland",
        "population": 2868,
        "latitude": 47.84150547766023,
        "longitude": 16.504125595092773
    },
    {
        "name": "Klausen-Leopoldsdorf",
        "country": "Austria",
        "province": "Lower Austria",
        "population": 1681,
        "latitude": 48.0877119957574,
        "longitude": 16.0168647766113
    },
    {
        "name": "Klaus an der Pyhrnbahn",
        "country": "Austria",
        "province": "Upper Austria",
        "population": 447,
        "latitude": 47.8313654498075,
        "longitude": 14.1571712493896
    },
    {
        "name": "Klaus",
        "country": "Austria",
        "province": "Vorarlberg",
        "population": 3118,
        "latitude": 47.3633333,
        "longitude": 9.8777778
    },
    {
        "name": "Klam",
        "country": "Austria",
        "province": "Upper Austria",
        "population": 271,
        "latitude": 48.2237005568322,
        "longitude": 14.7778987884521
    },
    {
        "name": "Kirchschlag in der Buckligen Welt",
        "country": "Austria",
        "province": "Lower Austria",
        "population": 1554,
        "latitude": 47.5,
        "longitude": 16.2833333
    },
    {
        "name": "Kirchheim im Innkreis",
        "country": "Austria",
        "province": "Upper Austria",
        "population": 185,
        "latitude": 48.2104897021891,
        "longitude": 13.3586025238037
    },
    {
        "name": "Kirchham",
        "country": "Austria",
        "province": "Upper Austria",
        "population": 715,
        "latitude": 47.9706746211584,
        "longitude": 13.8984775543213
    },
    {
        "name": "Kirchdorf am Inn",
        "country": "Austria",
        "province": "Upper Austria",
        "population": 230,
        "latitude": 48.294157985582,
        "longitude": 13.2820415496826
    },
    {
        "name": "Kirchberg bei Mattighofen",
        "country": "Austria",
        "province": "Upper Austria",
        "population": 277,
        "latitude": 48.0388974226857,
        "longitude": 13.1151866912842
    },
    {
        "name": "Kirchberg an der Pielach",
        "country": "Austria",
        "province": "Lower Austria",
        "population": 1271,
        "latitude": 48.02690180389069,
        "longitude": 15.428752899169922
    },
    {
        "name": "Kirchberg am Wechsel",
        "country": "Austria",
        "province": "Lower Austria",
        "population": 1821,
        "latitude": 47.60737827917403,
        "longitude": 15.991029739379883
    },
    {
        "name": "Kirchberg am Wagram",
        "country": "Austria",
        "province": "Lower Austria",
        "population": 1277,
        "latitude": 48.43182,
        "longitude": 15.89692
    },
    {
        "name": "Kilb",
        "country": "Austria",
        "province": "Lower Austria",
        "population": 1229,
        "latitude": 48.10101181655198,
        "longitude": 15.408496856689453
    },
    {
        "name": "Keutschach am See",
        "country": "Austria",
        "province": "Carinthia",
        "population": 434,
        "latitude": 46.5930556,
        "longitude": 14.1888889
    },
    {
        "name": "Kematen am Innbach",
        "country": "Austria",
        "province": "Upper Austria",
        "population": 657,
        "latitude": 48.1764460440248,
        "longitude": 13.8587379455566
    },
    {
        "name": "Kefermarkt",
        "country": "Austria",
        "province": "Upper Austria",
        "population": 894,
        "latitude": 48.4426395741061,
        "longitude": 14.5387744903564
    },
    {
        "name": "Katzelsdorf",
        "country": "Austria",
        "province": "Lower Austria",
        "population": 1008,
        "latitude": 48.28456366049887,
        "longitude": 16.108360290527344
    },
    {
        "name": "Katzelsdorf",
        "country": "Austria",
        "province": "Lower Austria",
        "population": 3112,
        "latitude": 47.78054907030913,
        "longitude": 16.269850730895996
    },
    {
        "name": "Katsdorf",
        "country": "Austria",
        "province": "Upper Austria",
        "population": 1289,
        "latitude": 48.3179076044577,
        "longitude": 14.4743156433105
    },
    {
        "name": "Kartitsch",
        "country": "Austria",
        "province": "Tyrol",
        "population": 756,
        "latitude": 46.7288889,
        "longitude": 12.5008333
    },
    {
        "name": "Kaprun",
        "country": "Austria",
        "province": "Salzburg",
        "population": 3177,
        "latitude": 47.2723865616421,
        "longitude": 12.7598476409912
    },
    {
        "name": "Kaltenleutgeben",
        "country": "Austria",
        "province": "Lower Austria",
        "population": 3276,
        "latitude": 48.116457073877335,
        "longitude": 16.19955539703369
    },
    {
        "name": "Kaltenberg",
        "country": "Austria",
        "province": "Upper Austria",
        "population": 194,
        "latitude": 48.4500409048969,
        "longitude": 14.7753238677979
    },
    {
        "name": "Kalsdorf bei Graz",
        "country": "Austria",
        "province": "Styria",
        "population": 5171,
        "latitude": 46.9652778,
        "longitude": 15.4802778
    },
    {
        "name": "Kallham",
        "country": "Austria",
        "province": "Upper Austria",
        "population": 563,
        "latitude": 48.2849063460047,
        "longitude": 13.7108516693115
    },
    {
        "name": "Kaisers",
        "country": "Austria",
        "province": "Tyrol",
        "population": -1,
        "latitude": 46.9833333,
        "longitude": 11.0166667
    },
    {
        "name": "Kaindorf an der Sulm",
        "country": "Austria",
        "province": "Styria",
        "population": 2432,
        "latitude": 46.792479507030485,
        "longitude": 15.538787841796875
    },
    {
        "name": "Jungholz",
        "country": "Austria",
        "province": "Tyrol",
        "population": 301,
        "latitude": 47.57409378162266,
        "longitude": 10.447225570678711
    },
    {
        "name": "Julbach",
        "country": "Austria",
        "province": "Upper Austria",
        "population": 855,
        "latitude": 48.660865701473,
        "longitude": 13.8651752471924
    },
    {
        "name": "Josefsberg",
        "country": "Austria",
        "province": "Lower Austria",
        "population": -1,
        "latitude": 47.84450101574877,
        "longitude": 15.313053131103516
    },
    {
        "name": "Jörgen",
        "country": "Austria",
        "province": "Styria",
        "population": -1,
        "latitude": 46.7666667,
        "longitude": 15.95
    },
    {
        "name": "Jochberg",
        "country": "Austria",
        "province": "Tyrol",
        "population": 1577,
        "latitude": 47.37920225012709,
        "longitude": 12.418069839477539
    },
    {
        "name": "Jenbach",
        "country": "Austria",
        "province": "Tyrol",
        "population": 7120,
        "latitude": 47.391725549283144,
        "longitude": 11.772451400756836
    },
    {
        "name": "Jeging",
        "country": "Austria",
        "province": "Upper Austria",
        "population": 258,
        "latitude": 48.0483082974666,
        "longitude": 13.1480598449707
    },
    {
        "name": "Ysper",
        "country": "Austria",
        "province": "Lower Austria",
        "population": 1149,
        "latitude": 48.28865,
        "longitude": 15.06131
    },
    {
        "name": "Iselsberg",
        "country": "Austria",
        "province": "Tyrol",
        "population": 449,
        "latitude": 46.8380556,
        "longitude": 12.8494444
    },
    {
        "name": "Ilz",
        "country": "Austria",
        "province": "Styria",
        "population": 1192,
        "latitude": 47.08649,
        "longitude": 15.92676
    },
    {
        "name": "Illmitz",
        "country": "Austria",
        "province": "Burgenland",
        "population": 2385,
        "latitude": 47.76148371616669,
        "longitude": 16.800241470336914
    },
    {
        "name": "Hörsching",
        "country": "Austria",
        "province": "Upper Austria",
        "population": 2155,
        "latitude": 48.226273703233,
        "longitude": 14.1778564453125
    },
    {
        "name": "Hornstein",
        "country": "Austria",
        "province": "Burgenland",
        "population": 3012,
        "latitude": 47.8804915458095,
        "longitude": 16.444473266601562
    },
    {
        "name": "Horn",
        "country": "Austria",
        "province": "Lower Austria",
        "population": 5494,
        "latitude": 48.66273651683319,
        "longitude": 15.656633377075195
    },
    {
        "name": "Hörbich",
        "country": "Austria",
        "province": "Upper Austria",
        "population": 101,
        "latitude": 48.5177414261703,
        "longitude": 13.9145278930664
    },
    {
        "name": "Zell-Homölisch",
        "country": "Austria",
        "province": "Carinthia",
        "population": 16,
        "latitude": 46.510768,
        "longitude": 14.448684
    },
    {
        "name": "Hohenweiler",
        "country": "Austria",
        "province": "Vorarlberg",
        "population": 1271,
        "latitude": 47.58449,
        "longitude": 9.7795
    },
    {
        "name": "Höhenberg",
        "country": "Austria",
        "province": "Lower Austria",
        "population": -1,
        "latitude": 48.7666667,
        "longitude": 14.8666667
    },
    {
        "name": "Höflein an der Donau",
        "country": "Austria",
        "province": "Lower Austria",
        "population": 806,
        "latitude": 48.34974671150719,
        "longitude": 16.274700164794922
    },
    {
        "name": "Hofkirchen im Mühlkreis",
        "country": "Austria",
        "province": "Upper Austria",
        "population": 739,
        "latitude": 48.4833904380099,
        "longitude": 13.8095569610596
    },
    {
        "name": "Hofkirchen an der Trattnach",
        "country": "Austria",
        "province": "Upper Austria",
        "population": 758,
        "latitude": 48.2198120012811,
        "longitude": 13.7394332885742
    },
    {
        "name": "Hof am Leithaberge",
        "country": "Austria",
        "province": "Lower Austria",
        "population": 1549,
        "latitude": 47.95,
        "longitude": 16.5833333
    },
    {
        "name": "Höchst",
        "country": "Austria",
        "province": "Vorarlberg",
        "population": 7995,
        "latitude": 47.4593391276811,
        "longitude": 9.6405029296875
    },
    {
        "name": "Hirschbach im Mühlkreis",
        "country": "Austria",
        "province": "Upper Austria",
        "population": 367,
        "latitude": 48.4889655248189,
        "longitude": 14.4120025634766
    },
    {
        "name": "Hirm",
        "country": "Austria",
        "province": "Burgenland",
        "population": 1009,
        "latitude": 47.78651817526727,
        "longitude": 16.454601287841797
    },
    {
        "name": "Hippach",
        "country": "Austria",
        "province": "Tyrol",
        "population": 1371,
        "latitude": 47.20435082890541,
        "longitude": 11.865234375
    },
    {
        "name": "Hinzenbach",
        "country": "Austria",
        "province": "Upper Austria",
        "population": 385,
        "latitude": 48.32367,
        "longitude": 13.99564
    },
    {
        "name": "Hinterwaldberg",
        "country": "Austria",
        "province": "Salzburg",
        "population": 49,
        "latitude": 47.25,
        "longitude": 12.2
    },
    {
        "name": "Tyrnau",
        "country": "Austria",
        "province": "Styria",
        "population": 110,
        "latitude": 47.3166667,
        "longitude": 15.4166667
    },
    {
        "name": "Hintertux",
        "country": "Austria",
        "province": "Tyrol",
        "population": 23,
        "latitude": 47.1166667,
        "longitude": 11.6833333
    },
    {
        "name": "Hinterthal",
        "country": "Austria",
        "province": "Salzburg",
        "population": 212,
        "latitude": 47.4,
        "longitude": 12.9666667
    },
    {
        "name": "Hinterstoder",
        "country": "Austria",
        "province": "Upper Austria",
        "population": 342,
        "latitude": 47.6995669098978,
        "longitude": 14.1546821594238
    },
    {
        "name": "Hinterriss",
        "country": "Austria",
        "province": "Tyrol",
        "population": -1,
        "latitude": 47.4666667,
        "longitude": 11.4666667
    },
    {
        "name": "Hinterbrühl",
        "country": "Austria",
        "province": "Lower Austria",
        "population": 3466,
        "latitude": 48.0861066123234,
        "longitude": 16.2480926513672
    },
    {
        "name": "Himberg",
        "country": "Austria",
        "province": "Lower Austria",
        "population": 5331,
        "latitude": 48.0833333,
        "longitude": 16.4333333
    },
    {
        "name": "Hietzing",
        "country": "Austria",
        "province": "Vienna",
        "population": 54265,
        "latitude": 48.18623233587183,
        "longitude": 16.29650115966797
    },
    {
        "name": "Hessendorf",
        "country": "Austria",
        "province": "Lower Austria",
        "population": 36,
        "latitude": 48.3166667,
        "longitude": 15.5
    },
    {
        "name": "Hernals",
        "country": "Austria",
        "province": "Vienna",
        "population": 57546,
        "latitude": 48.2333333,
        "longitude": 16.2666667
    },
    {
        "name": "Hellmonsödt",
        "country": "Austria",
        "province": "Upper Austria",
        "population": 1551,
        "latitude": 48.4333333,
        "longitude": 14.3
    },
    {
        "name": "Helfenberg",
        "country": "Austria",
        "province": "Upper Austria",
        "population": 376,
        "latitude": 48.5442849259794,
        "longitude": 14.1421508789062
    },
    {
        "name": "Heiligenkreuz im Lafnitztal",
        "country": "Austria",
        "province": "Burgenland",
        "population": 814,
        "latitude": 46.9891667,
        "longitude": 16.2608333
    },
    {
        "name": "Heilbrunn",
        "country": "Austria",
        "province": "Styria",
        "population": -1,
        "latitude": 47.3333333,
        "longitude": 15.6166667
    },
    {
        "name": "Heidenreichstein",
        "country": "Austria",
        "province": "Lower Austria",
        "population": 2593,
        "latitude": 48.8666667,
        "longitude": 15.1166667
    },
    {
        "name": "Hausmannstätten",
        "country": "Austria",
        "province": "Styria",
        "population": 2934,
        "latitude": 46.9911111,
        "longitude": 15.5113889
    },
    {
        "name": "Häusling",
        "country": "Austria",
        "province": "Lower Austria",
        "population": 98,
        "latitude": 48.25516982642735,
        "longitude": 15.445232391357422
    },
    {
        "name": "Hausleiten",
        "country": "Austria",
        "province": "Lower Austria",
        "population": 1488,
        "latitude": 48.3833333,
        "longitude": 16.1
    },
    {
        "name": "Hargelsberg",
        "country": "Austria",
        "province": "Upper Austria",
        "population": 452,
        "latitude": 48.1486221715428,
        "longitude": 14.4269371032715
    },
    {
        "name": "Halltal",
        "country": "Austria",
        "province": "Tyrol",
        "population": -1,
        "latitude": 47.32916656190078,
        "longitude": 11.490497589111328
    },
    {
        "name": "Halbturn",
        "country": "Austria",
        "province": "Burgenland",
        "population": 1901,
        "latitude": 47.870186411377034,
        "longitude": 16.975421905517578
    },
    {
        "name": "Haimburg",
        "country": "Austria",
        "province": "Carinthia",
        "population": 342,
        "latitude": 46.695,
        "longitude": 14.6725
    },
    {
        "name": "Haigermoos",
        "country": "Austria",
        "province": "Upper Austria",
        "population": 186,
        "latitude": 48.0450376395882,
        "longitude": 12.8818130493164
    },
    {
        "name": "Hagenbrunn",
        "country": "Austria",
        "province": "Lower Austria",
        "population": 1875,
        "latitude": 48.3333333,
        "longitude": 16.4
    },
    {
        "name": "Hafning bei Trofaiach",
        "country": "Austria",
        "province": "Styria",
        "population": 493,
        "latitude": 47.4333333,
        "longitude": 15
    },
    {
        "name": "Hadersdorf am Kamp",
        "country": "Austria",
        "province": "Lower Austria",
        "population": 1653,
        "latitude": 48.45848,
        "longitude": 15.72051
    },
    {
        "name": "Haag am Hausruck",
        "country": "Austria",
        "province": "Upper Austria",
        "population": 1144,
        "latitude": 48.1842294457442,
        "longitude": 13.6437320709229
    },
    {
        "name": "Haag",
        "country": "Austria",
        "province": "Lower Austria",
        "population": 2777,
        "latitude": 48.11362,
        "longitude": 14.56753
    },
    {
        "name": "Gutau",
        "country": "Austria",
        "province": "Upper Austria",
        "population": 1097,
        "latitude": 48.4172391177935,
        "longitude": 14.6128463745117
    },
    {
        "name": "Gusen",
        "country": "Austria",
        "province": "Upper Austria",
        "population": 793,
        "latitude": 48.25839854713787,
        "longitude": 14.461956024169922
    },
    {
        "name": "Gurten",
        "country": "Austria",
        "province": "Upper Austria",
        "population": 650,
        "latitude": 48.2413668899102,
        "longitude": 13.3443546295166
    },
    {
        "name": "Gurk",
        "country": "Austria",
        "province": "Carinthia",
        "population": 857,
        "latitude": 46.8738889,
        "longitude": 14.2916667
    },
    {
        "name": "Gurk",
        "country": "Austria",
        "province": "Carinthia",
        "population": -1,
        "latitude": 46.7666667,
        "longitude": 14
    },
    {
        "name": "Guntramsdorf",
        "country": "Austria",
        "province": "Lower Austria",
        "population": 9179,
        "latitude": 48.04687382396718,
        "longitude": 16.313838958740234
    },
    {
        "name": "Günselsdorf",
        "country": "Austria",
        "province": "Lower Austria",
        "population": 1707,
        "latitude": 47.94394667836211,
        "longitude": 16.260623931884766
    },
    {
        "name": "Gschaid bei Birkfeld",
        "country": "Austria",
        "province": "Styria",
        "population": 881,
        "latitude": 47.35202,
        "longitude": 15.70178
    },
    {
        "name": "Grosswarasdorf",
        "country": "Austria",
        "province": "Burgenland",
        "population": 527,
        "latitude": 47.53906433218757,
        "longitude": 16.553049087524414
    },
    {
        "name": "Grossraming",
        "country": "Austria",
        "province": "Upper Austria",
        "population": 1097,
        "latitude": 47.8833333,
        "longitude": 14.55
    },
    {
        "name": "Grossmürbisch",
        "country": "Austria",
        "province": "Burgenland",
        "population": -1,
        "latitude": 47.01637044656555,
        "longitude": 16.361989974975586
    },
    {
        "name": "Großlobming",
        "country": "Austria",
        "province": "Styria",
        "population": 1228,
        "latitude": 47.1833333,
        "longitude": 14.8
    },
    {
        "name": "Heimschuh",
        "country": "Austria",
        "province": "Styria",
        "population": 1025,
        "latitude": 46.76,
        "longitude": 15.4930556
    },
    {
        "name": "Grossgmain",
        "country": "Austria",
        "province": "Salzburg",
        "population": 2615,
        "latitude": 47.72416,
        "longitude": 12.90851
    },
    {
        "name": "Großebersdorf",
        "country": "Austria",
        "province": "Lower Austria",
        "population": 1108,
        "latitude": 48.36404786461813,
        "longitude": 16.47076427936554
    },
    {
        "name": "Grossarl",
        "country": "Austria",
        "province": "Salzburg",
        "population": 3825,
        "latitude": 47.2333333,
        "longitude": 13.2
    },
    {
        "name": "Grödig",
        "country": "Austria",
        "province": "Salzburg",
        "population": 3751,
        "latitude": 47.73833,
        "longitude": 13.0373
    },
    {
        "name": "Gröbming",
        "country": "Austria",
        "province": "Styria",
        "population": 3013,
        "latitude": 47.44271779725319,
        "longitude": 13.901224136352539
    },
    {
        "name": "Grins",
        "country": "Austria",
        "province": "Tyrol",
        "population": 1398,
        "latitude": 47.140343849142305,
        "longitude": 10.514087677001953
    },
    {
        "name": "Gratwein",
        "country": "Austria",
        "province": "Styria",
        "population": 3729,
        "latitude": 47.1166667,
        "longitude": 15.3166667
    },
    {
        "name": "Gratkorn",
        "country": "Austria",
        "province": "Styria",
        "population": 6806,
        "latitude": 47.1333333,
        "longitude": 15.35
    },
    {
        "name": "Grambach",
        "country": "Austria",
        "province": "Styria",
        "population": 1778,
        "latitude": 47.01473,
        "longitude": 15.50407
    },
    {
        "name": "Gramastetten",
        "country": "Austria",
        "province": "Upper Austria",
        "population": 1592,
        "latitude": 48.38028328943825,
        "longitude": 14.19184684753418
    },
    {
        "name": "Grafensulz",
        "country": "Austria",
        "province": "Lower Austria",
        "population": -1,
        "latitude": 48.55,
        "longitude": 16.4333333
    },
    {
        "name": "Grafendorf bei Hartberg",
        "country": "Austria",
        "province": "Styria",
        "population": 1047,
        "latitude": 47.34028,
        "longitude": 15.9906
    },
    {
        "name": "Graden",
        "country": "Austria",
        "province": "Styria",
        "population": 275,
        "latitude": 47.26406,
        "longitude": 14.72709
    },
    {
        "name": "Götzens",
        "country": "Austria",
        "province": "Tyrol",
        "population": 4062,
        "latitude": 47.236063144806344,
        "longitude": 11.311540603637695
    },
    {
        "name": "Gössl",
        "country": "Austria",
        "province": "Styria",
        "population": 335,
        "latitude": 47.63399,
        "longitude": 13.90264
    },
    {
        "name": "Gössendorf",
        "country": "Austria",
        "province": "Styria",
        "population": 2539,
        "latitude": 46.99826,
        "longitude": 15.48556
    },
    {
        "name": "Gols",
        "country": "Austria",
        "province": "Burgenland",
        "population": 3835,
        "latitude": 47.8968949328359,
        "longitude": 16.9111347198486
    },
    {
        "name": "Gnas",
        "country": "Austria",
        "province": "Styria",
        "population": 818,
        "latitude": 46.8730556,
        "longitude": 15.8252778
    },
    {
        "name": "Gloggnitz",
        "country": "Austria",
        "province": "Lower Austria",
        "population": 4730,
        "latitude": 47.67486626415251,
        "longitude": 15.93893051147461
    },
    {
        "name": "Globasnitz",
        "country": "Austria",
        "province": "Carinthia",
        "population": 293,
        "latitude": 46.5569444,
        "longitude": 14.7027778
    },
    {
        "name": "Gleinstätten",
        "country": "Austria",
        "province": "Styria",
        "population": 1010,
        "latitude": 46.7536111,
        "longitude": 15.3697222
    },
    {
        "name": "Glashütten bei Schlaining",
        "country": "Austria",
        "province": "Burgenland",
        "population": 116,
        "latitude": 47.35,
        "longitude": 16.333333
    },
    {
        "name": "Glasenbach",
        "country": "Austria",
        "province": "Salzburg",
        "population": 1605,
        "latitude": 47.7666667,
        "longitude": 13.0833333
    },
    {
        "name": "Gilgenberg am Weilhart",
        "country": "Austria",
        "province": "Upper Austria",
        "population": 336,
        "latitude": 48.129606240269,
        "longitude": 12.9394912719727
    },
    {
        "name": "Gießhübl",
        "country": "Austria",
        "province": "Lower Austria",
        "population": 2335,
        "latitude": 48.09780182994637,
        "longitude": 16.23478889465332
    },
    {
        "name": "Gisingen",
        "country": "Austria",
        "province": "Vorarlberg",
        "population": -1,
        "latitude": 47.25888834524454,
        "longitude": 9.5965576171875
    },
    {
        "name": "Gföhl",
        "country": "Austria",
        "province": "Lower Austria",
        "population": 2125,
        "latitude": 48.5166667,
        "longitude": 15.4833333
    },
    {
        "name": "Gfangen",
        "country": "Austria",
        "province": "Burgenland",
        "population": -1,
        "latitude": 47.3819,
        "longitude": 16.1011
    },
    {
        "name": "Gerichtsberg",
        "country": "Austria",
        "province": "Lower Austria",
        "population": 65,
        "latitude": 48.02977182326925,
        "longitude": 15.858592987060547
    },
    {
        "name": "Geretsberg",
        "country": "Austria",
        "province": "Upper Austria",
        "population": 196,
        "latitude": 48.0893173290817,
        "longitude": 12.9339981079102
    },
    {
        "name": "Gerasdorf bei Wien",
        "country": "Austria",
        "province": "Lower Austria",
        "population": 9442,
        "latitude": 48.2944720550389,
        "longitude": 16.4676475524902
    },
    {
        "name": "Gemmersdorf",
        "country": "Austria",
        "province": "Carinthia",
        "population": 693,
        "latitude": 46.75,
        "longitude": 14.9166667
    },
    {
        "name": "Gemeinlebarn",
        "country": "Austria",
        "province": "Lower Austria",
        "population": 736,
        "latitude": 48.3360549085607,
        "longitude": 15.805549621582031
    },
    {
        "name": "Stainz",
        "country": "Austria",
        "province": "Styria",
        "population": 1677,
        "latitude": 46.8944444,
        "longitude": 15.2672222
    },
    {
        "name": "Stainach",
        "country": "Austria",
        "province": "Styria",
        "population": 1893,
        "latitude": 47.53342905180247,
        "longitude": 14.108719825744629
    },
    {
        "name": "Spitzzicken",
        "country": "Austria",
        "province": "Burgenland",
        "population": 202,
        "latitude": 47.281034094796816,
        "longitude": 16.280794143676758
    },
    {
        "name": "Spielberg bei Knittelfeld",
        "country": "Austria",
        "province": "Styria",
        "population": 4228,
        "latitude": 47.2166667,
        "longitude": 14.7833333
    },
    {
        "name": "Sommerein",
        "country": "Austria",
        "province": "Lower Austria",
        "population": 1947,
        "latitude": 47.9833333,
        "longitude": 16.65
    },
    {
        "name": "Söll",
        "country": "Austria",
        "province": "Tyrol",
        "population": 3631,
        "latitude": 47.5037795350446,
        "longitude": 12.1922063827515
    },
    {
        "name": "Sittersdorf",
        "country": "Austria",
        "province": "Carinthia",
        "population": 173,
        "latitude": 46.5444444,
        "longitude": 14.6058333
    },
    {
        "name": "Sipbachzell",
        "country": "Austria",
        "province": "Upper Austria",
        "population": 829,
        "latitude": 48.0972285969613,
        "longitude": 14.1110801696777
    },
    {
        "name": "Silz",
        "country": "Austria",
        "province": "Tyrol",
        "population": 2536,
        "latitude": 47.2666667,
        "longitude": 10.9333333
    },
    {
        "name": "Sillian",
        "country": "Austria",
        "province": "Tyrol",
        "population": 1604,
        "latitude": 46.7527778,
        "longitude": 12.4211111
    },
    {
        "name": "Sigharting",
        "country": "Austria",
        "province": "Upper Austria",
        "population": 592,
        "latitude": 48.39649929054651,
        "longitude": 13.597984313964844
    },
    {
        "name": "Siget in der Wart",
        "country": "Austria",
        "province": "Burgenland",
        "population": 289,
        "latitude": 47.261291192200794,
        "longitude": 16.27796173095703
    },
    {
        "name": "Sierning",
        "country": "Austria",
        "province": "Upper Austria",
        "population": 4025,
        "latitude": 48.043430924559,
        "longitude": 14.3093490600586
    },
    {
        "name": "Sieghartskirchen",
        "country": "Austria",
        "province": "Lower Austria",
        "population": 2042,
        "latitude": 48.25531269448708,
        "longitude": 16.012229919433594
    },
    {
        "name": "Siegendorf im Burgenland",
        "country": "Austria",
        "province": "Burgenland",
        "population": 2963,
        "latitude": 47.7809816371814,
        "longitude": 16.542320251464844
    },
    {
        "name": "Senning",
        "country": "Austria",
        "province": "Lower Austria",
        "population": 347,
        "latitude": 48.45,
        "longitude": 16.2166667
    },
    {
        "name": "Senftenberg",
        "country": "Austria",
        "province": "Lower Austria",
        "population": 1015,
        "latitude": 48.45222,
        "longitude": 15.54452
    },
    {
        "name": "Senftenbach",
        "country": "Austria",
        "province": "Upper Austria",
        "population": 158,
        "latitude": 48.2613127925103,
        "longitude": 13.4179973602295
    },
    {
        "name": "Semriach",
        "country": "Austria",
        "province": "Styria",
        "population": 1392,
        "latitude": 47.2166667,
        "longitude": 15.4
    },
    {
        "name": "Semmering",
        "country": "Austria",
        "province": "Lower Austria",
        "population": 544,
        "latitude": 47.633470089967,
        "longitude": 15.8299255371094
    },
    {
        "name": "Selzthal",
        "country": "Austria",
        "province": "Styria",
        "population": 1023,
        "latitude": 47.54988,
        "longitude": 14.31201
    },
    {
        "name": "Seebach",
        "country": "Austria",
        "province": "Carinthia",
        "population": 3938,
        "latitude": 46.6166667,
        "longitude": 13.8666667
    },
    {
        "name": "See",
        "country": "Austria",
        "province": "Tyrol",
        "population": 1265,
        "latitude": 47.0833333,
        "longitude": 10.4666667
    },
    {
        "name": "Schwertberg",
        "country": "Austria",
        "province": "Upper Austria",
        "population": 3895,
        "latitude": 48.2733965664636,
        "longitude": 14.5847368240356
    },
    {
        "name": "Schwendau",
        "country": "Austria",
        "province": "Tyrol",
        "population": 1725,
        "latitude": 47.19752787067431,
        "longitude": 11.858968734741211
    },