[
    {
        "name": "Ouagadougou",
        "country": "Burkina Faso",
        "province": "Centre",
        "population": 1086505,
        "latitude": 12.365657975270413,
        "longitude": -1.5338802337646484
    },
    {
        "name": "Bobo-Dioulasso",
        "country": "Burkina Faso",
        "province": "Hauts-Bassins",
        "population": 904920,
        "latitude": 11.177154,
        "longitude": -4.297901
    },
    {
        "name": "Banfora",
        "country": "Burkina Faso",
        "province": "Cascades",
        "population": 117452,
        "latitude": 10.6333333,
        "longitude": -4.7666667
    },
    {
        "name": "Ouahigouya",
        "country": "Burkina Faso",
        "province": "Nord",
        "population": 124587,
        "latitude": 13.582782,
        "longitude": -2.421582
    },
    {
        "name": "Koudougou",
        "country": "Burkina Faso",
        "province": "Centre-Ouest",
        "population": 160239,
        "latitude": 12.252632,
        "longitude": -2.36272
    },
    {
        "name": "Dédougou",
        "country": "Burkina Faso",
        "province": "Boucle du Mouhoun",
        "population": 63617,
        "latitude": 12.463378,
        "longitude": -3.460746
    },
    {
        "name": "Tenkodogo",
        "country": "Burkina Faso",
        "province": "Centre-Est",
        "population": 61936,
        "latitude": 11.78,
        "longitude": -0.3697222
    },
    {
        "name": "Kaya",
        "country": "Burkina Faso",
        "province": "Centre-Nord",
        "population": 121970,
        "latitude": 13.0916667,
        "longitude": -1.0844444
    },
    {
        "name": "Fada N'gourma",
        "country": "Burkina Faso",
        "province": "Est",
        "population": 73200,
        "latitude": 12.061567,
        "longitude": 0.358433
    },
    {
        "name": "Dori",
        "country": "Burkina Faso",
        "province": "Sahel",
        "population": 46512,
        "latitude": 14.034099,
        "longitude": -0.032615
    },
    {
        "name": "Ziniaré",
        "country": "Burkina Faso",
        "province": "Plateau-Central",
        "population": 33296,
        "latitude": 12.581862,
        "longitude": -1.297104
    },
    {
        "name": "Houndé",
        "country": "Burkina Faso",
        "province": "Hauts-Bassins",
        "population": 87151,
        "latitude": 11.5,
        "longitude": -3.516667
    },
    {
        "name": "Gaoua",
        "country": "Burkina Faso",
        "province": "Sud-Ouest",
        "population": 45284,
        "latitude": 10.331371,
        "longitude": -3.182025
    },
    {
        "name": "Djibo",
        "country": "Burkina Faso",
        "province": "Sahel",
        "population": 61462,
        "latitude": 14.099396,
        "longitude": -1.62554
    },
    {
        "name": "Manga",
        "country": "Burkina Faso",
        "province": "Centre-Sud",
        "population": 28615,
        "latitude": 11.6636111,
        "longitude": -1.0730556
    },
    {
        "name": "Léo",
        "country": "Burkina Faso",
        "province": "Centre-Ouest",
        "population": 51743,
        "latitude": 11.100327,
        "longitude": -2.106541
    },
    {
        "name": "Kongoussi",
        "country": "Burkina Faso",
        "province": "Centre-Nord",
        "population": 53627,
        "latitude": 13.3258333,
        "longitude": -1.5347222
    },
    {
        "name": "Gourcy",
        "country": "Burkina Faso",
        "province": "Nord",
        "population": 40141,
        "latitude": 13.207756,
        "longitude": -2.358932
    },
    {
        "name": "Garango",
        "country": "Burkina Faso",
        "province": "Centre-Est",
        "population": 40404,
        "latitude": 11.8,
        "longitude": -0.550556
    },
    {
        "name": "Diébougou",
        "country": "Burkina Faso",
        "province": "Sud-Ouest",
        "population": 25688,
        "latitude": 10.962089,
        "longitude": -3.249673
    },
    {
        "name": "Dano",
        "country": "Burkina Faso",
        "province": "Sud-Ouest",
        "population": 25922,
        "latitude": 11.146402,
        "longitude": -3.057837
    },
    {
        "name": "Boussé",
        "country": "Burkina Faso",
        "province": "Plateau-Central",
        "population": 25022,
        "latitude": 12.661208,
        "longitude": -1.895145
    },
    {
        "name": "Boulsa",
        "country": "Burkina Faso",
        "province": "Centre-Nord",
        "population": 24200,
        "latitude": 12.666641,
        "longitude": -0.574685
    },
    {
        "name": "Boromo",
        "country": "Burkina Faso",
        "province": "Boucle du Mouhoun",
        "population": 20193,
        "latitude": 11.745422,
        "longitude": -2.930063
    },
    {
        "name": "Yako",
        "country": "Burkina Faso",
        "province": "Nord",
        "population": 38679,
        "latitude": 12.959101,
        "longitude": -2.260746
    },
    {
        "name": "Tougan",
        "country": "Burkina Faso",
        "province": "Boucle du Mouhoun",
        "population": 26347,
        "latitude": 13.0725,
        "longitude": -3.0694
    },
    {
        "name": "Titao",
        "country": "Burkina Faso",
        "province": "Nord",
        "population": 48241,
        "latitude": 13.7666667,
        "longitude": -2.0666667
    },
    {
        "name": "Sapouy",
        "country": "Burkina Faso",
        "province": "Centre-Ouest",
        "population": 26345,
        "latitude": 11.5544444,
        "longitude": -1.7736111
    },
    {
        "name": "Réo",
        "country": "Burkina Faso",
        "province": "Centre-Ouest",
        "population": 33894,
        "latitude": 12.319627,
        "longitude": -2.470943
    },
    {
        "name": "Nouna",
        "country": "Burkina Faso",
        "province": "Boucle du Mouhoun",
        "population": 32428,
        "latitude": 12.729385,
        "longitude": -3.863049
    },
    {
        "name": "Koupéla",
        "country": "Burkina Faso",
        "province": "Centre-Est",
        "population": 49372,
        "latitude": 12.178644,
        "longitude": -0.351031
    },
    {
        "name": "Kombissiri",
        "country": "Burkina Faso",
        "province": "Centre-Sud",
        "population": 28617,
        "latitude": 12.068836,
        "longitude": -1.336438
    },
    {
        "name": "Kokologo",
        "country": "Burkina Faso",
        "province": "Centre-Ouest",
        "population": 25958,
        "latitude": 12.193917,
        "longitude": -1.876871
    },
    {
        "name": "Zorgo",
        "country": "Burkina Faso",
        "province": "Plateau-Central",
        "population": 35398,
        "latitude": 12.249222,
        "longitude": -0.61527
    },
    {
        "name": "Imiougou-Natenga",
        "country": "Burkina Faso",
        "province": "Centre-Nord",
        "population": -1,
        "latitude": 12.898333,
        "longitude": -1.298889
    },
    {
        "name": "Gayéri",
        "country": "Burkina Faso",
        "province": "Est",
        "population": 15170,
        "latitude": 12.648238,
        "longitude": 0.493139
    },
    {
        "name": "Diapaga",
        "country": "Burkina Faso",
        "province": "Est",
        "population": 15515,
        "latitude": 12.073053,
        "longitude": 1.788385
    },
    {
        "name": "Bogandé",
        "country": "Burkina Faso",
        "province": "Est",
        "population": 21443,
        "latitude": 12.970402,
        "longitude": -0.149532
    },
    {
        "name": "Batié",
        "country": "Burkina Faso",
        "province": "Sud-Ouest",
        "population": 17997,
        "latitude": 9.8833333,
        "longitude": -2.9166667
    },
    {
        "name": "Toma",
        "country": "Burkina Faso",
        "province": "Boucle du Mouhoun",
        "population": 15851,
        "latitude": 12.758444,
        "longitude": -2.898793
    },
    {
        "name": "Solenzo",
        "country": "Burkina Faso",
        "province": "Boucle du Mouhoun",
        "population": 24783,
        "latitude": 12.174233,
        "longitude": -4.084773
    },
    {
        "name": "Sebba",
        "country": "Burkina Faso",
        "province": "Sahel",
        "population": 11298,
        "latitude": 13.4364122,
        "longitude": 0.530443
    },
    {
        "name": "Pô",
        "country": "Burkina Faso",
        "province": "Centre-Sud",
        "population": 17924,
        "latitude": 11.1697222,
        "longitude": -1.145
    },
    {
        "name": "Pitmoaga",
        "country": "Burkina Faso",
        "province": "Centre-Ouest",
        "population": 7991,
        "latitude": 12.245637,
        "longitude": -1.881483
    },
    {
        "name": "Pama",
        "country": "Burkina Faso",
        "province": "Est",
        "population": 13579,
        "latitude": 11.2497222,
        "longitude": 0.7075
    },
    {
        "name": "Ouargaye",
        "country": "Burkina Faso",
        "province": "Centre-Est",
        "population": 13431,
        "latitude": 11.502025,
        "longitude": 0.058857
    },
    {
        "name": "Kakoumana",
        "country": "Burkina Faso",
        "province": "Cascades",
        "population": -1,
        "latitude": 10.233333,
        "longitude": -4.933333
    },
    {
        "name": "Kaho",
        "country": "Burkina Faso",
        "province": "Boucle du Mouhoun",
        "population": -1,
        "latitude": 11.7,
        "longitude": -3.3
    },
    {
        "name": "Kahin",
        "country": "Burkina Faso",
        "province": "Boucle du Mouhoun",
        "population": -1,
        "latitude": 11.8,
        "longitude": -3.35
    },
    {
        "name": "Kadio",
        "country": "Burkina Faso",
        "province": "Cascades",
        "population": -1,
        "latitude": 10.366667,
        "longitude": -4.233333
    },
    {
        "name": "Kabourou",
        "country": "Burkina Faso",
        "province": "Boucle du Mouhoun",
        "population": -1,
        "latitude": 11.422554,
        "longitude": -2.756541
    },
    {
        "name": "Kabouda",
        "country": "Burkina Faso",
        "province": "Plateau-Central",
        "population": -1,
        "latitude": 12.366667,
        "longitude": -0.716667
    },
    {
        "name": "Kabinou",
        "country": "Burkina Faso",
        "province": "Centre-Ouest",
        "population": -1,
        "latitude": 12.183333,
        "longitude": -2.283333
    },
    {
        "name": "Kabéra",
        "country": "Burkina Faso",
        "province": "Centre-Est",
        "population": -1,
        "latitude": 12.159101,
        "longitude": -0.135636
    },
    {
        "name": "Ipèndo",
        "country": "Burkina Faso",
        "province": "Centre-Ouest",
        "population": -1,
        "latitude": 12.017325,
        "longitude": -2.308114
    },
    {
        "name": "Ipala",
        "country": "Burkina Faso",
        "province": "Centre-Nord",
        "population": -1,
        "latitude": 13.326142,
        "longitude": -1.765258
    },
    {
        "name": "Ipala",
        "country": "Burkina Faso",
        "province": "Plateau-Central",
        "population": -1,
        "latitude": 12.383333,
        "longitude": -0.65
    },
    {
        "name": "Intiédougou",
        "country": "Burkina Faso",
        "province": "Hauts-Bassins",
        "population": -1,
        "latitude": 11.10909,
        "longitude": -3.51335
    },
    {
        "name": "Imiougou",
        "country": "Burkina Faso",
        "province": "Centre-Nord",
        "population": -1,
        "latitude": 13.151166,
        "longitude": -1.539261
    },
    {
        "name": "Imiga",
        "country": "Burkina Faso",
        "province": "Plateau-Central",
        "population": -1,
        "latitude": 12.316667,
        "longitude": -0.55
    },
    {
        "name": "Ibogo",
        "country": "Burkina Faso",
        "province": "Burkina Faso",
        "population": -1,
        "latitude": 11.9333333,
        "longitude": -0.9
    },
    {
        "name": "Horé",
        "country": "Burkina Faso",
        "province": "Centre-Nord",
        "population": -1,
        "latitude": 13.275461,
        "longitude": -1.677259
    },
    {
        "name": "Haho",
        "country": "Burkina Faso",
        "province": "Boucle du Mouhoun",
        "population": -1,
        "latitude": 11.8,
        "longitude": -3.55
    },
    {
        "name": "Haho",
        "country": "Burkina Faso",
        "province": "Boucle du Mouhoun",
        "population": -1,
        "latitude": 11.783333,
        "longitude": -3.316667
    },
    {
        "name": "Habé",
        "country": "Burkina Faso",
        "province": "Boucle du Mouhoun",
        "population": -1,
        "latitude": 11.866667,
        "longitude": -3.133333
    },
    {
        "name": "Guitanga",
        "country": "Burkina Faso",
        "province": "Sahel",
        "population": -1,
        "latitude": 13.0602388,
        "longitude": 0.8185742
    },
    {
        "name": "Guirgo",
        "country": "Burkina Faso",
        "province": "Centre-Sud",
        "population": -1,
        "latitude": 11.902778,
        "longitude": -1.359444
    },
    {
        "name": "Guibaré",
        "country": "Burkina Faso",
        "province": "Centre-Nord",
        "population": -1,
        "latitude": 13.097376,
        "longitude": -1.603644
    },
    {
        "name": "Guiaro",
        "country": "Burkina Faso",
        "province": "Centre-Sud",
        "population": -1,
        "latitude": 11.368889,
        "longitude": -1.377222
    },
    {
        "name": "Guéguéré",
        "country": "Burkina Faso",
        "province": "Sud-Ouest",
        "population": -1,
        "latitude": 11.133333,
        "longitude": -3.183333
    },
    {
        "name": "Gouym",
        "country": "Burkina Faso",
        "province": "Centre-Ouest",
        "population": -1,
        "latitude": 12.416667,
        "longitude": -2.15
    },
    {
        "name": "Gousi",
        "country": "Burkina Faso",
        "province": "Boucle du Mouhoun",
        "population": 516,
        "latitude": 12.6561,
        "longitude": -2.7953
    },
    {
        "name": "Gourongo",
        "country": "Burkina Faso",
        "province": "Centre-Ouest",
        "population": -1,
        "latitude": 12.316667,
        "longitude": -2.15
    },
    {
        "name": "Goungla",
        "country": "Burkina Faso",
        "province": "Centre-Nord",
        "population": -1,
        "latitude": 13.155151,
        "longitude": -1.552964
    },
    {
        "name": "Goundou",
        "country": "Burkina Faso",
        "province": "Est",
        "population": -1,
        "latitude": 13.4844628,
        "longitude": 0.0164551
    },
    {
        "name": "Goumsa",
        "country": "Burkina Faso",
        "province": "Centre-Sud",
        "population": -1,
        "latitude": 12.055747,
        "longitude": -1.865664
    },
    {
        "name": "Goumogo",
        "country": "Burkina Faso",
        "province": "Centre",
        "population": -1,
        "latitude": 12.106221,
        "longitude": -1.76607
    },
    {
        "name": "Goumsin",
        "country": "Burkina Faso",
        "province": "Centre-Sud",
        "population": -1,
        "latitude": 12.00029,
        "longitude": -1.80851
    },
    {
        "name": "Goumbio",
        "country": "Burkina Faso",
        "province": "Boucle du Mouhoun",
        "population": -1,
        "latitude": 12.466667,
        "longitude": -3.733333
    },
    {
        "name": "Gouingo",
        "country": "Burkina Faso",
        "province": "Plateau-Central",
        "population": -1,
        "latitude": 12.239912,
        "longitude": -0.823794
    },
    {
        "name": "Gouindougouni",
        "country": "Burkina Faso",
        "province": "Cascades",
        "population": -1,
        "latitude": 10.55,
        "longitude": -5.05
    },
    {
        "name": "Gouindougouba",
        "country": "Burkina Faso",
        "province": "Cascades",
        "population": -1,
        "latitude": 10.55,
        "longitude": -5.083333
    },
    {
        "name": "Gouéra",
        "country": "Burkina Faso",
        "province": "Cascades",
        "population": -1,
        "latitude": 10.433333,
        "longitude": -4.883333
    },
    {
        "name": "Goudri",
        "country": "Burkina Faso",
        "province": "Centre-Nord",
        "population": -1,
        "latitude": 12.842995,
        "longitude": -1.273499
    },
    {
        "name": "Goudou",
        "country": "Burkina Faso",
        "province": "Centre-Sud",
        "population": -1,
        "latitude": 11.833333,
        "longitude": -1.3
    },
    {
        "name": "Goubla",
        "country": "Burkina Faso",
        "province": "Centre-Sud",
        "population": -1,
        "latitude": 11.75,
        "longitude": -1.283333
    },
    {
        "name": "Gossina",
        "country": "Burkina Faso",
        "province": "Boucle du Mouhoun",
        "population": -1,
        "latitude": 12.517543,
        "longitude": -2.866996
    },
    {
        "name": "Gorom-Gorom",
        "country": "Burkina Faso",
        "province": "Sahel",
        "population": 9752,
        "latitude": 14.442905,
        "longitude": -0.234677
    },
    {
        "name": "Gori",
        "country": "Burkina Faso",
        "province": "Centre-Ouest",
        "population": -1,
        "latitude": 11.416667,
        "longitude": -2.4
    },
    {
        "name": "Gorgadji",
        "country": "Burkina Faso",
        "province": "Sahel",
        "population": -1,
        "latitude": 14.032792,
        "longitude": -0.5195
    },
    {
        "name": "Gonsé",
        "country": "Burkina Faso",
        "province": "Centre-Nord",
        "population": -1,
        "latitude": 13.321623,
        "longitude": -1.592906
    },
    {
        "name": "Gongonbiro",
        "country": "Burkina Faso",
        "province": "Sud-Ouest",
        "population": -1,
        "latitude": 10.266667,
        "longitude": -3.05
    },
    {
        "name": "Gondékoubé",
        "country": "Burkina Faso",
        "province": "Centre-Nord",
        "population": -1,
        "latitude": 13.683042,
        "longitude": -1.722206
    },
    {
        "name": "Gon",
        "country": "Burkina Faso",
        "province": "Centre-Est",
        "population": -1,
        "latitude": 11.2,
        "longitude": -0.65
    },
    {
        "name": "Gomtenga",
        "country": "Burkina Faso",
        "province": "Centre-Est",
        "population": -1,
        "latitude": 11.95,
        "longitude": -0.35
    },
    {
        "name": "Gomponsom",
        "country": "Burkina Faso",
        "province": "Nord",
        "population": -1,
        "latitude": 13.0213469,
        "longitude": -2.1763035
    },
    {
        "name": "Gomboro",
        "country": "Burkina Faso",
        "province": "Boucle du Mouhoun",
        "population": -1,
        "latitude": 13.4845726,
        "longitude": -2.7763731
    },
    {
        "name": "Goguen",
        "country": "Burkina Faso",
        "province": "Centre-Sud",
        "population": -1,
        "latitude": 12.035263,
        "longitude": -1.511808
    },
    {
        "name": "Gogo",
        "country": "Burkina Faso",
        "province": "Centre-Sud",
        "population": -1,
        "latitude": 11.5608333,
        "longitude": -0.9616667
    },
    {
        "name": "Gounghin",
        "country": "Burkina Faso",
        "province": "Plateau-Central",
        "population": -1,
        "latitude": 12.624876,
        "longitude": -1.363983
    },
    {
        "name": "Godyir",
        "country": "Burkina Faso",
        "province": "Centre-Ouest",
        "population": -1,
        "latitude": 12.698355,
        "longitude": -2.623904
    },
    {
        "name": "Godin",
        "country": "Burkina Faso",
        "province": "Centre-Sud",
        "population": -1,
        "latitude": 11.933333,
        "longitude": -1.466667
    },
    {
        "name": "Godé",
        "country": "Burkina Faso",
        "province": "Centre-Ouest",
        "population": -1,
        "latitude": 11.966667,
        "longitude": -2.366667
    },
    {
        "name": "Goa",
        "country": "Burkina Faso",
        "province": "Boucle du Mouhoun",
        "population": -1,
        "latitude": 12.6,
        "longitude": -2.9
    },
    {
        "name": "Gbonfiasso",
        "country": "Burkina Faso",
        "province": "Sud-Ouest",
        "population": -1,
        "latitude": 10.866667,
        "longitude": -3.6
    },
    {
        "name": "Gbingué",
        "country": "Burkina Faso",
        "province": "Sud-Ouest",
        "population": -1,
        "latitude": 10.716667,
        "longitude": -3.716667
    },
    {
        "name": "Gassougou",
        "country": "Burkina Faso",
        "province": "Centre-Est",
        "population": -1,
        "latitude": 11.17894,
        "longitude": -0.55675
    },
    {
        "name": "Gassongo",
        "country": "Burkina Faso",
        "province": "Centre-Nord",
        "population": -1,
        "latitude": 13.253256,
        "longitude": -1.671477
    },
    {
        "name": "Gassan",
        "country": "Burkina Faso",
        "province": "Boucle du Mouhoun",
        "population": -1,
        "latitude": 12.818311,
        "longitude": -3.201645
    },
    {
        "name": "Gasédonka",
        "country": "Burkina Faso",
        "province": "Centre-Nord",
        "population": -1,
        "latitude": 13.591399,
        "longitude": -1.384159
    },
    {
        "name": "Gao",
        "country": "Burkina Faso",
        "province": "Centre-Ouest",
        "population": -1,
        "latitude": 11.649673,
        "longitude": -2.177773
    },
    {
        "name": "Gandaogo",
        "country": "Burkina Faso",
        "province": "Plateau-Central",
        "population": -1,
        "latitude": 12.15,
        "longitude": -0.6
    },
    {
        "name": "Gana",
        "country": "Burkina Faso",
        "province": "Centre-Sud",
        "population": -1,
        "latitude": 12.057832,
        "longitude": -1.396839
    },
    {
        "name": "Foutouri",
        "country": "Burkina Faso",
        "province": "Est",
        "population": -1,
        "latitude": 12.722954,
        "longitude": 1.050494
    },
    {
        "name": "Founzan",
        "country": "Burkina Faso",
        "province": "Hauts-Bassins",
        "population": -1,
        "latitude": 11.451962,
        "longitude": -3.229409
    },
    {
        "name": "Founa",
        "country": "Burkina Faso",
        "province": "Boucle du Mouhoun",
        "population": -1,
        "latitude": 12.433333,
        "longitude": -3.7
    },
    {
        "name": "Foulgo",
        "country": "Burkina Faso",
        "province": "Plateau-Central",
        "population": -1,
        "latitude": 12.166667,
        "longitude": -0.733333
    },
    {
        "name": "Fouga",
        "country": "Burkina Faso",
        "province": "Sahel",
        "population": -1,
        "latitude": 13.2669499,
        "longitude": 0.2798012
    },
    {
        "name": "Fottigué",
        "country": "Burkina Faso",
        "province": "Centre-Est",
        "population": -1,
        "latitude": 11.266667,
        "longitude": -0.133333
    },
    {
        "name": "Folonzo",
        "country": "Burkina Faso",
        "province": "Cascades",
        "population": -1,
        "latitude": 9.95,
        "longitude": -4.683333
    },
    {
        "name": "Folgou",
        "country": "Burkina Faso",
        "province": "Est",
        "population": -1,
        "latitude": 13.142459,
        "longitude": -0.327265
    },
    {
        "name": "Fobiri",
        "country": "Burkina Faso",
        "province": "Boucle du Mouhoun",
        "population": -1,
        "latitude": 11.883333,
        "longitude": -3.466667
    },
    {
        "name": "Fô",
        "country": "Burkina Faso",
        "province": "Hauts-Bassins",
        "population": -1,
        "latitude": 11.884544,
        "longitude": -4.517071
    },
    {
        "name": "Fitien",
        "country": "Burkina Faso",
        "province": "Boucle du Mouhoun",
        "population": -1,
        "latitude": 11.466667,
        "longitude": -2.666667
    },
    {
        "name": "Fini",
        "country": "Burkina Faso",
        "province": "Boucle du Mouhoun",
        "population": -1,
        "latitude": 11.816182,
        "longitude": -4.385109
    },
    {
        "name": "Fégué",
        "country": "Burkina Faso",
        "province": "Boucle du Mouhoun",
        "population": -1,
        "latitude": 11.834641,
        "longitude": -3.208176
    },
    {
        "name": "Faramana",
        "country": "Burkina Faso",
        "province": "Hauts-Bassins",
        "population": -1,
        "latitude": 12.049233,
        "longitude": -4.671615
    },
    {
        "name": "Farakorosso",
        "country": "Burkina Faso",
        "province": "Cascades",
        "population": -1,
        "latitude": 9.8,
        "longitude": -4.333333
    },
    {
        "name": "Fara Department",
        "country": "Burkina Faso",
        "province": "Boucle du Mouhoun",
        "population": -1,
        "latitude": 11.529408,
        "longitude": -2.767975
    },
    {
        "name": "Faléwé",
        "country": "Burkina Faso",
        "province": "Boucle du Mouhoun",
        "population": -1,
        "latitude": 12.6599,
        "longitude": -4.241
    },
    {
        "name": "Falagountou",
        "country": "Burkina Faso",
        "province": "Sahel",
        "population": -1,
        "latitude": 14.369085,
        "longitude": 0.183976
    },
    {
        "name": "Diépo",
        "country": "Burkina Faso",
        "province": "Centre-Sud",
        "population": -1,
        "latitude": 12.144556,
        "longitude": -1.472618
    },
    {
        "name": "Doyana",
        "country": "Burkina Faso",
        "province": "Est",
        "population": -1,
        "latitude": 13.377508,
        "longitude": -0.158932
    },
    {
        "name": "Doutié",
        "country": "Burkina Faso",
        "province": "Cascades",
        "population": -1,
        "latitude": 10.2,
        "longitude": -4.133333
    },
    {
        "name": "Doussi",
        "country": "Burkina Faso",
        "province": "Boucle du Mouhoun",
        "population": -1,
        "latitude": 11.733333,
        "longitude": -3.316667
    },
    {
        "name": "Dourtenga",
        "country": "Burkina Faso",
        "province": "Centre-Est",
        "population": -1,
        "latitude": 11.716667,
        "longitude": -0.016667
    },
    {
        "name": "Douroula",
        "country": "Burkina Faso",
        "province": "Boucle du Mouhoun",
        "population": -1,
        "latitude": 12.584074,
        "longitude": -3.29963
    },
    {
        "name": "Douré",
        "country": "Burkina Faso",
        "province": "Plateau-Central",
        "population": -1,
        "latitude": 12.858957,
        "longitude": -1.653547
    },
    {
        "name": "Douré",
        "country": "Burkina Faso",
        "province": "Centre-Ouest",
        "population": -1,
        "latitude": 12.204344,
        "longitude": -1.905433
    },
    {
        "name": "Douré",
        "country": "Burkina Faso",
        "province": "Plateau-Central",
        "population": -1,
        "latitude": 12.2,
        "longitude": -0.483333
    },
    {
        "name": "Douré",
        "country": "Burkina Faso",
        "province": "Centre-Sud",
        "population": -1,
        "latitude": 11.95,
        "longitude": -1.2
    },
    {
        "name": "Dounkora",
        "country": "Burkina Faso",
        "province": "Sud-Ouest",
        "population": -1,
        "latitude": 10.633333,
        "longitude": -3.1
    },
    {
        "name": "Doundouni",
        "country": "Burkina Faso",
        "province": "Centre-Sud",
        "population": -1,
        "latitude": 12.088431,
        "longitude": -1.922237
    },
    {
        "name": "Doundougou",
        "country": "Burkina Faso",
        "province": "Est",
        "population": -1,
        "latitude": 12.35943,
        "longitude": 0.32953
    },
    {
        "name": "Doundoudougou",
        "country": "Burkina Faso",
        "province": "Centre-Est",
        "population": -1,
        "latitude": 12.381031,
        "longitude": -0.352303
    },
    {
        "name": "Doundégué",
        "country": "Burkina Faso",
        "province": "Centre-Nord",
        "population": -1,
        "latitude": 13.73824,
        "longitude": -1.395384
    },
    {
        "name": "Douna",
        "country": "Burkina Faso",
        "province": "Cascades",
        "population": -1,
        "latitude": 10.616667,
        "longitude": -5.116667
    },
    {
        "name": "Doumbara",
        "country": "Burkina Faso",
        "province": "Boucle du Mouhoun",
        "population": -1,
        "latitude": 12.9093,
        "longitude": -4.1705
    },
    {
        "name": "Douma",
        "country": "Burkina Faso",
        "province": "Nord",
        "population": -1,
        "latitude": 13.6128392,
        "longitude": -2.7604816
    },
    {
        "name": "Doulougou",
        "country": "Burkina Faso",
        "province": "Centre-Sud",
        "population": -1,
        "latitude": 11.989444,
        "longitude": -1.460556
    },
    {
        "name": "Doulou",
        "country": "Burkina Faso",
        "province": "Centre-Ouest",
        "population": -1,
        "latitude": 12.316667,
        "longitude": -2.283333
    },
    {
        "name": "Douamtenga",
        "country": "Burkina Faso",
        "province": "Centre-Est",
        "population": -1,
        "latitude": 12.1,
        "longitude": -0.1
    },
    {
        "name": "Donsin",
        "country": "Burkina Faso",
        "province": "Centre-Sud",
        "population": -1,
        "latitude": 11.583333,
        "longitude": -1.2
    },
    {
        "name": "Donsen",
        "country": "Burkina Faso",
        "province": "Centre-Est",
        "population": -1,
        "latitude": 12.15,
        "longitude": -0.366667
    },
    {
        "name": "Dolo",
        "country": "Burkina Faso",
        "province": "Sud-Ouest",
        "population": -1,
        "latitude": 10.892176,
        "longitude": -3.348983
    },
    {
        "name": "Dokui",
        "country": "Burkina Faso",
        "province": "Boucle du Mouhoun",
        "population": -1,
        "latitude": 12.550337,
        "longitude": -4.106995
    },
    {
        "name": "Doga",
        "country": "Burkina Faso",
        "province": "Centre-Nord",
        "population": -1,
        "latitude": 13.209175,
        "longitude": -0.72356
    },
    {
        "name": "Djigoué",
        "country": "Burkina Faso",
        "province": "Sud-Ouest",
        "population": -1,
        "latitude": 10.05,
        "longitude": -3.816667
    },
    {
        "name": "Djibasso Department",
        "country": "Burkina Faso",
        "province": "Boucle du Mouhoun",
        "population": -1,
        "latitude": 13.1221,
        "longitude": -4.1563
    },
    {
        "name": "Dissini",
        "country": "Burkina Faso",
        "province": "Sud-Ouest",
        "population": -1,
        "latitude": 10.933333,
        "longitude": -2.933333
    },
    {
        "name": "Dissankui",
        "country": "Burkina Faso",
        "province": "Boucle du Mouhoun",
        "population": -1,
        "latitude": 12.1925,
        "longitude": -4.0297
    },
    {
        "name": "Dira",
        "country": "Burkina Faso",
        "province": "Boucle du Mouhoun",
        "population": -1,
        "latitude": 12.34704,
        "longitude": -3.983333
    },
    {
        "name": "Dipianga",
        "country": "Burkina Faso",
        "province": "Est",
        "population": -1,
        "latitude": 12.783333,
        "longitude": 0.2
    },
    {
        "name": "Diourao",
        "country": "Burkina Faso",
        "province": "Sud-Ouest",
        "population": -1,
        "latitude": 10.7,
        "longitude": -3.166667
    },
    {
        "name": "Dioro",
        "country": "Burkina Faso",
        "province": "Sud-Ouest",
        "population": -1,
        "latitude": 10.416667,
        "longitude": -3
    },
    {
        "name": "Diontala",
        "country": "Burkina Faso",
        "province": "Boucle du Mouhoun",
        "population": -1,
        "latitude": 11.763842,
        "longitude": -4.458072
    },
    {
        "name": "Diongolo",
        "country": "Burkina Faso",
        "province": "Cascades",
        "population": -1,
        "latitude": 10.566667,
        "longitude": -4.866667
    },
    {
        "name": "Dankouro",
        "country": "Burkina Faso",
        "province": "Boucle du Mouhoun",
        "population": -1,
        "latitude": 12.257786,
        "longitude": -4.106154
    },
    {
        "name": "Dinkiéma",
        "country": "Burkina Faso",
        "province": "Boucle du Mouhoun",
        "population": -1,
        "latitude": 12.2,
        "longitude": -3.9
    },
    {
        "name": "Dimistenga",
        "country": "Burkina Faso",
        "province": "Centre-Est",
        "population": -1,
        "latitude": 12.316667,
        "longitude": -0.433333
    },
    {
        "name": "Dembo",
        "country": "Burkina Faso",
        "province": "Boucle du Mouhoun",
        "population": -1,
        "latitude": 12.800329,
        "longitude": -3.970943
    },
    {
        "name": "Diguél",
        "country": "Burkina Faso",
        "province": "Sahel",
        "population": -1,
        "latitude": 14.436565,
        "longitude": -1.886435
    },
    {
        "name": "Digré",
        "country": "Burkina Faso",
        "province": "Plateau-Central",
        "population": -1,
        "latitude": 12.283333,
        "longitude": -0.566667
    },
    {
        "name": "Dierma",
        "country": "Burkina Faso",
        "province": "Centre-Est",
        "population": -1,
        "latitude": 11.7,
        "longitude": -0.75
    },
    {
        "name": "Diérisso",
        "country": "Burkina Faso",
        "province": "Cascades",
        "population": -1,
        "latitude": 10.433333,
        "longitude": -5.216667
    },
    {
        "name": "Diéfoula",
        "country": "Burkina Faso",
        "province": "Cascades",
        "population": -1,
        "latitude": 10.25,
        "longitude": -4.7
    },
    {
        "name": "Didyir",
        "country": "Burkina Faso",
        "province": "Centre-Ouest",
        "population": -1,
        "latitude": 12.560417,
        "longitude": -2.62193
    },
    {
        "name": "Didié",
        "country": "Burkina Faso",
        "province": "Hauts-Bassins",
        "population": -1,
        "latitude": 11.583333,
        "longitude": -3.383333
    },
    {
        "name": "Diasara",
        "country": "Burkina Faso",
        "province": "Sud-Ouest",
        "population": -1,
        "latitude": 10.683333,
        "longitude": -3.566667
    },
    {
        "name": "Diarkadougou",
        "country": "Burkina Faso",
        "province": "Sud-Ouest",
        "population": -1,
        "latitude": 10.9,
        "longitude": -3.566667
    },
    {
        "name": "Diaradougou",
        "country": "Burkina Faso",
        "province": "Hauts-Bassins",
        "population": -1,
        "latitude": 11.298143,
        "longitude": -4.43519
    },
    {
        "name": "Diarabakoko",
        "country": "Burkina Faso",
        "province": "Cascades",
        "population": -1,
        "latitude": 10.466667,
        "longitude": -4.783333
    },
    {
        "name": "Diapangou",
        "country": "Burkina Faso",
        "province": "Est",
        "population": -1,
        "latitude": 12.113889,
        "longitude": 0.180833
    },
    {
        "name": "Dialla",
        "country": "Burkina Faso",
        "province": "Centre-Est",
        "population": -1,
        "latitude": 11.4,
        "longitude": -0.45
    },
    {
        "name": "Dialgaye",
        "country": "Burkina Faso",
        "province": "Centre-Est",
        "population": -1,
        "latitude": 11.9644444,
        "longitude": -0.3761111
    },
    {
        "name": "Dialakoro",
        "country": "Burkina Faso",
        "province": "Hauts-Bassins",
        "population": -1,
        "latitude": 11.18879,
        "longitude": -5.213869
    },
    {
        "name": "Diaka",
        "country": "Burkina Faso",
        "province": "Est",
        "population": -1,
        "latitude": 12.984977,
        "longitude": -0.336622
    },
    {
        "name": "Diabo",
        "country": "Burkina Faso",
        "province": "Est",
        "population": -1,
        "latitude": 12.016667,
        "longitude": -0.033333
    },
    {
        "name": "Diabatou",
        "country": "Burkina Faso",
        "province": "Est",
        "population": -1,
        "latitude": 12.74157,
        "longitude": 0.11273
    },
    {
        "name": "Di",
        "country": "Burkina Faso",
        "province": "Boucle du Mouhoun",
        "population": -1,
        "latitude": 13.169,
        "longitude": -3.4151
    },
    {
        "name": "Déssé",
        "country": "Burkina Faso",
        "province": "Sahel",
        "population": -1,
        "latitude": 13.506849,
        "longitude": 0.6247901
    },
    {
        "name": "Déré",
        "country": "Burkina Faso",
        "province": "Boucle du Mouhoun",
        "population": -1,
        "latitude": 12.025,
        "longitude": -4.4562
    },
    {
        "name": "Dénéon",
        "country": "Burkina Faso",
        "province": "Centre-Nord",
        "population": -1,
        "latitude": 13.568416,
        "longitude": -1.50345
    },
    {
        "name": "Déma",
        "country": "Burkina Faso",
        "province": "Boucle du Mouhoun",
        "population": -1,
        "latitude": 12.49015,
        "longitude": -4.35581
    },
    {
        "name": "Dégué Dégué",
        "country": "Burkina Faso",
        "province": "Cascades",
        "population": -1,
        "latitude": 10.716667,
        "longitude": -4.316667
    },
    {
        "name": "Dazanré",
        "country": "Burkina Faso",
        "province": "Plateau-Central",
        "population": -1,
        "latitude": 12.366667,
        "longitude": -0.733333
    },
    {
        "name": "Dawélgué",
        "country": "Burkina Faso",
        "province": "Centre-Sud",
        "population": -1,
        "latitude": 12.096795,
        "longitude": -1.509995
    },
    {
        "name": "Dawaka",
        "country": "Burkina Faso",
        "province": "Plateau-Central",
        "population": -1,
        "latitude": 12.383333,
        "longitude": -0.9
    },
    {
        "name": "Dassari",
        "country": "Burkina Faso",
        "province": "Est",
        "population": -1,
        "latitude": 13.131634,
        "longitude": -0.053252
    },
    {
        "name": "Dassa",
        "country": "Burkina Faso",
        "province": "Centre-Ouest",
        "population": -1,
        "latitude": 12.450329,
        "longitude": -2.6875
    },
    {
        "name": "Dassamkandé",
        "country": "Burkina Faso",
        "province": "Centre-Sud",
        "population": -1,
        "latitude": 12.05578,
        "longitude": -1.220634
    },
    {
        "name": "Darsalam",
        "country": "Burkina Faso",
        "province": "Est",
        "population": -1,
        "latitude": 13.476003,
        "longitude": -0.190372
    },
    {
        "name": "Darigma",
        "country": "Burkina Faso",
        "province": "Centre-Nord",
        "population": -1,
        "latitude": 13.394266,
        "longitude": -1.535957
    },
    {
        "name": "Dargouma",
        "country": "Burkina Faso",
        "province": "Centre-Nord",
        "population": -1,
        "latitude": 13.397376,
        "longitude": -1.827794
    },
    {
        "name": "Dargo",
        "country": "Burkina Faso",
        "province": "Centre-Nord",
        "population": -1,
        "latitude": 12.715709,
        "longitude": -0.284942
    },
    {
        "name": "Dano",
        "country": "Burkina Faso",
        "province": "Boucle du Mouhoun",
        "population": -1,
        "latitude": 11.916667,
        "longitude": -3.366667
    },
    {
        "name": "Dankoblé",
        "country": "Burkina Faso",
        "province": "Sud-Ouest",
        "population": -1,
        "latitude": 10.816667,
        "longitude": -3.233333
    },
    {
        "name": "Dango",
        "country": "Burkina Faso",
        "province": "Centre-Est",
        "population": -1,
        "latitude": 11.666667,
        "longitude": -0.7
    },
    {
        "name": "Dandé",
        "country": "Burkina Faso",
        "province": "Hauts-Bassins",
        "population": -1,
        "latitude": 11.584786,
        "longitude": -4.561097
    },
    {
        "name": "Damzoussi",
        "country": "Burkina Faso",
        "province": "Centre-Sud",
        "population": -1,
        "latitude": 12.077433,
        "longitude": -1.5412
    },
    {
        "name": "Damongto",
        "country": "Burkina Faso",
        "province": "Plateau-Central",
        "population": -1,
        "latitude": 12.266667,
        "longitude": -0.933333
    },
    {
        "name": "Damkiéta",
        "country": "Burkina Faso",
        "province": "Centre-Sud",
        "population": -1,
        "latitude": 12.033311,
        "longitude": -1.632032
    },
    {
        "name": "Damana",
        "country": "Burkina Faso",
        "province": "Cascades",
        "population": -1,
        "latitude": 10.366667,
        "longitude": -5.05
    },
    {
        "name": "Dalo",
        "country": "Burkina Faso",
        "province": "Centre-Ouest",
        "population": -1,
        "latitude": 11.733333,
        "longitude": -2.083333
    },
    {
        "name": "Dakoro",
        "country": "Burkina Faso",
        "province": "Cascades",
        "population": -1,
        "latitude": 10.466667,
        "longitude": -5.15
    },
    {
        "name": "Dakiri",
        "country": "Burkina Faso",
        "province": "Est",
        "population": -1,
        "latitude": 13.295583,
        "longitude": -0.244709
    },
    {
        "name": "Dakaye",
        "country": "Burkina Faso",
        "province": "Centre-Sud",
        "population": -1,
        "latitude": 11.843056,
        "longitude": -1.562778
    },
    {
        "name": "Dakaye",
        "country": "Burkina Faso",
        "province": "Boucle du Mouhoun",
        "population": -1,
        "latitude": 11.483333,
        "longitude": -2.733333
    },
    {
        "name": "Daho",
        "country": "Burkina Faso",
        "province": "Boucle du Mouhoun",
        "population": -1,
        "latitude": 11.5,
        "longitude": -2.766667
    },
    {
        "name": "Dagouma",
        "country": "Burkina Faso",
        "province": "Centre-Sud",
        "population": -1,
        "latitude": 11.916667,
        "longitude": -1.283333
    },
    {
        "name": "Dapala",
        "country": "Burkina Faso",
        "province": "Cascades",
        "population": -1,
        "latitude": 10.460781,
        "longitude": -3.76078
    },
    {
        "name": "Dadounga",
        "country": "Burkina Faso",
        "province": "Est",
        "population": -1,
        "latitude": 13.25691,
        "longitude": 0.20164
    },
    {
        "name": "Daboura",
        "country": "Burkina Faso",
        "province": "Boucle du Mouhoun",
        "population": -1,
        "latitude": 12.228398,
        "longitude": -3.930372
    },
    {
        "name": "Dabogtinga",
        "country": "Burkina Faso",
        "province": "Centre-Sud",
        "population": -1,
        "latitude": 11.883333,
        "longitude": -1.533333
    },
    {
        "name": "Dablo",
        "country": "Burkina Faso",
        "province": "Centre-Nord",
        "population": -1,
        "latitude": 13.718727,
        "longitude": -1.181856
    },
    {
        "name": "Dabèsma",
        "country": "Burkina Faso",
        "province": "Est",
        "population": -1,
        "latitude": 12.7,
        "longitude": -0.166667
    },
    {
        "name": "Dabéga",
        "country": "Burkina Faso",
        "province": "Plateau-Central",
        "population": -1,
        "latitude": 12.283333,
        "longitude": -0.583333
    },
    {
        "name": "Dabaré",
        "country": "Burkina Faso",
        "province": "Centre",
        "population": -1,
        "latitude": 12.658719,
        "longitude": -1.60328
    },
    {
        "name": "Da",
        "country": "Burkina Faso",
        "province": "Boucle du Mouhoun",
        "population": -1,
        "latitude": 12.433333,
        "longitude": -3.183333
    },
    {
        "name": "Gomboussougou",
        "country": "Burkina Faso",
        "province": "Centre-Sud",
        "population": -1,
        "latitude": 11.4261111,
        "longitude": -0.7727778
    },
    {
        "name": "Coala",
        "country": "Burkina Faso",
        "province": "Centre-Ouest",
        "population": -1,
        "latitude": 12.55,
        "longitude": -2.083333
    },
    {
        "name": "Cella",
        "country": "Burkina Faso",
        "province": "Centre-Est",
        "population": -1,
        "latitude": 11.616667,
        "longitude": -0.366667
    },
    {
        "name": "Kassou",
        "country": "Burkina Faso",
        "province": "Centre-Ouest",
        "population": -1,
        "latitude": 11.582352,
        "longitude": -2.046403
    },
    {
        "name": "Bouzourou",
        "country": "Burkina Faso",
        "province": "Boucle du Mouhoun",
        "population": -1,
        "latitude": 11.383333,
        "longitude": -2.683333
    },
    {
        "name": "Bouzan",
        "country": "Burkina Faso",
        "province": "Hauts-Bassins",
        "population": -1,
        "latitude": 11.416667,
        "longitude": -3.216667
    },
    {
        "name": "Boutoko",
        "country": "Burkina Faso",
        "province": "Centre-Ouest",
        "population": -1,
        "latitude": 12,
        "longitude": -2.216667
    },
    {
        "name": "Boussouma",
        "country": "Burkina Faso",
        "province": "Centre-Nord",
        "population": -1,
        "latitude": 13.211517,
        "longitude": -1.529106
    },
    {
        "name": "Boussouma",
        "country": "Burkina Faso",
        "province": "Nord",
        "population": -1,
        "latitude": 13.0253824,
        "longitude": -2.5651578
    },
    {
        "name": "Boussouma",
        "country": "Burkina Faso",
        "province": "Centre-Est",
        "population": -1,
        "latitude": 11.7,
        "longitude": -0.7
    },
    {
        "name": "Boussoukoula",
        "country": "Burkina Faso",
        "province": "Sud-Ouest",
        "population": -1,
        "latitude": 9.833333,
        "longitude": -3.1
    },
    {
        "name": "Boussougou",
        "country": "Burkina Faso",
        "province": "Centre-Sud",
        "population": -1,
        "latitude": 11.916667,
        "longitude": -1.433333
    },
    {
        "name": "Bouséra",
        "country": "Burkina Faso",
        "province": "Sud-Ouest",
        "population": -1,
        "latitude": 10.333333,
        "longitude": -3.016667
    },
    {
        "name": "Bourzoaga",
        "country": "Burkina Faso",
        "province": "Centre-Est",
        "population": -1,
        "latitude": 11.19304,
        "longitude": -0.13542
    },
    {
        "name": "Bourzanga",
        "country": "Burkina Faso",
        "province": "Centre-Nord",
        "population": -1,
        "latitude": 13.6780556,
        "longitude": -1.5461111
    },
    {
        "name": "Bouroum",
        "country": "Burkina Faso",
        "province": "Centre-Nord",
        "population": -1,
        "latitude": 13.610329,
        "longitude": -0.649467
    },
    {
        "name": "Bourou",
        "country": "Burkina Faso",
        "province": "Centre-Ouest",
        "population": -1,
        "latitude": 12.058553,
        "longitude": -2.011075
    },
    {
        "name": "Bourasso",
        "country": "Burkina Faso",
        "province": "Boucle du Mouhoun",
        "population": -1,
        "latitude": 12.633333,
        "longitude": -3.716667
    },
    {
        "name": "Boura",
        "country": "Burkina Faso",
        "province": "Centre-Ouest",
        "population": -1,
        "latitude": 11.042817,
        "longitude": -2.501962
    },
    {
        "name": "Bouna",
        "country": "Burkina Faso",
        "province": "Boucle du Mouhoun",
        "population": -1,
        "latitude": 12.6576,
        "longitude": -3.1318
    },
    {
        "name": "Boulyèndé",
        "country": "Burkina Faso",
        "province": "Centre-Nord",
        "population": -1,
        "latitude": 12.95,
        "longitude": -0.866667
    },
    {
        "name": "Boulwando",
        "country": "Burkina Faso",
        "province": "Plateau-Central",
        "population": -1,
        "latitude": 12.433333,
        "longitude": -0.766667
    },
    {
        "name": "Boulsen",
        "country": "Burkina Faso",
        "province": "Centre-Ouest",
        "population": -1,
        "latitude": 12.335417,
        "longitude": -2.383882
    },
    {
        "name": "Boulpon",
        "country": "Burkina Faso",
        "province": "Centre-Ouest",
        "population": -1,
        "latitude": 12.65,
        "longitude": -2.066667
    },
    {
        "name": "Boulounga",
        "country": "Burkina Faso",
        "province": "Centre-Nord",
        "population": -1,
        "latitude": 13.603742,
        "longitude": -1.562051
    },
    {
        "name": "Bouloum Nabyiri",
        "country": "Burkina Faso",
        "province": "Centre-Ouest",
        "population": -1,
        "latitude": 12.2,
        "longitude": -2.25
    },
    {
        "name": "Boulougou",
        "country": "Burkina Faso",
        "province": "Centre-Sud",
        "population": -1,
        "latitude": 11.933333,
        "longitude": -1.633333
    },
    {
        "name": "Boulo",
        "country": "Burkina Faso",
        "province": "Cascades",
        "population": -1,
        "latitude": 10.36347,
        "longitude": -4.54328
    },
    {
        "name": "Boulga",
        "country": "Burkina Faso",
        "province": "Centre-Est",
        "population": -1,
        "latitude": 11.883333,
        "longitude": -0.266667
    },
    {
        "name": "Boukou",
        "country": "Burkina Faso",
        "province": "Centre-Ouest",
        "population": -1,
        "latitude": 12.555403,
        "longitude": -1.881403
    },
    {
        "name": "Boudtenga",
        "country": "Burkina Faso",
        "province": "Centre",
        "population": -1,
        "latitude": 12.485002,
        "longitude": -1.260397
    },
    {
        "name": "Boudri",
        "country": "Burkina Faso",
        "province": "Plateau-Central",
        "population": -1,
        "latitude": 12.2166667,
        "longitude": -0.7333333
    },
    {
        "name": "Boudangou",
        "country": "Burkina Faso",
        "province": "Est",
        "population": -1,
        "latitude": 12.133333,
        "longitude": 0.333333
    },
    {
        "name": "Boubou",
        "country": "Burkina Faso",
        "province": "Centre-Nord",
        "population": -1,
        "latitude": 13.366958,
        "longitude": -1.804033
    },
    {
        "name": "Botou",
        "country": "Burkina Faso",
        "province": "Est",
        "population": -1,
        "latitude": 12.6628,
        "longitude": 2.0527
    },
    {
        "name": "Botou",
        "country": "Burkina Faso",
        "province": "Est",
        "population": -1,
        "latitude": 12.4177778,
        "longitude": 0.1536111
    },
    {
        "name": "Boto",
        "country": "Burkina Faso",
        "province": "Centre-Est",
        "population": -1,
        "latitude": 12.333333,
        "longitude": -0.366667
    },
    {
        "name": "Bossongri",
        "country": "Burkina Faso",
        "province": "Est",
        "population": -1,
        "latitude": 12.9,
        "longitude": 0.9
    },
    {
        "name": "Bouassié",
        "country": "Burkina Faso",
        "province": "Cascades",
        "population": -1,
        "latitude": 10.377132,
        "longitude": -4.036276
    },
    {
        "name": "Boromossi",
        "country": "Burkina Faso",
        "province": "Boucle du Mouhoun",
        "population": -1,
        "latitude": 11.933333,
        "longitude": -2.9
    },
    {
        "name": "Borogo",
        "country": "Burkina Faso",
        "province": "Centre-Sud",
        "population": -1,
        "latitude": 11.95,
        "longitude": -1.45
    },
    {
        "name": "Boro",
        "country": "Burkina Faso",
        "province": "Centre-Ouest",
        "population": -1,
        "latitude": 11.65,
        "longitude": -1.7
    },
    {
        "name": "Bonsiéga",
        "country": "Burkina Faso",
        "province": "Est",
        "population": -1,
        "latitude": 13.477687,
        "longitude": -0.201893
    },
    {
        "name": "Bouhahoun",
        "country": "Burkina Faso",
        "province": "Hauts-Bassins",
        "population": -1,
        "latitude": 11.483333,
        "longitude": -3.766667
    },
    {
        "name": "Bonogo",
        "country": "Burkina Faso",
        "province": "Centre-Sud",
        "population": -1,
        "latitude": 12.068026,
        "longitude": -1.588194
    },
    {
        "name": "Bonkoré",
        "country": "Burkina Faso",
        "province": "Centre-Sud",
        "population": -1,
        "latitude": 12.109322,
        "longitude": -1.477809
    },
    {
        "name": "Bondoukui",
        "country": "Burkina Faso",
        "province": "Boucle du Mouhoun",
        "population": -1,
        "latitude": 11.844441,
        "longitude": -3.767975
    },
    {
        "name": "Bondorola",
        "country": "Burkina Faso",
        "province": "Cascades",
        "population": -1,
        "latitude": 10.6,
        "longitude": -4.566667
    },
    {
        "name": "Bondo",
        "country": "Burkina Faso",
        "province": "Boucle du Mouhoun",
        "population": -1,
        "latitude": 11.766667,
        "longitude": -3.433333
    },
    {
        "name": "Bondigui",
        "country": "Burkina Faso",
        "province": "Sud-Ouest",
        "population": -1,
        "latitude": 10.916667,
        "longitude": -3.483333
    },
    {
        "name": "Bondé",
        "country": "Burkina Faso",
        "province": "Centre-Nord",
        "population": -1,
        "latitude": 13.595967,
        "longitude": -1.491059
    },
    {
        "name": "Bonda",
        "country": "Burkina Faso",
        "province": "Centre-Nord",
        "population": -1,
        "latitude": 13.499271,
        "longitude": -1.513606
    },
    {
        "name": "Bona",
        "country": "Burkina Faso",
        "province": "Hauts-Bassins",
        "population": -1,
        "latitude": 11.169331,
        "longitude": -4.002503
    },
    {
        "name": "Bombara",
        "country": "Burkina Faso",
        "province": "Sud-Ouest",
        "population": -1,
        "latitude": 10.783333,
        "longitude": -3.283333
    },
    {
        "name": "Bologo",
        "country": "Burkina Faso",
        "province": "Centre-Est",
        "population": -1,
        "latitude": 12.033333,
        "longitude": -0.266667
    },
    {
        "name": "Bollé",
        "country": "Burkina Faso",
        "province": "Plateau-Central",
        "population": -1,
        "latitude": 12.383333,
        "longitude": -0.766667
    },
    {
        "name": "Boko",
        "country": "Burkina Faso",
        "province": "Centre-Nord",
        "population": -1,
        "latitude": 12.716667,
        "longitude": -0.4
    },
    {
        "name": "Boalen",
        "country": "Burkina Faso",
        "province": "Centre-Nord",
        "population": -1,
        "latitude": 12.835784,
        "longitude": -1.100486
    },
    {
        "name": "Boala",
        "country": "Burkina Faso",
        "province": "Centre-Nord",
        "population": -1,
        "latitude": 12.883333,
        "longitude": -0.7
    },
    {
        "name": "Bittou",
        "country": "Burkina Faso",
        "province": "Centre-Est",
        "population": -1,
        "latitude": 11.258056,
        "longitude": -0.306111
    },
    {
        "name": "Bitiako",
        "country": "Burkina Faso",
        "province": "Boucle du Mouhoun",
        "population": -1,
        "latitude": 11.816667,
        "longitude": -3.016667
    },
    {
        "name": "Bissiri",
        "country": "Burkina Faso",
        "province": "Centre-Sud",
        "population": -1,
        "latitude": 12.093007,
        "longitude": -1.229073
    },
    {
        "name": "Bissiga",
        "country": "Burkina Faso",
        "province": "Plateau-Central",
        "population": -1,
        "latitude": 12.700239,
        "longitude": -1.202814
    },
    {
        "name": "Bissiga",
        "country": "Burkina Faso",
        "province": "Centre-Est",
        "population": -1,
        "latitude": 12.433333,
        "longitude": -0.533333
    },
    {
        "name": "Bissiga",
        "country": "Burkina Faso",
        "province": "Centre-Sud",
        "population": -1,
        "latitude": 12.069861,
        "longitude": -1.299788
    },
    {
        "name": "Bissiga",
        "country": "Burkina Faso",
        "province": "Centre-Sud",
        "population": -1,
        "latitude": 12.039005,
        "longitude": -1.468974
    },
    {
        "name": "Bissia",
        "country": "Burkina Faso",
        "province": "Centre-Nord",
        "population": -1,
        "latitude": 13.177843,
        "longitude": -1.503644
    },
    {
        "name": "Bissa",
        "country": "Burkina Faso",
        "province": "Boucle du Mouhoun",
        "population": -1,
        "latitude": 11.916667,
        "longitude": -3.45
    },
    {
        "name": "Birou",
        "country": "Burkina Faso",
        "province": "Centre-Nord",
        "population": -1,
        "latitude": 13.300972,
        "longitude": -1.656608
    },
    {
        "name": "Binté",
        "country": "Burkina Faso",
        "province": "Sud-Ouest",
        "population": -1,
        "latitude": 10.75,
        "longitude": -3.6
    },
    {
        "name": "Binsboumbou",
        "country": "Burkina Faso",
        "province": "Centre-Sud",
        "population": -1,
        "latitude": 11.866667,
        "longitude": -1.233333
    },
    {
        "name": "Bini",
        "country": "Burkina Faso",
        "province": "Cascades",
        "population": -1,
        "latitude": 10.55,
        "longitude": -3.733333
    },
    {
        "name": "Bingo",
        "country": "Burkina Faso",
        "province": "Nord",
        "population": -1,
        "latitude": 13.1656234,
        "longitude": -2.2375655
    },
    {
        "name": "Bindougou",
        "country": "Burkina Faso",
        "province": "Boucle du Mouhoun",
        "population": -1,
        "latitude": 12.466667,
        "longitude": -3.6
    },
    {
        "name": "Bindé",
        "country": "Burkina Faso",
        "province": "Centre-Sud",
        "population": -1,
        "latitude": 11.7541667,
        "longitude": -1.0944444
    },
    {
        "name": "Bilbalogo",
        "country": "Burkina Faso",
        "province": "Centre-Sud",
        "population": -1,
        "latitude": 11.916667,
        "longitude": -1.333333
    },
    {
        "name": "Bilatio",
        "country": "Burkina Faso",
        "province": "Boucle du Mouhoun",
        "population": -1,
        "latitude": 11.383333,
        "longitude": -2.65
    },
    {
        "name": "Bilanguen",
        "country": "Burkina Faso",
        "province": "Centre-Est",
        "population": -1,
        "latitude": 12.133333,
        "longitude": -0.033333
    },
    {
        "name": "Bilanga Yanga",
        "country": "Burkina Faso",
        "province": "Est",
        "population": -1,
        "latitude": 12.458224,
        "longitude": -0.101974
    },
    {
        "name": "Biéha",
        "country": "Burkina Faso",
        "province": "Centre-Ouest",
        "population": -1,
        "latitude": 11.06,
        "longitude": -1.821389
    },
    {
        "name": "Bidiga",
        "country": "Burkina Faso",
        "province": "Centre-Est",
        "population": -1,
        "latitude": 11.8,
        "longitude": -0.516667
    },
    {
        "name": "Bial",
        "country": "Burkina Faso",
        "province": "Boucle du Mouhoun",
        "population": -1,
        "latitude": 12.0333,
        "longitude": -4.3572
    },
    {
        "name": "Bérénkui",
        "country": "Burkina Faso",
        "province": "Boucle du Mouhoun",
        "population": -1,
        "latitude": 12.466667,
        "longitude": -3.833333
    },
    {
        "name": "Bérégadougou",
        "country": "Burkina Faso",
        "province": "Cascades",
        "population": -1,
        "latitude": 10.766667,
        "longitude": -4.75
    },
    {
        "name": "Béré",
        "country": "Burkina Faso",
        "province": "Centre-Sud",
        "population": -1,
        "latitude": 11.8333333,
        "longitude": -1.15
    },
    {
        "name": "Béquélé",
        "country": "Burkina Faso",
        "province": "Cascades",
        "population": -1,
        "latitude": 10.6,
        "longitude": -3.733333
    },
    {
        "name": "Bendogo",
        "country": "Burkina Faso",
        "province": "Plateau-Central",
        "population": -1,
        "latitude": 12.785786,
        "longitude": -1.663904
    },
    {
        "name": "Béna",
        "country": "Burkina Faso",
        "province": "Boucle du Mouhoun",
        "population": -1,
        "latitude": 12.077194,
        "longitude": -4.188062
    },
    {
        "name": "Ban",
        "country": "Burkina Faso",
        "province": "Boucle du Mouhoun",
        "population": -1,
        "latitude": 12.700176,
        "longitude": -4.350937
    },
    {
        "name": "Bélèmbouliguen",
        "country": "Burkina Faso",
        "province": "Centre-Est",
        "population": -1,
        "latitude": 12.15,
        "longitude": -0.066667
    },
    {
        "name": "Bélembaoguen",
        "country": "Burkina Faso",
        "province": "Centre-Est",
        "population": -1,
        "latitude": 12.133333,
        "longitude": -0.066667
    },
    {
        "name": "Bélégré",
        "country": "Burkina Faso",
        "province": "Centre-Sud",
        "population": -1,
        "latitude": 12.038806,
        "longitude": -1.370457
    },
    {
        "name": "Békuy",
        "country": "Burkina Faso",
        "province": "Hauts-Bassins",
        "population": -1,
        "latitude": 11.633333,
        "longitude": -3.883333
    },
    {
        "name": "Béka",
        "country": "Burkina Faso",
        "province": "Centre-Est",
        "population": -1,
        "latitude": 11.191111,
        "longitude": -0.587778
    },
    {
        "name": "Béguédo",
        "country": "Burkina Faso",
        "province": "Centre-Est",
        "population": -1,
        "latitude": 11.780833,
        "longitude": -0.733889
    },
    {
        "name": "Bayendéfoulgo",
        "country": "Burkina Faso",
        "province": "Centre-Nord",
        "population": -1,
        "latitude": 13.414723,
        "longitude": -1.478474
    },
    {
        "name": "Bayé",
        "country": "Burkina Faso",
        "province": "Boucle du Mouhoun",
        "population": -1,
        "latitude": 12.05932,
        "longitude": -4.07807
    },
    {
        "name": "Batiti",
        "country": "Burkina Faso",
        "province": "Boucle du Mouhoun",
        "population": -1,
        "latitude": 11.85,
        "longitude": -3.166667
    },
    {
        "name": "Bâtinga",
        "country": "Burkina Faso",
        "province": "Centre-Sud",
        "population": -1,
        "latitude": 11.9,
        "longitude": -1.45
    },
    {
        "name": "Batanga",
        "country": "Burkina Faso",
        "province": "Centre-Nord",
        "population": -1,
        "latitude": 13.457872,
        "longitude": -1.517153
    },
    {
        "name": "Basziri",
        "country": "Burkina Faso",
        "province": "Centre-Ouest",
        "population": -1,
        "latitude": 12.65,
        "longitude": -2.216667
    },
    {
        "name": "Bassemyam",
        "country": "Burkina Faso",
        "province": "Centre",
        "population": -1,
        "latitude": 12.20921,
        "longitude": -1.539773
    },
    {
        "name": "Bassé",
        "country": "Burkina Faso",
        "province": "Centre-Nord",
        "population": -1,
        "latitude": 13.705783,
        "longitude": -1.649854
    },
    {
        "name": "Bassana",
        "country": "Burkina Faso",
        "province": "Boucle du Mouhoun",
        "population": -1,
        "latitude": 11.916667,
        "longitude": -3.333333
    },
    {
        "name": "Baskouré",
        "country": "Burkina Faso",
        "province": "Centre-Est",
        "population": -1,
        "latitude": 12.216667,
        "longitude": -0.316667
    },
    {
        "name": "Baskouré",
        "country": "Burkina Faso",
        "province": "Centre-Est",
        "population": -1,
        "latitude": 12.1611111,
        "longitude": -0.2672222
    },
    {
        "name": "Basèotenga",
        "country": "Burkina Faso",
        "province": "Boucle du Mouhoun",
        "population": -1,
        "latitude": 12.883333,
        "longitude": -2.75
    },
    {
        "name": "Barsalogo",
        "country": "Burkina Faso",
        "province": "Centre-Nord",
        "population": -1,
        "latitude": 13.413889,
        "longitude": -1.055833
    },
    {
        "name": "Barsa",
        "country": "Burkina Faso",
        "province": "Centre-Nord",
        "population": -1,
        "latitude": 13.096939,
        "longitude": -1.627211
    },
    {
        "name": "Barkoura",
        "country": "Burkina Faso",
        "province": "Sud-Ouest",
        "population": -1,
        "latitude": 10.383333,
        "longitude": -3.35
    },
    {
        "name": "Baribsi",
        "country": "Burkina Faso",
        "province": "Centre-Nord",
        "population": -1,
        "latitude": 13.33411,
        "longitude": -1.717978
    },
    {
        "name": "Bapla",
        "country": "Burkina Faso",
        "province": "Sud-Ouest",
        "population": -1,
        "latitude": 10.866667,
        "longitude": -3.266667
    },
    {
        "name": "Banou",
        "country": "Burkina Faso",
        "province": "Boucle du Mouhoun",
        "population": -1,
        "latitude": 11.766667,
        "longitude": -3.366667
    },
    {
        "name": "Bankouma",
        "country": "Burkina Faso",
        "province": "Boucle du Mouhoun",
        "population": -1,
        "latitude": 13.2527,
        "longitude": -4.1892
    },
    {
        "name": "Bani",
        "country": "Burkina Faso",
        "province": "Centre-Nord",
        "population": -1,
        "latitude": 13.641885,
        "longitude": -1.492663
    },
    {
        "name": "Bané",
        "country": "Burkina Faso",
        "province": "Centre-Est",
        "population": -1,
        "latitude": 11.55713,
        "longitude": -0.29866
    },
    {
        "name": "Bandio",
        "country": "Burkina Faso",
        "province": "Boucle du Mouhoun",
        "population": -1,
        "latitude": 11.683333,
        "longitude": -3.266667
    },
    {
        "name": "Bandakoro",
        "country": "Burkina Faso",
        "province": "Cascades",
        "population": -1,
        "latitude": 10.433333,
        "longitude": -4.283333
    },
    {
        "name": "Bandakélesso",
        "country": "Burkina Faso",
        "province": "Cascades",
        "population": -1,
        "latitude": 9.83541,
        "longitude": -4.37157
    },
    {
        "name": "Banbigouabri",
        "country": "Burkina Faso",
        "province": "Est",
        "population": -1,
        "latitude": 13.395074,
        "longitude": -0.148642
    },
    {
        "name": "Bana",
        "country": "Burkina Faso",
        "province": "Boucle du Mouhoun",
        "population": -1,
        "latitude": 12.6,
        "longitude": -3.483333
    },
    {
        "name": "Bana",
        "country": "Burkina Faso",
        "province": "Boucle du Mouhoun",
        "population": -1,
        "latitude": 11.916667,
        "longitude": -3.383333
    },
    {
        "name": "Bamako",
        "country": "Burkina Faso",
        "province": "Sud-Ouest",
        "population": -1,
        "latitude": 10.933333,
        "longitude": -3.333333
    },
    {
        "name": "Bama",
        "country": "Burkina Faso",
        "province": "Boucle du Mouhoun",
        "population": -1,
        "latitude": 12.0357,
        "longitude": -4.3987
    },
    {
        "name": "Bama",
        "country": "Burkina Faso",
        "province": "Hauts-Bassins",
        "population": -1,
        "latitude": 11.378651,
        "longitude": -4.421753
    },
    {
        "name": "Balèmba",
        "country": "Burkina Faso",
        "province": "Est",
        "population": -1,
        "latitude": 13.0677968,
        "longitude": 0.0002826
    },
    {
        "name": "Balégogo",
        "country": "Burkina Faso",
        "province": "Cascades",
        "population": -1,
        "latitude": 10.183333,
        "longitude": -4.033333
    },
    {
        "name": "Balavé",
        "country": "Burkina Faso",
        "province": "Boucle du Mouhoun",
        "population": -1,
        "latitude": 12.375878,
        "longitude": -4.156812
    },
    {
        "name": "Bangrin",
        "country": "Burkina Faso",
        "province": "Plateau-Central",
        "population": -1,
        "latitude": 12.529502,
        "longitude": -1.362422
    },
    {
        "name": "Bagassi",
        "country": "Burkina Faso",
        "province": "Boucle du Mouhoun",
        "population": -1,
        "latitude": 11.75,
        "longitude": -3.3
    },
    {
        "name": "Bagaré",
        "country": "Burkina Faso",
        "province": "Nord",
        "population": -1,
        "latitude": 12.916667,
        "longitude": -2.6
    },
    {
        "name": "Bagemnini",
        "country": "Burkina Faso",
        "province": "Centre-Sud",
        "population": -1,
        "latitude": 12.015526,
        "longitude": -1.551692
    },
    {
        "name": "Bagadowoéghin",
        "country": "Burkina Faso",
        "province": "Centre-Ouest",
        "population": -1,
        "latitude": 12.2903,
        "longitude": -1.799229
    },
    {
        "name": "Bagadogo",
        "country": "Burkina Faso",
        "province": "Centre-Sud",
        "population": -1,
        "latitude": 11.9,
        "longitude": -1.366667
    },
    {
        "name": "Bado",
        "country": "Burkina Faso",
        "province": "Centre-Est",
        "population": -1,
        "latitude": 11.633333,
        "longitude": -0.45
    },
    {
        "name": "Badnogo",
        "country": "Burkina Faso",
        "province": "Plateau-Central",
        "population": -1,
        "latitude": 12.133333,
        "longitude": -0.5
    },
    {
        "name": "Badnogo",
        "country": "Burkina Faso",
        "province": "Centre-Sud",
        "population": -1,
        "latitude": 11.883333,
        "longitude": -1.416667
    },
    {
        "name": "Badinogo",
        "country": "Burkina Faso",
        "province": "Centre-Nord",
        "population": -1,
        "latitude": 13.428426,
        "longitude": -1.539844
    },
    {
        "name": "Badinogo",
        "country": "Burkina Faso",
        "province": "Centre-Nord",
        "population": -1,
        "latitude": 13.337803,
        "longitude": -1.597619
    },
    {
        "name": "Badinga",
        "country": "Burkina Faso",
        "province": "Boucle du Mouhoun",
        "population": -1,
        "latitude": 12.3527,
        "longitude": -4.1995
    },
    {
        "name": "Badara",
        "country": "Burkina Faso",
        "province": "Cascades",
        "population": -1,
        "latitude": 10.466667,
        "longitude": -5.083333
    },
    {
        "name": "Assio",
        "country": "Burkina Faso",
        "province": "Boucle du Mouhoun",
        "population": -1,
        "latitude": 11.666667,
        "longitude": -3.133333
    },
    {
        "name": "Aribinda",
        "country": "Burkina Faso",
        "province": "Sahel",
        "population": -1,
        "latitude": 14.229630106415614,
        "longitude": -0.8653664588928223
    },
    {
        "name": "Arbollé",
        "country": "Burkina Faso",
        "province": "Nord",
        "population": -1,
        "latitude": 12.85,
        "longitude": -2.05
    },
    {
        "name": "Ansouri",
        "country": "Burkina Faso",
        "province": "Centre-Nord",
        "population": -1,
        "latitude": 13.311483,
        "longitude": -1.761984
    },
    {
        "name": "Andemtenga",
        "country": "Burkina Faso",
        "province": "Centre-Est",
        "population": -1,
        "latitude": 12.3241667,
        "longitude": -0.3091667
    },
    {
        "name": "Yanmba",
        "country": "Burkina Faso",
        "province": "Est",
        "population": -1,
        "latitude": 12.297449,
        "longitude": 0.338641
    },
    {
        "name": "Yalka",
        "country": "Burkina Faso",
        "province": "Centre-Nord",
        "population": -1,
        "latitude": 13.498495,
        "longitude": -1.547524
    },
    {
        "name": "Yalgo",
        "country": "Burkina Faso",
        "province": "Centre-Nord",
        "population": -1,
        "latitude": 12.933333,
        "longitude": -0.85
    },
    {
        "name": "Yalga",
        "country": "Burkina Faso",
        "province": "Centre-Nord",
        "population": -1,
        "latitude": 13.267395,
        "longitude": -1.436877
    },
    {
        "name": "Yaika",
        "country": "Burkina Faso",
        "province": "Plateau-Central",
        "population": -1,
        "latitude": 12.2,
        "longitude": -0.8
    },
    {
        "name": "Yada",
        "country": "Burkina Faso",
        "province": "Centre-Sud",
        "population": -1,
        "latitude": 12.023151,
        "longitude": -1.983555
    },
    {
        "name": "Yaba",
        "country": "Burkina Faso",
        "province": "Boucle du Mouhoun",
        "population": -1,
        "latitude": 12.870285,
        "longitude": -2.857128
    },
    {
        "name": "Widi",
        "country": "Burkina Faso",
        "province": "Centre-Sud",
        "population": -1,
        "latitude": 11.933333,
        "longitude": -1.583333
    },
    {
        "name": "Wemtinga",
        "country": "Burkina Faso",
        "province": "Centre-Sud",
        "population": -1,
        "latitude": 11.966667,
        "longitude": -1.366667
    },
    {
        "name": "Warmini",
        "country": "Burkina Faso",
        "province": "Centre-Sud",
        "population": -1,
        "latitude": 12.181905,
        "longitude": -1.523389
    },
    {
        "name": "Warakui",
        "country": "Burkina Faso",
        "province": "Boucle du Mouhoun",
        "population": -1,
        "latitude": 12.516667,
        "longitude": -3.766667
    },
    {
        "name": "Wangolodougou",
        "country": "Burkina Faso",
        "province": "Cascades",
        "population": -1,
        "latitude": 10.066667,
        "longitude": -4.8
    },
    {
        "name": "Wangara",
        "country": "Burkina Faso",
        "province": "Sud-Ouest",
        "population": -1,
        "latitude": 10.716667,
        "longitude": -3.25
    },
    {
        "name": "Wako",
        "country": "Burkina Faso",
        "province": "Boucle du Mouhoun",
        "population": -1,
        "latitude": 11.8,
        "longitude": -2.95
    },
    {
        "name": "Vousnango",
        "country": "Burkina Faso",
        "province": "Centre-Nord",
        "population": -1,
        "latitude": 13.157718,
        "longitude": -1.633284
    },
    {
        "name": "Voho",
        "country": "Burkina Faso",
        "province": "Boucle du Mouhoun",
        "population": -1,
        "latitude": 11.616667,
        "longitude": -3.35
    },
    {
        "name": "Virou",
        "country": "Burkina Faso",
        "province": "Boucle du Mouhoun",
        "population": -1,
        "latitude": 11.7,
        "longitude": -2.966667
    },
    {
        "name": "Tuili",
        "country": "Burkina Faso",
        "province": "Centre-Sud",
        "population": -1,
        "latitude": 11.983333,
        "longitude": -1.383333
    },
    {
        "name": "Touziana",
        "country": "Burkina Faso",
        "province": "Hauts-Bassins",
        "population": -1,
        "latitude": 10.833333,
        "longitude": -4.616667
    },
    {
        "name": "Toundoura",
        "country": "Burkina Faso",
        "province": "Cascades",
        "population": -1,
        "latitude": 10.2,
        "longitude": -4.783333
    },
    {
        "name": "Toundou",
        "country": "Burkina Faso",
        "province": "Centre-Sud",
        "population": -1,
        "latitude": 12.027736,
        "longitude": -1.448719
    },
    {
        "name": "Toun",
        "country": "Burkina Faso",
        "province": "Boucle du Mouhoun",
        "population": -1,
        "latitude": 11.9,
        "longitude": -3.65
    },
    {
        "name": "Toumousséni",
        "country": "Burkina Faso",
        "province": "Cascades",
        "population": -1,
        "latitude": 10.633333,
        "longitude": -4.9
    },
    {
        "name": "Touka",
        "country": "Burkina Faso",
        "province": "Centre-Nord",
        "population": -1,
        "latitude": 13.269434,
        "longitude": -1.498981
    },
    {
        "name": "Tougouri",
        "country": "Burkina Faso",
        "province": "Centre-Nord",
        "population": -1,
        "latitude": 13.316389,
        "longitude": -0.5225
    },
    {
        "name": "Tougo",
        "country": "Burkina Faso",
        "province": "Nord",
        "population": -1,
        "latitude": 13.2013596,
        "longitude": -2.1203686
    },
    {
        "name": "Toudou",
        "country": "Burkina Faso",
        "province": "Centre-Sud",
        "population": -1,
        "latitude": 11.866667,
        "longitude": -1.316667
    },
    {
        "name": "Toson",
        "country": "Burkina Faso",
        "province": "Boucle du Mouhoun",
        "population": -1,
        "latitude": 12.89977,
        "longitude": -2.94139
    },
    {
        "name": "Torokoro",
        "country": "Burkina Faso",
        "province": "Cascades",
        "population": -1,
        "latitude": 10.033333,
        "longitude": -4.4
    },
    {
        "name": "Torodo",
        "country": "Burkina Faso",
        "province": "Plateau-Central",
        "population": -1,
        "latitude": 12.2,
        "longitude": -0.483333
    },
    {
        "name": "Torandougou",
        "country": "Burkina Faso",
        "province": "Cascades",
        "population": -1,
        "latitude": 9.86039,
        "longitude": -4.40699
    },
    {
        "name": "Tora",
        "country": "Burkina Faso",
        "province": "Centre-Nord",
        "population": -1,
        "latitude": 13.288187,
        "longitude": -1.387022
    },
    {
        "name": "Tongomayel",
        "country": "Burkina Faso",
        "province": "Sahel",
        "population": -1,
        "latitude": 14.066373,
        "longitude": -1.481705
    },
    {
        "name": "Toné",
        "country": "Burkina Faso",
        "province": "Boucle du Mouhoun",
        "population": -1,
        "latitude": 11.37483,
        "longitude": -2.782679
    },
    {
        "name": "Ton",
        "country": "Burkina Faso",
        "province": "Boucle du Mouhoun",
        "population": -1,
        "latitude": 11.566667,
        "longitude": -2.7
    },
    {
        "name": "Toména",
        "country": "Burkina Faso",
        "province": "Sud-Ouest",
        "population": -1,
        "latitude": 10.766667,
        "longitude": -3.516667
    },
    {
        "name": "Tambarga",
        "country": "Burkina Faso",
        "province": "Est",
        "population": -1,
        "latitude": 11.7958333,
        "longitude": 1.7416667
    },
    {
        "name": "Touma",
        "country": "Burkina Faso",
        "province": "Boucle du Mouhoun",
        "population": -1,
        "latitude": 12.6415,
        "longitude": -4.4015
    },
    {
        "name": "Tolépsi",
        "country": "Burkina Faso",
        "province": "Est",
        "population": -1,
        "latitude": 13.1323443,
        "longitude": 0.2173027
    },
    {
        "name": "Toessé",
        "country": "Burkina Faso",
        "province": "Centre-Sud",
        "population": -1,
        "latitude": 11.83,
        "longitude": -1.266389
    },
    {
        "name": "Toemiga",
        "country": "Burkina Faso",
        "province": "Centre-Sud",
        "population": -1,
        "latitude": 11.966667,
        "longitude": -1.316667
    },
    {
        "name": "Toéghin",
        "country": "Burkina Faso",
        "province": "Plateau-Central",
        "population": -1,
        "latitude": 12.815903,
        "longitude": -1.727633
    },
    {
        "name": "Toanga",
        "country": "Burkina Faso",
        "province": "Centre-Sud",
        "population": -1,
        "latitude": 12.0071,
        "longitude": -1.240803
    },
    {
        "name": "Tô",
        "country": "Burkina Faso",
        "province": "Centre-Ouest",
        "population": -1,
        "latitude": 11.443786,
        "longitude": -2.225484
    },
    {
        "name": "Titabé",
        "country": "Burkina Faso",
        "province": "Sahel",
        "population": -1,
        "latitude": 13.772742,
        "longitude": 0.432355
    },
    {
        "name": "Tirbou",
        "country": "Burkina Faso",
        "province": "Centre-Nord",
        "population": -1,
        "latitude": 13.404466,
        "longitude": -1.808641
    },
    {
        "name": "Tiopanao",
        "country": "Burkina Faso",
        "province": "Sud-Ouest",
        "population": -1,
        "latitude": 10.716667,
        "longitude": -3.15
    },
    {
        "name": "Tiontiomana",
        "country": "Burkina Faso",
        "province": "Cascades",
        "population": -1,
        "latitude": 10.516667,
        "longitude": -4.766667
    },
    {
        "name": "Tionouna",
        "country": "Burkina Faso",
        "province": "Cascades",
        "population": -1,
        "latitude": 10.516667,
        "longitude": -4.816667
    },
    {
        "name": "Tinié",
        "country": "Burkina Faso",
        "province": "Sahel",
        "population": -1,
        "latitude": 14.333023,
        "longitude": -1.468583
    },
    {
        "name": "Tengandogo",
        "country": "Burkina Faso",
        "province": "Centre-Sud",
        "population": -1,
        "latitude": 12.05099,
        "longitude": -1.302473
    },
    {
        "name": "Tindangou",
        "country": "Burkina Faso",
        "province": "Est",
        "population": -1,
        "latitude": 11.181111,
        "longitude": 0.83
    },
    {
        "name": "Tikaré",
        "country": "Burkina Faso",
        "province": "Centre-Nord",
        "population": -1,
        "latitude": 13.291389,
        "longitude": -1.726111
    },
    {
        "name": "Tiérako",
        "country": "Burkina Faso",
        "province": "Hauts-Bassins",
        "population": -1,
        "latitude": 11.482525,
        "longitude": -4.134302
    },
    {
        "name": "Tienpagora",
        "country": "Burkina Faso",
        "province": "Cascades",
        "population": -1,
        "latitude": 10.416667,
        "longitude": -4.8
    },
    {
        "name": "Tièma",
        "country": "Burkina Faso",
        "province": "Boucle du Mouhoun",
        "population": -1,
        "latitude": 12.733333,
        "longitude": -2.783333
    },
    {
        "name": "Tiékouna",
        "country": "Burkina Faso",
        "province": "Cascades",
        "population": -1,
        "latitude": 10.633333,
        "longitude": -4.8
    },
    {
        "name": "Tiéfora",
        "country": "Burkina Faso",
        "province": "Cascades",
        "population": -1,
        "latitude": 10.624503,
        "longitude": -4.540189
    },
    {
        "name": "Tiébélé",
        "country": "Burkina Faso",
        "province": "Centre-Sud",
        "population": -1,
        "latitude": 11.097222,
        "longitude": -0.965556
    },
    {
        "name": "Tiébata",
        "country": "Burkina Faso",
        "province": "Cascades",
        "population": -1,
        "latitude": 9.85,
        "longitude": -4.266667
    },
    {
        "name": "Tibga",
        "country": "Burkina Faso",
        "province": "Est",
        "population": -1,
        "latitude": 12.169167,
        "longitude": 0.0575
    },
    {
        "name": "Tibin",
        "country": "Burkina Faso",
        "province": "Plateau-Central",
        "population": -1,
        "latitude": 12.619195,
        "longitude": -1.241908
    },
    {
        "name": "Tiankoura",
        "country": "Burkina Faso",
        "province": "Sud-Ouest",
        "population": -1,
        "latitude": 10.76634,
        "longitude": -3.255875
    },
    {
        "name": "Tiabdou",
        "country": "Burkina Faso",
        "province": "Est",
        "population": -1,
        "latitude": 12.783333,
        "longitude": -0.116667
    },
    {
        "name": "Tiou",
        "country": "Burkina Faso",
        "province": "Nord",
        "population": -1,
        "latitude": 13.8063176,
        "longitude": -2.6637266
    },
    {
        "name": "Thion",
        "country": "Burkina Faso",
        "province": "Est",
        "population": -1,
        "latitude": 13.064752,
        "longitude": -0.314955
    },
    {
        "name": "Tengréla",
        "country": "Burkina Faso",
        "province": "Cascades",
        "population": -1,
        "latitude": 10.666667,
        "longitude": -4.816667
    },
    {
        "name": "Toéni",
        "country": "Burkina Faso",
        "province": "Boucle du Mouhoun",
        "population": -1,
        "latitude": 13.379933672330377,
        "longitude": -3.2007980346679688
    },
    {
        "name": "Tenado",
        "country": "Burkina Faso",
        "province": "Centre-Ouest",
        "population": -1,
        "latitude": 12.192763,
        "longitude": -2.597368
    },
    {
        "name": "Tèmnaoré",
        "country": "Burkina Faso",
        "province": "Centre-Nord",
        "population": -1,
        "latitude": 13.428528,
        "longitude": -1.73309
    },
    {
        "name": "Tébéra",
        "country": "Burkina Faso",
        "province": "Centre-Nord",
        "population": -1,
        "latitude": 13.671521,
        "longitude": -1.438527
    },
    {
        "name": "Tchériba",
        "country": "Burkina Faso",
        "province": "Boucle du Mouhoun",
        "population": -1,
        "latitude": 12.262062,
        "longitude": -3.079057
    },
    {
        "name": "Tapélara",
        "country": "Burkina Faso",
        "province": "Boucle du Mouhoun",
        "population": -1,
        "latitude": 12.016667,
        "longitude": -3.05
    },
    {
        "name": "Tanwaka",
        "country": "Burkina Faso",
        "province": "Plateau-Central",
        "population": -1,
        "latitude": 12.15,
        "longitude": -0.75
    },
    {
        "name": "Tantiaka",
        "country": "Burkina Faso",
        "province": "Est",
        "population": -1,
        "latitude": 12.166667,
        "longitude": 0.116667
    },
    {
        "name": "Tantako",
        "country": "Burkina Faso",
        "province": "Centre-Est",
        "population": -1,
        "latitude": 12.2361,
        "longitude": -0.23671
    },
    {
        "name": "Tansologo",
        "country": "Burkina Faso",
        "province": "Plateau-Central",
        "population": -1,
        "latitude": 12.183333,
        "longitude": -0.75
    },
    {
        "name": "Tansobentinga",
        "country": "Burkina Faso",
        "province": "Centre",
        "population": -1,
        "latitude": 12.302269,
        "longitude": -1.323476
    },
    {
        "name": "Tansié",
        "country": "Burkina Faso",
        "province": "Sud-Ouest",
        "population": -1,
        "latitude": 10.816667,
        "longitude": -3.266667
    },
    {
        "name": "Tanséga",
        "country": "Burkina Faso",
        "province": "Plateau-Central",
        "population": -1,
        "latitude": 12.116667,
        "longitude": -0.516667
    },
    {
        "name": "Tansarga",
        "country": "Burkina Faso",
        "province": "Est",
        "population": -1,
        "latitude": 11.8752778,
        "longitude": 1.8669444
    },
    {
        "name": "Tampelga",
        "country": "Burkina Faso",
        "province": "Centre-Nord",
        "population": -1,
        "latitude": 12.693016,
        "longitude": -1.041771
    },
    {
        "name": "Tampèlga",
        "country": "Burkina Faso",
        "province": "Centre-Nord",
        "population": -1,
        "latitude": 12.864715,
        "longitude": -1.226762
    },
    {
        "name": "Tanlouka",
        "country": "Burkina Faso",
        "province": "Plateau-Central",
        "population": -1,
        "latitude": 12.15,
        "longitude": -0.8
    },
    {
        "name": "Tanlarghin",
        "country": "Burkina Faso",
        "province": "Centre",
        "population": -1,
        "latitude": 12.301514,
        "longitude": -1.388579
    },
    {
        "name": "Tanlallé",
        "country": "Burkina Faso",
        "province": "Centre-Nord",
        "population": -1,
        "latitude": 13.369579,
        "longitude": -1.68076
    },
    {
        "name": "Tankoulounga",
        "country": "Burkina Faso",
        "province": "Centre-Nord",
        "population": -1,
        "latitude": 13.462881,
        "longitude": -1.471279
    },
    {
        "name": "Tankori",
        "country": "Burkina Faso",
        "province": "Est",
        "population": -1,
        "latitude": 13.443683,
        "longitude": -0.176725
    },
    {
        "name": "Tankogonadye",
        "country": "Burkina Faso",
        "province": "Sahel",
        "population": -1,
        "latitude": 13.5620286,
        "longitude": 0.7357487
    },
    {
        "name": "Tanguiéma",
        "country": "Burkina Faso",
        "province": "Centre-Nord",
        "population": -1,
        "latitude": 13.213803,
        "longitude": -1.250534
    },
    {
        "name": "Tanguen",
        "country": "Burkina Faso",
        "province": "Centre-Nord",
        "population": -1,
        "latitude": 12.616667,
        "longitude": -0.633333
    },
    {
        "name": "Tanguen",
        "country": "Burkina Faso",
        "province": "Centre-Nord",
        "population": -1,
        "latitude": 12.6,
        "longitude": -0.65
    },
    {
        "name": "Tangoura",
        "country": "Burkina Faso",
        "province": "Cascades",
        "population": -1,
        "latitude": 10.633333,
        "longitude": -4.75
    },
    {
        "name": "Tanhouna",
        "country": "Burkina Faso",
        "province": "Boucle du Mouhoun",
        "population": -1,
        "latitude": 12.489365,
        "longitude": -4.196286
    },
    {
        "name": "Tanghin-Dassouri",
        "country": "Burkina Faso",
        "province": "Centre",
        "population": -1,
        "latitude": 12.272557,
        "longitude": -1.717041
    },
    {
        "name": "Tanghin",
        "country": "Burkina Faso",
        "province": "Centre",
        "population": -1,
        "latitude": 12.347562,
        "longitude": -1.365534
    },
    {
        "name": "Tangaye",
        "country": "Burkina Faso",
        "province": "Nord",
        "population": -1,
        "latitude": 13.5400851,
        "longitude": -2.5468857
    },
    {
        "name": "Tanga",
        "country": "Burkina Faso",
        "province": "Centre-Est",
        "population": -1,
        "latitude": 12.4,
        "longitude": -0.416667
    },
    {
        "name": "Tandaga",
        "country": "Burkina Faso",
        "province": "Plateau-Central",
        "population": -1,
        "latitude": 12.416667,
        "longitude": -0.583333
    },
    {
        "name": "Tandaga",
        "country": "Burkina Faso",
        "province": "Centre-Sud",
        "population": -1,
        "latitude": 12.022647,
        "longitude": -1.346846
    },
    {
        "name": "Tampoui",
        "country": "Burkina Faso",
        "province": "Centre-Nord",
        "population": -1,
        "latitude": 13.62945,
        "longitude": -1.818463
    },
    {
        "name": "Tamponga",
        "country": "Burkina Faso",
        "province": "Centre-Nord",
        "population": -1,
        "latitude": 13.433139,
        "longitude": -1.546796
    },
    {
        "name": "Tamissi",
        "country": "Burkina Faso",
        "province": "Plateau-Central",
        "population": -1,
        "latitude": 12.645088,
        "longitude": -1.56618
    },
    {
        "name": "Tamiga",
        "country": "Burkina Faso",
        "province": "Centre-Nord",
        "population": -1,
        "latitude": 12.925982,
        "longitude": -1.140977
    },
    {
        "name": "Tamidou",
        "country": "Burkina Faso",
        "province": "Plateau-Central",
        "population": -1,
        "latitude": 12.216667,
        "longitude": -0.6
    },
    {
        "name": "Tamidou",
        "country": "Burkina Faso",
        "province": "Burkina Faso",
        "population": -1,
        "latitude": 12.0833333,
        "longitude": -0.4166667
    },
    {
        "name": "Tambiga",
        "country": "Burkina Faso",
        "province": "Est",
        "population": -1,
        "latitude": 12.9,
        "longitude": 0.866667
    },
    {
        "name": "Tambidi",
        "country": "Burkina Faso",
        "province": "Est",
        "population": -1,
        "latitude": 13.293732,
        "longitude": -0.281389
    },
    {
        "name": "Tamassari",
        "country": "Burkina Faso",
        "province": "Cascades",
        "population": -1,
        "latitude": 10.65,
        "longitude": -5.333333
    },
    {
        "name": "Tallé",
        "country": "Burkina Faso",
        "province": "Nord",
        "population": -1,
        "latitude": 13.6143999,
        "longitude": -2.7346581
    },
    {
        "name": "Souxuy",
        "country": "Burkina Faso",
        "province": "Boucle du Mouhoun",
        "population": -1,
        "latitude": 12.6,
        "longitude": -3.466667
    },
    {
        "name": "Soussié",
        "country": "Burkina Faso",
        "province": "Cascades",
        "population": -1,
        "latitude": 10.366667,
        "longitude": -3.933333
    },
    {
        "name": "Souryala",
        "country": "Burkina Faso",
        "province": "Centre-Nord",
        "population": -1,
        "latitude": 13.210502,
        "longitude": -1.424352
    },
    {
        "name": "Souroukoudinga",
        "country": "Burkina Faso",
        "province": "Hauts-Bassins",
        "population": -1,
        "latitude": 11.232848,
        "longitude": -4.538499
    },
    {
        "name": "Soulougou",
        "country": "Burkina Faso",
        "province": "Est",
        "population": -1,
        "latitude": 13.0166674,
        "longitude": 0.3826973
    },
    {
        "name": "Soula",
        "country": "Burkina Faso",
        "province": "Est",
        "population": -1,
        "latitude": 13.4112,
        "longitude": -0.2172
    },
    {
        "name": "Soula",
        "country": "Burkina Faso",
        "province": "Centre-Sud",
        "population": -1,
        "latitude": 11.966667,
        "longitude": -1.283333
    },
    {
        "name": "Souka",
        "country": "Burkina Faso",
        "province": "Plateau-Central",
        "population": -1,
        "latitude": 12.266667,
        "longitude": -0.516667
    },
    {
        "name": "Soudougui",
        "country": "Burkina Faso",
        "province": "Centre-Est",
        "population": -1,
        "latitude": 11.201667,
        "longitude": 0.323611
    },
    {
        "name": "Soubouy",
        "country": "Burkina Faso",
        "province": "Boucle du Mouhoun",
        "population": -1,
        "latitude": 11.85,
        "longitude": -3.133333
    },
    {
        "name": "Soubakaniédougou",
        "country": "Burkina Faso",
        "province": "Cascades",
        "population": -1,
        "latitude": 10.466667,
        "longitude": -5.016667
    },
    {
        "name": "Séguédin",
        "country": "Burkina Faso",
        "province": "Nord",
        "population": -1,
        "latitude": 12.967474,
        "longitude": -1.802252
    },
    {
        "name": "Sorobouli",
        "country": "Burkina Faso",
        "province": "Boucle du Mouhoun",
        "population": -1,
        "latitude": 11.9,
        "longitude": -2.95
    },
    {
        "name": "Sono",
        "country": "Burkina Faso",
        "province": "Boucle du Mouhoun",
        "population": -1,
        "latitude": 12.825767,
        "longitude": -3.493202
    },
    {
        "name": "Sondré",
        "country": "Burkina Faso",
        "province": "Centre-Sud",
        "population": -1,
        "latitude": 11.816667,
        "longitude": -1.066667
    },
    {
        "name": "Somé",
        "country": "Burkina Faso",
        "province": "Centre-Ouest",
        "population": -1,
        "latitude": 12.383333,
        "longitude": -2.216667
    },
    {
        "name": "Sokourani",
        "country": "Burkina Faso",
        "province": "Hauts-Bassins",
        "population": -1,
        "latitude": 11.511824,
        "longitude": -4.116021
    },
    {
        "name": "Sokoura",
        "country": "Burkina Faso",
        "province": "Boucle du Mouhoun",
        "population": -1,
        "latitude": 12.3,
        "longitude": -3.616667
    },
    {
        "name": "Soala",
        "country": "Burkina Faso",
        "province": "Centre-Ouest",
        "population": -1,
        "latitude": 12.655692,
        "longitude": -1.963703
    },
    {
        "name": "Sitiéna",
        "country": "Burkina Faso",
        "province": "Cascades",
        "population": -1,
        "latitude": 10.6,
        "longitude": -4.8
    },
    {
        "name": "Sitenga",
        "country": "Burkina Faso",
        "province": "Sahel",
        "population": -1,
        "latitude": 13.971965,
        "longitude": 0.309556
    },
    {
        "name": "Sipohin",
        "country": "Burkina Faso",
        "province": "Boucle du Mouhoun",
        "population": -1,
        "latitude": 11.733333,
        "longitude": -3.3
    },
    {
        "name": "Siou",
        "country": "Burkina Faso",
        "province": "Boucle du Mouhoun",
        "population": -1,
        "latitude": 12.083333,
        "longitude": -3.2
    },