[
    {
        "name": "Sofia",
        "country": "Bulgaria",
        "province": "Sofia-Capital",
        "population": 1152556,
        "latitude": 42.6975135281805,
        "longitude": 23.324146270752
    },
    {
        "name": "Varna",
        "country": "Bulgaria",
        "province": "Varna",
        "population": 312770,
        "latitude": 43.2166667,
        "longitude": 27.9166667
    },
    {
        "name": "Burgas",
        "country": "Bulgaria",
        "province": "Burgas",
        "population": 195966,
        "latitude": 42.506058,
        "longitude": 27.46781
    },
    {
        "name": "Stara Zagora",
        "country": "Bulgaria",
        "province": "Stara Zagora",
        "population": 143431,
        "latitude": 42.4327778,
        "longitude": 25.6419444
    },
    {
        "name": "Plovdiv",
        "country": "Bulgaria",
        "province": "Plovdiv",
        "population": 346893,
        "latitude": 42.15,
        "longitude": 24.75
    },
    {
        "name": "Rousse",
        "country": "Bulgaria",
        "province": "Ruse",
        "population": 143417,
        "latitude": 43.84872,
        "longitude": 25.9534
    },
    {
        "name": "Gabrovo",
        "country": "Bulgaria",
        "province": "Gabrovo",
        "population": 66175,
        "latitude": 42.8747222,
        "longitude": 25.3341667
    },
    {
        "name": "Blagoevgrad",
        "country": "Bulgaria",
        "province": "Blagoevgrad",
        "population": 67810,
        "latitude": 42.0166667,
        "longitude": 23.1
    },
    {
        "name": "Pleven",
        "country": "Bulgaria",
        "province": "Pleven",
        "population": 100952,
        "latitude": 43.4166667,
        "longitude": 24.6166667
    },
    {
        "name": "Pernik",
        "country": "Bulgaria",
        "province": "Pernik",
        "population": 82467,
        "latitude": 42.6,
        "longitude": 23.0333333
    },
    {
        "name": "Pazardzhik",
        "country": "Bulgaria",
        "province": "Pazardzhik",
        "population": 65671,
        "latitude": 42.2,
        "longitude": 24.3333333
    },
    {
        "name": "Lovech",
        "country": "Bulgaria",
        "province": "Lovech",
        "population": 29659,
        "latitude": 43.1333333,
        "longitude": 24.7166667
    },
    {
        "name": "Kardzhali",
        "country": "Bulgaria",
        "province": "Kardzhali",
        "population": 51000,
        "latitude": 41.65,
        "longitude": 25.366667
    },
    {
        "name": "Haskovo",
        "country": "Bulgaria",
        "province": "Haskovo",
        "population": 67086,
        "latitude": 41.934146448149,
        "longitude": 25.555572509765625
    },
    {
        "name": "Vratsa",
        "country": "Bulgaria",
        "province": "Vratsa",
        "population": 64941,
        "latitude": 43.21,
        "longitude": 23.5625
    },
    {
        "name": "Veliko Tarnovo",
        "country": "Bulgaria",
        "province": "Veliko Tarnovo",
        "population": 66217,
        "latitude": 43.08123885640445,
        "longitude": 25.629043579101562
    },
    {
        "name": "Targovishte",
        "country": "Bulgaria",
        "province": "Targovishte",
        "population": 34793,
        "latitude": 43.2512044908875,
        "longitude": 26.57215118408203
    },
    {
        "name": "Dobrich",
        "country": "Bulgaria",
        "province": "Dobrich",
        "population": 79269,
        "latitude": 43.5666667,
        "longitude": 27.8333333
    },
    {
        "name": "Sliven",
        "country": "Bulgaria",
        "province": "Sliven",
        "population": 83740,
        "latitude": 42.6858333,
        "longitude": 26.3291667
    },
    {
        "name": "Shumen",
        "country": "Bulgaria",
        "province": "Shumen",
        "population": 72342,
        "latitude": 43.2706436600612,
        "longitude": 26.9228553771973
    },
    {
        "name": "Nesebar",
        "country": "Bulgaria",
        "province": "Burgas",
        "population": 13347,
        "latitude": 42.6592117071038,
        "longitude": 27.7360153198242
    },
    {
        "name": "Montana",
        "country": "Bulgaria",
        "province": "Montana",
        "population": 47445,
        "latitude": 43.4125,
        "longitude": 23.225
    },
    {
        "name": "Kyustendil",
        "country": "Bulgaria",
        "province": "Kyustendil",
        "population": 37799,
        "latitude": 42.2838889,
        "longitude": 22.6911111
    },
    {
        "name": "Yambol",
        "country": "Bulgaria",
        "province": "Yambol",
        "population": 63656,
        "latitude": 42.4833333,
        "longitude": 26.5
    },
    {
        "name": "Vidin",
        "country": "Bulgaria",
        "province": "Vidin",
        "population": 40422,
        "latitude": 43.99159,
        "longitude": 22.88236
    },
    {
        "name": "Smolyan",
        "country": "Bulgaria",
        "province": "Smolyan",
        "population": 26167,
        "latitude": 41.57439,
        "longitude": 24.71204
    },
    {
        "name": "Silistra",
        "country": "Bulgaria",
        "province": "Silistra",
        "population": 29498,
        "latitude": 44.1171,
        "longitude": 27.26056
    },
    {
        "name": "Razgrad",
        "country": "Bulgaria",
        "province": "Razgrad",
        "population": 38285,
        "latitude": 43.5333333,
        "longitude": 26.5166667
    },
    {
        "name": "Gotse Delchev",
        "country": "Bulgaria",
        "province": "Blagoevgrad",
        "population": 20522,
        "latitude": 41.5666667,
        "longitude": 23.7333333
    },
    {
        "name": "Gorna Oryahovitsa",
        "country": "Bulgaria",
        "province": "Veliko Tarnovo",
        "population": 32792,
        "latitude": 43.127778,
        "longitude": 25.701667
    },
    {
        "name": "Dimitrovgrad",
        "country": "Bulgaria",
        "province": "Haskovo",
        "population": 38015,
        "latitude": 42.05,
        "longitude": 25.6
    },
    {
        "name": "Pomorie",
        "country": "Bulgaria",
        "province": "Burgas",
        "population": 13714,
        "latitude": 42.563257,
        "longitude": 27.629865
    },
    {
        "name": "Petrich",
        "country": "Bulgaria",
        "province": "Blagoevgrad",
        "population": 30722,
        "latitude": 41.39846,
        "longitude": 23.207024
    },
    {
        "name": "Obzor",
        "country": "Bulgaria",
        "province": "Burgas",
        "population": 2002,
        "latitude": 42.819981,
        "longitude": 27.880066
    },
    {
        "name": "Nova Zagora",
        "country": "Bulgaria",
        "province": "Sliven",
        "population": 23625,
        "latitude": 42.4833333,
        "longitude": 26.0166667
    },
    {
        "name": "Kazanlak",
        "country": "Bulgaria",
        "province": "Stara Zagora",
        "population": 47918,
        "latitude": 42.616667,
        "longitude": 25.4
    },
    {
        "name": "Karlovo",
        "country": "Bulgaria",
        "province": "Plovdiv",
        "population": 30340,
        "latitude": 42.6333333,
        "longitude": 24.8
    },
    {
        "name": "Tryavna",
        "country": "Bulgaria",
        "province": "Gabrovo",
        "population": 13818,
        "latitude": 42.8666667,
        "longitude": 25.5
    },
    {
        "name": "Sistov",
        "country": "Bulgaria",
        "province": "Veliko Tarnovo",
        "population": 30157,
        "latitude": 43.61875,
        "longitude": 25.35033
    },
    {
        "name": "Svilengrad",
        "country": "Bulgaria",
        "province": "Haskovo",
        "population": 19279,
        "latitude": 41.7666667,
        "longitude": 26.2
    },
    {
        "name": "Dupnitsa",
        "country": "Bulgaria",
        "province": "Kyustendil",
        "population": 34764,
        "latitude": 42.2666667,
        "longitude": 23.1166667
    },
    {
        "name": "Sandanski",
        "country": "Bulgaria",
        "province": "Blagoevgrad",
        "population": 28510,
        "latitude": 41.5666667,
        "longitude": 23.2833333
    },
    {
        "name": "Razlog",
        "country": "Bulgaria",
        "province": "Blagoevgrad",
        "population": 12486,
        "latitude": 41.88630442013054,
        "longitude": 23.467140197753906
    },
    {
        "name": "Asenovgrad",
        "country": "Bulgaria",
        "province": "Plovdiv",
        "population": 54778,
        "latitude": 42.0166667,
        "longitude": 24.8666667
    },
    {
        "name": "Kameno",
        "country": "Bulgaria",
        "province": "Burgas",
        "population": 4952,
        "latitude": 42.570844,
        "longitude": 27.298747
    },
    {
        "name": "Izvorovo",
        "country": "Bulgaria",
        "province": "Dobrich",
        "population": -1,
        "latitude": 43.807021,
        "longitude": 27.94021
    },
    {
        "name": "Ivaylovgrad",
        "country": "Bulgaria",
        "province": "Haskovo",
        "population": 3969,
        "latitude": 41.526716,
        "longitude": 26.124896
    },
    {
        "name": "Ihtiman",
        "country": "Bulgaria",
        "province": "Sofia",
        "population": 14154,
        "latitude": 42.433333,
        "longitude": 23.816667
    },
    {
        "name": "Dolni Chiflik",
        "country": "Bulgaria",
        "province": "Varna",
        "population": 7169,
        "latitude": 42.992955,
        "longitude": 27.715957
    },
    {
        "name": "Gara Hitrino",
        "country": "Bulgaria",
        "province": "Shumen",
        "population": 1302,
        "latitude": 43.433333,
        "longitude": 26.916667
    },
    {
        "name": "Etropole",
        "country": "Bulgaria",
        "province": "Sofia",
        "population": 11031,
        "latitude": 42.8333333,
        "longitude": 24
    },
    {
        "name": "Elhovo",
        "country": "Bulgaria",
        "province": "Yambol",
        "population": 10424,
        "latitude": 42.166667,
        "longitude": 26.566667
    },
    {
        "name": "Elena",
        "country": "Bulgaria",
        "province": "Veliko Tarnovo",
        "population": 6042,
        "latitude": 42.933333,
        "longitude": 25.883333
    },
    {
        "name": "Dolna Mitropolia",
        "country": "Bulgaria",
        "province": "Pleven",
        "population": 3479,
        "latitude": 43.466667,
        "longitude": 24.533333
    },
    {
        "name": "Devin",
        "country": "Bulgaria",
        "province": "Smolyan",
        "population": 7393,
        "latitude": 41.7432677029027,
        "longitude": 24.4000339508057
    },
    {
        "name": "Chirpan",
        "country": "Bulgaria",
        "province": "Stara Zagora",
        "population": 15109,
        "latitude": 42.2,
        "longitude": 25.3333333
    },
    {
        "name": "Chiprovtsi",
        "country": "Bulgaria",
        "province": "Montana",
        "population": 1941,
        "latitude": 43.3841667,
        "longitude": 22.8808333
    },
    {
        "name": "Chepelare",
        "country": "Bulgaria",
        "province": "Smolyan",
        "population": 5478,
        "latitude": 41.7333333,
        "longitude": 24.6833333
    },
    {
        "name": "Byala Slatina",
        "country": "Bulgaria",
        "province": "Vratsa",
        "population": 10282,
        "latitude": 43.4666667,
        "longitude": 23.9333333
    },
    {
        "name": "Byala Cherkva",
        "country": "Bulgaria",
        "province": "Veliko Tarnovo",
        "population": 3010,
        "latitude": 43.2,
        "longitude": 25.3
    },
    {
        "name": "Brezovo",
        "country": "Bulgaria",
        "province": "Plovdiv",
        "population": 1947,
        "latitude": 42.35,
        "longitude": 25.0833333
    },
    {
        "name": "Breznishki Izvor",
        "country": "Bulgaria",
        "province": "Pernik",
        "population": -1,
        "latitude": 42.727137,
        "longitude": 22.808715
    },
    {
        "name": "Breznik",
        "country": "Bulgaria",
        "province": "Pernik",
        "population": 4020,
        "latitude": 42.740852,
        "longitude": 22.907226
    },
    {
        "name": "Botevgrad",
        "country": "Bulgaria",
        "province": "Sofia",
        "population": 20909,
        "latitude": 42.9,
        "longitude": 23.7833333
    },
    {
        "name": "Berkovitsa Municipality",
        "country": "Bulgaria",
        "province": "Montana",
        "population": 15027,
        "latitude": 43.235807,
        "longitude": 23.127382
    },
    {
        "name": "Belitsa",
        "country": "Bulgaria",
        "province": "Blagoevgrad",
        "population": 3166,
        "latitude": 41.9569444,
        "longitude": 23.5725
    },
    {
        "name": "Parvomay",
        "country": "Bulgaria",
        "province": "Plovdiv",
        "population": 17000,
        "latitude": 42.1,
        "longitude": 25.216667
    },
    {
        "name": "Provadia",
        "country": "Bulgaria",
        "province": "Varna",
        "population": 13755,
        "latitude": 43.183333,
        "longitude": 27.433333
    },
    {
        "name": "Preslav",
        "country": "Bulgaria",
        "province": "Shumen",
        "population": 9425,
        "latitude": 43.1666667,
        "longitude": 26.8166667
    },
    {
        "name": "Popovo",
        "country": "Bulgaria",
        "province": "Targovishte",
        "population": 16571,
        "latitude": 43.35,
        "longitude": 26.2333333
    },
    {
        "name": "Pliska",
        "country": "Bulgaria",
        "province": "Shumen",
        "population": 1263,
        "latitude": 43.3666667,
        "longitude": 27.1166667
    },
    {
        "name": "Pirdop",
        "country": "Bulgaria",
        "province": "Sofia",
        "population": 8136,
        "latitude": 42.7,
        "longitude": 24.1833333
    },
    {
        "name": "Pavlikeni",
        "country": "Bulgaria",
        "province": "Veliko Tarnovo",
        "population": 11151,
        "latitude": 43.2427778,
        "longitude": 25.3219444
    },
    {
        "name": "Panagyurishte",
        "country": "Bulgaria",
        "province": "Pazardzhik",
        "population": 19389,
        "latitude": 42.495177,
        "longitude": 24.190206
    },
    {
        "name": "Novi Pazar",
        "country": "Bulgaria",
        "province": "Shumen",
        "population": 13276,
        "latitude": 43.35,
        "longitude": 27.2
    },
    {
        "name": "Nikopol",
        "country": "Bulgaria",
        "province": "Pleven",
        "population": 4137,
        "latitude": 43.70528,
        "longitude": 24.89521
    },
    {
        "name": "Maglizh",
        "country": "Bulgaria",
        "province": "Stara Zagora",
        "population": 3643,
        "latitude": 42.6,
        "longitude": 25.55
    },
    {
        "name": "Mezdra",
        "country": "Bulgaria",
        "province": "Vratsa",
        "population": 11975,
        "latitude": 43.15,
        "longitude": 23.7
    },
    {
        "name": "Malko Tarnovo",
        "country": "Bulgaria",
        "province": "Burgas",
        "population": 3336,
        "latitude": 41.979576,
        "longitude": 27.524767
    },
    {
        "name": "Madzharovo",
        "country": "Bulgaria",
        "province": "Haskovo",
        "population": 1319,
        "latitude": 41.634614,
        "longitude": 25.864386
    },
    {
        "name": "Lyaskovets",
        "country": "Bulgaria",
        "province": "Veliko Tarnovo",
        "population": 8488,
        "latitude": 43.1111111,
        "longitude": 25.7283333
    },
    {
        "name": "Lom",
        "country": "Bulgaria",
        "province": "Montana",
        "population": 26594,
        "latitude": 43.82106,
        "longitude": 23.23677
    },
    {
        "name": "Levski",
        "country": "Bulgaria",
        "province": "Pleven",
        "population": 11467,
        "latitude": 43.3666667,
        "longitude": 25.1333333
    },
    {
        "name": "Krichim",
        "country": "Bulgaria",
        "province": "Plovdiv",
        "population": 8580,
        "latitude": 42.05,
        "longitude": 24.4666667
    },
    {
        "name": "Kozloduy",
        "country": "Bulgaria",
        "province": "Vratsa",
        "population": 14717,
        "latitude": 43.778645,
        "longitude": 23.720582
    },
    {
        "name": "Koprivshtitsa",
        "country": "Bulgaria",
        "province": "Sofia",
        "population": 2885,
        "latitude": 42.6333333,
        "longitude": 24.35
    },
    {
        "name": "Hisarya",
        "country": "Bulgaria",
        "province": "Plovdiv",
        "population": 7903,
        "latitude": 42.5,
        "longitude": 24.7
    },
    {
        "name": "Harmanli",
        "country": "Bulgaria",
        "province": "Haskovo",
        "population": 18931,
        "latitude": 41.933333,
        "longitude": 25.9
    },
    {
        "name": "Karnobat",
        "country": "Bulgaria",
        "province": "Burgas",
        "population": 19709,
        "latitude": 42.65,
        "longitude": 26.9833333
    },
    {
        "name": "Vetrino",
        "country": "Bulgaria",
        "province": "Varna",
        "population": 1368,
        "latitude": 43.3166667,
        "longitude": 27.4333333
    },
    {
        "name": "Velingrad",
        "country": "Bulgaria",
        "province": "Pazardzhik",
        "population": 24036,
        "latitude": 42.027544,
        "longitude": 23.991552
    },
    {
        "name": "Tvarditsa",
        "country": "Bulgaria",
        "province": "Sliven",
        "population": 6519,
        "latitude": 42.7,
        "longitude": 25.9
    },
    {
        "name": "Turtucaia",
        "country": "Bulgaria",
        "province": "Silistra",
        "population": 10022,
        "latitude": 44.04906,
        "longitude": 26.61206
    },
    {
        "name": "Troyan Municipality",
        "country": "Bulgaria",
        "province": "Lovech",
        "population": 21162,
        "latitude": 42.89426504516504,
        "longitude": 24.715890884399414
    },
    {
        "name": "Topolovgrad",
        "country": "Bulgaria",
        "province": "Haskovo",
        "population": 6464,
        "latitude": 42.0833333,
        "longitude": 26.3333333
    },
    {
        "name": "Sozopol",
        "country": "Bulgaria",
        "province": "Burgas",
        "population": 4500,
        "latitude": 42.418013,
        "longitude": 27.6956
    },
    {
        "name": "Slavyanovo",
        "country": "Bulgaria",
        "province": "Pleven",
        "population": 4793,
        "latitude": 43.4666667,
        "longitude": 24.8666667
    },
    {
        "name": "Sevlievo",
        "country": "Bulgaria",
        "province": "Gabrovo",
        "population": 24582,
        "latitude": 43.0258333,
        "longitude": 25.1136111
    },
    {
        "name": "Samokov",
        "country": "Bulgaria",
        "province": "Sofia",
        "population": 26765,
        "latitude": 42.336998,
        "longitude": 23.552797
    },
    {
        "name": "Rila Monastery",
        "country": "Bulgaria",
        "province": "Kyustendil",
        "population": -1,
        "latitude": 42.1331764314487,
        "longitude": 23.3406257629395
    },
    {
        "name": "Rakovski",
        "country": "Bulgaria",
        "province": "Plovdiv",
        "population": 15782,
        "latitude": 42.27408,
        "longitude": 24.94083
    },
    {
        "name": "Radomir",
        "country": "Bulgaria",
        "province": "Pernik",
        "population": 14494,
        "latitude": 42.545649,
        "longitude": 22.965526
    },
    {
        "name": "Radnevo",
        "country": "Bulgaria",
        "province": "Stara Zagora",
        "population": 14667,
        "latitude": 42.3,
        "longitude": 25.9333333
    },
    {
        "name": "Bansko",
        "country": "Bulgaria",
        "province": "Blagoevgrad",
        "population": 9232,
        "latitude": 41.8382986462862,
        "longitude": 23.4885120391846
    },
    {
        "name": "Aytos",
        "country": "Bulgaria",
        "province": "Burgas",
        "population": 20986,
        "latitude": 42.7,
        "longitude": 27.25
    },
    {
        "name": "Aksakovo Municipality",
        "country": "Bulgaria",
        "province": "Varna",
        "population": 7132,
        "latitude": 43.256153,
        "longitude": 27.821047
    },
    {
        "name": "Golden Sands",
        "country": "Bulgaria",
        "province": "Varna",
        "population": 9760,
        "latitude": 43.285,
        "longitude": 28.0418
    },
    {
        "name": "Beloslav",
        "country": "Bulgaria",
        "province": "Varna",
        "population": 7989,
        "latitude": 43.189602,
        "longitude": 27.704294
    },
    {
        "name": "Zvanichevo",
        "country": "Bulgaria",
        "province": "Pazardzhik",
        "population": -1,
        "latitude": 42.190466,
        "longitude": 24.252929
    },
    {
        "name": "Zvanarka",
        "country": "Bulgaria",
        "province": "Kardzhali",
        "population": -1,
        "latitude": 41.444679,
        "longitude": 25.627885
    },
    {
        "name": "Zvezditsa",
        "country": "Bulgaria",
        "province": "Varna",
        "population": -1,
        "latitude": 43.155488,
        "longitude": 27.838733
    },
    {
        "name": "Zvezdets",
        "country": "Bulgaria",
        "province": "Burgas",
        "population": -1,
        "latitude": 42.108021,
        "longitude": 27.415613
    },
    {
        "name": "Zvezden",
        "country": "Bulgaria",
        "province": "Kardzhali",
        "population": -1,
        "latitude": 41.6833333,
        "longitude": 25.4333333
    },
    {
        "name": "Karageorgievo",
        "country": "Bulgaria",
        "province": "Burgas",
        "population": -1,
        "latitude": 42.7333333,
        "longitude": 27.1833333
    },
    {
        "name": "Karadzhalovo",
        "country": "Bulgaria",
        "province": "Plovdiv",
        "population": -1,
        "latitude": 42.1,
        "longitude": 25.3166667
    },
    {
        "name": "Kapitan Dimitrovo",
        "country": "Bulgaria",
        "province": "Dobrich",
        "population": -1,
        "latitude": 43.954306,
        "longitude": 27.692349
    },
    {
        "name": "Kapitan-Andreevo",
        "country": "Bulgaria",
        "province": "Haskovo",
        "population": -1,
        "latitude": 41.720168,
        "longitude": 26.320553
    },
    {
        "name": "Kaolinovo",
        "country": "Bulgaria",
        "province": "Shumen",
        "population": 1537,
        "latitude": 43.6166667,
        "longitude": 27.1166667
    },
    {
        "name": "Kamentsi",
        "country": "Bulgaria",
        "province": "Silistra",
        "population": -1,
        "latitude": 43.866931,
        "longitude": 27.489963
    },
    {
        "name": "Kamenichka Skakavitsa",
        "country": "Bulgaria",
        "province": "Kyustendil",
        "population": -1,
        "latitude": 42.234999,
        "longitude": 22.502888
    },
    {
        "name": "Kamenets",
        "country": "Bulgaria",
        "province": "Yambol",
        "population": -1,
        "latitude": 42.3333333,
        "longitude": 26.7333333
    },
    {
        "name": "Kamenets",
        "country": "Bulgaria",
        "province": "Kardzhali",
        "population": -1,
        "latitude": 41.47081,
        "longitude": 25.407345
    },
    {
        "name": "Roussalka",
        "country": "Bulgaria",
        "province": "Dobrich",
        "population": -1,
        "latitude": 43.45,
        "longitude": 28.55
    },
    {
        "name": "Kamenari",
        "country": "Bulgaria",
        "province": "Veliko Tarnovo",
        "population": -1,
        "latitude": 42.9,
        "longitude": 26.05
    },
    {
        "name": "Kamenar",
        "country": "Bulgaria",
        "province": "Varna",
        "population": -1,
        "latitude": 43.248561,
        "longitude": 27.9068
    },
    {
        "name": "Kamen",
        "country": "Bulgaria",
        "province": "Veliko Tarnovo",
        "population": -1,
        "latitude": 43.3166667,
        "longitude": 25.9333333
    },
    {
        "name": "Kamchia",
        "country": "Bulgaria",
        "province": "Burgas",
        "population": -1,
        "latitude": 42.883333,
        "longitude": 26.966667
    },
    {
        "name": "Kamburovo",
        "country": "Bulgaria",
        "province": "Targovishte",
        "population": -1,
        "latitude": 43.1,
        "longitude": 26.3333333
    },
    {
        "name": "Kalugerene",
        "country": "Bulgaria",
        "province": "Silistra",
        "population": -1,
        "latitude": 43.9166667,
        "longitude": 26.8666667
    },
    {
        "name": "Kaloyanovo",
        "country": "Bulgaria",
        "province": "Plovdiv",
        "population": 2782,
        "latitude": 42.35,
        "longitude": 24.7333333
    },
    {
        "name": "Kalovo",
        "country": "Bulgaria",
        "province": "Burgas",
        "population": -1,
        "latitude": 42.125899,
        "longitude": 27.533486
    },
    {
        "name": "Kalofer",
        "country": "Bulgaria",
        "province": "Plovdiv",
        "population": 3248,
        "latitude": 42.6166667,
        "longitude": 24.9833333
    },
    {
        "name": "Kalishte",
        "country": "Bulgaria",
        "province": "Pernik",
        "population": -1,
        "latitude": 42.487519,
        "longitude": 22.839153
    },
    {
        "name": "Kalipetrovo",
        "country": "Bulgaria",
        "province": "Silistra",
        "population": -1,
        "latitude": 44.077922,
        "longitude": 27.238164
    },
    {
        "name": "Kaleytsa",
        "country": "Bulgaria",
        "province": "Lovech",
        "population": -1,
        "latitude": 42.928713936949144,
        "longitude": 24.682588577270508
    },
    {
        "name": "Kalchevo",
        "country": "Bulgaria",
        "province": "Yambol",
        "population": -1,
        "latitude": 42.4333333,
        "longitude": 26.6
    },
    {
        "name": "Kableshkovo",
        "country": "Bulgaria",
        "province": "Burgas",
        "population": -1,
        "latitude": 42.658502,
        "longitude": 27.568449
    },
    {
        "name": "Kabile",
        "country": "Bulgaria",
        "province": "Yambol",
        "population": -1,
        "latitude": 42.5333333,
        "longitude": 26.4833333
    },
    {
        "name": "Izvorsko",
        "country": "Bulgaria",
        "province": "Varna",
        "population": -1,
        "latitude": 43.294622,
        "longitude": 27.769826
    },
    {
        "name": "Izvornik",
        "country": "Bulgaria",
        "province": "Varna",
        "population": -1,
        "latitude": 43.4666667,
        "longitude": 27.35
    },
    {
        "name": "Izvor",
        "country": "Bulgaria",
        "province": "Plovdiv",
        "population": -1,
        "latitude": 41.9666667,
        "longitude": 25.05
    },
    {
        "name": "Iztochnik",
        "country": "Bulgaria",
        "province": "Gabrovo",
        "population": -1,
        "latitude": 42.8666667,
        "longitude": 25.3833333
    },
    {
        "name": "Izgrev",
        "country": "Bulgaria",
        "province": "Shumen",
        "population": -1,
        "latitude": 43.5833333,
        "longitude": 27
    },
    {
        "name": "Izgrev",
        "country": "Bulgaria",
        "province": "Varna",
        "population": -1,
        "latitude": 43.298392,
        "longitude": 27.695732
    },
    {
        "name": "Izbeglii",
        "country": "Bulgaria",
        "province": "Plovdiv",
        "population": -1,
        "latitude": 42.0333333,
        "longitude": 25
    },
    {
        "name": "Ivanski",
        "country": "Bulgaria",
        "province": "Shumen",
        "population": -1,
        "latitude": 43.1333333,
        "longitude": 27.0333333
    },
    {
        "name": "Ivanovo",
        "country": "Bulgaria",
        "province": "Shumen",
        "population": -1,
        "latitude": 43.1,
        "longitude": 26.7166667
    },
    {
        "name": "Isperihovo",
        "country": "Bulgaria",
        "province": "Pazardzhik",
        "population": -1,
        "latitude": 42.083333,
        "longitude": 24.433333
    },
    {
        "name": "Isperih",
        "country": "Bulgaria",
        "province": "Razgrad",
        "population": 9735,
        "latitude": 43.716667,
        "longitude": 26.833333
    },
    {
        "name": "Iskar",
        "country": "Bulgaria",
        "province": "Pleven",
        "population": -1,
        "latitude": 43.670802,
        "longitude": 24.452329
    },
    {
        "name": "Iskar",
        "country": "Bulgaria",
        "province": "Varna",
        "population": -1,
        "latitude": 43.383333,
        "longitude": 27.483333
    },
    {
        "name": "Iskritsa",
        "country": "Bulgaria",
        "province": "Stara Zagora",
        "population": -1,
        "latitude": 42.1333333,
        "longitude": 26.05
    },
    {
        "name": "Iskrets",
        "country": "Bulgaria",
        "province": "Sofia",
        "population": -1,
        "latitude": 42.9833333,
        "longitude": 23.25
    },
    {
        "name": "Iskra",
        "country": "Bulgaria",
        "province": "Silistra",
        "population": -1,
        "latitude": 44.001134,
        "longitude": 26.963485
    },
    {
        "name": "Iskra",
        "country": "Bulgaria",
        "province": "Plovdiv",
        "population": -1,
        "latitude": 41.9333333,
        "longitude": 25.1333333
    },
    {
        "name": "Irechekovo",
        "country": "Bulgaria",
        "province": "Yambol",
        "population": -1,
        "latitude": 42.4833333,
        "longitude": 26.7333333
    },
    {
        "name": "Irechek",
        "country": "Bulgaria",
        "province": "Dobrich",
        "population": -1,
        "latitude": 43.522398,
        "longitude": 28.364446
    },
    {
        "name": "Indzhe Voyvoda",
        "country": "Bulgaria",
        "province": "Burgas",
        "population": -1,
        "latitude": 42.223126,
        "longitude": 27.41552
    },
    {
        "name": "Ilinitsa",
        "country": "Bulgaria",
        "province": "Kardzhali",
        "population": -1,
        "latitude": 41.7166667,
        "longitude": 25.2666667
    },
    {
        "name": "Ilindentsi",
        "country": "Bulgaria",
        "province": "Blagoevgrad",
        "population": -1,
        "latitude": 41.65,
        "longitude": 23.2333333
    },
    {
        "name": "Ilinden",
        "country": "Bulgaria",
        "province": "Blagoevgrad",
        "population": -1,
        "latitude": 41.463052,
        "longitude": 23.79892
    },
    {
        "name": "Igralishte",
        "country": "Bulgaria",
        "province": "Blagoevgrad",
        "population": -1,
        "latitude": 41.5666667,
        "longitude": 23.1333333
    },
    {
        "name": "Ignatovo",
        "country": "Bulgaria",
        "province": "Montana",
        "population": -1,
        "latitude": 43.782387,
        "longitude": 23.484406
    },
    {
        "name": "Ignatievo",
        "country": "Bulgaria",
        "province": "Varna",
        "population": -1,
        "latitude": 43.250073,
        "longitude": 27.775957
    },
    {
        "name": "Iglika",
        "country": "Bulgaria",
        "province": "Shumen",
        "population": -1,
        "latitude": 43.4666667,
        "longitude": 27
    },
    {
        "name": "Ichera",
        "country": "Bulgaria",
        "province": "Sliven",
        "population": -1,
        "latitude": 42.7666667,
        "longitude": 26.45
    },
    {
        "name": "Gyulyovtsa",
        "country": "Bulgaria",
        "province": "Burgas",
        "population": -1,
        "latitude": 42.767118,
        "longitude": 27.599226
    },
    {
        "name": "Guslar",
        "country": "Bulgaria",
        "province": "Dobrich",
        "population": -1,
        "latitude": 43.835775,
        "longitude": 27.443991
    },
    {
        "name": "Garmen",
        "country": "Bulgaria",
        "province": "Blagoevgrad",
        "population": 1838,
        "latitude": 41.6,
        "longitude": 23.816667
    },
    {
        "name": "Gurkovo",
        "country": "Bulgaria",
        "province": "Dobrich",
        "population": -1,
        "latitude": 43.485035,
        "longitude": 28.220678
    },
    {
        "name": "Gurkovo",
        "country": "Bulgaria",
        "province": "Stara Zagora",
        "population": 2889,
        "latitude": 42.6666667,
        "longitude": 25.8
    },
    {
        "name": "Gamzovo",
        "country": "Bulgaria",
        "province": "Vidin",
        "population": -1,
        "latitude": 44.096944,
        "longitude": 22.760833
    },
    {
        "name": "Golenci",
        "country": "Bulgaria",
        "province": "Pleven",
        "population": 3589,
        "latitude": 43.641092,
        "longitude": 24.693682
    },
    {
        "name": "Gŭlŭbovo",
        "country": "Bulgaria",
        "province": "Stara Zagora",
        "population": 8400,
        "latitude": 42.1333333,
        "longitude": 25.85
    },
    {
        "name": "Galabintsi",
        "country": "Bulgaria",
        "province": "Yambol",
        "population": -1,
        "latitude": 42.433333,
        "longitude": 26.25
    },
    {
        "name": "Gugutka",
        "country": "Bulgaria",
        "province": "Haskovo",
        "population": -1,
        "latitude": 41.416825,
        "longitude": 25.922056
    },
    {
        "name": "Gabene",
        "country": "Bulgaria",
        "province": "Gabrovo",
        "population": -1,
        "latitude": 42.9,
        "longitude": 25.166667
    },
    {
        "name": "Grancharovo",
        "country": "Bulgaria",
        "province": "Silistra",
        "population": -1,
        "latitude": 43.733333,
        "longitude": 27.133333
    },
    {
        "name": "Sredets",
        "country": "Bulgaria",
        "province": "Burgas",
        "population": 9573,
        "latitude": 42.347469,
        "longitude": 27.178975
    },
    {
        "name": "Bozduganovo",
        "country": "Bulgaria",
        "province": "Stara Zagora",
        "population": -1,
        "latitude": 42.3333333,
        "longitude": 25.7666667
    },
    {
        "name": "Grablevtsi",
        "country": "Bulgaria",
        "province": "Gabrovo",
        "population": -1,
        "latitude": 42.933333,
        "longitude": 25.316667
    },
    {
        "name": "Grozdyovo",
        "country": "Bulgaria",
        "province": "Varna",
        "population": -1,
        "latitude": 43.016667,
        "longitude": 27.533333
    },
    {
        "name": "Grozden",
        "country": "Bulgaria",
        "province": "Burgas",
        "population": -1,
        "latitude": 42.7166667,
        "longitude": 26.75
    },
    {
        "name": "Granitets",
        "country": "Bulgaria",
        "province": "Burgas",
        "population": -1,
        "latitude": 42.244994,
        "longitude": 26.959599
    },
    {
        "name": "Granit",
        "country": "Bulgaria",
        "province": "Stara Zagora",
        "population": -1,
        "latitude": 42.25,
        "longitude": 25.15
    },
    {
        "name": "Granichar",
        "country": "Bulgaria",
        "province": "Dobrich",
        "population": -1,
        "latitude": 43.720779,
        "longitude": 28.503007
    },
    {
        "name": "Gramatikovo",
        "country": "Bulgaria",
        "province": "Burgas",
        "population": -1,
        "latitude": 42.062358,
        "longitude": 27.655068
    },
    {
        "name": "Graf Ignatievo",
        "country": "Bulgaria",
        "province": "Plovdiv",
        "population": -1,
        "latitude": 42.2833333,
        "longitude": 24.75
    },
    {
        "name": "Gradnitsa",
        "country": "Bulgaria",
        "province": "Dobrich",
        "population": -1,
        "latitude": 43.7166667,
        "longitude": 27.2166667
    },
    {
        "name": "Gradinarovo",
        "country": "Bulgaria",
        "province": "Varna",
        "population": -1,
        "latitude": 43.1333333,
        "longitude": 27.2833333
    },
    {
        "name": "Gradina",
        "country": "Bulgaria",
        "province": "Plovdiv",
        "population": -1,
        "latitude": 42.1333333,
        "longitude": 25.2
    },
    {
        "name": "Gradets",
        "country": "Bulgaria",
        "province": "Vidin",
        "population": -1,
        "latitude": 44.030888,
        "longitude": 22.748678
    },
    {
        "name": "Gozdevitsa",
        "country": "Bulgaria",
        "province": "Smolyan",
        "population": -1,
        "latitude": 41.453085,
        "longitude": 24.658018
    },
    {
        "name": "Gyovren",
        "country": "Bulgaria",
        "province": "Smolyan",
        "population": 1040,
        "latitude": 41.66326,
        "longitude": 24.37557
    },
    {
        "name": "Govedartsi",
        "country": "Bulgaria",
        "province": "Sofia",
        "population": -1,
        "latitude": 42.25,
        "longitude": 23.4833333
    },
    {
        "name": "Gostun",
        "country": "Bulgaria",
        "province": "Blagoevgrad",
        "population": -1,
        "latitude": 41.8,
        "longitude": 23.6833333
    },
    {
        "name": "Gostilitsa",
        "country": "Bulgaria",
        "province": "Gabrovo",
        "population": -1,
        "latitude": 43.0333333,
        "longitude": 25.3666667
    },
    {
        "name": "Gospodinovo",
        "country": "Bulgaria",
        "province": "Varna",
        "population": -1,
        "latitude": 42.897934,
        "longitude": 27.770709
    },
    {
        "name": "Gorun",
        "country": "Bulgaria",
        "province": "Dobrich",
        "population": -1,
        "latitude": 43.495017,
        "longitude": 28.48736
    },
    {
        "name": "Gorsko Dyulevo",
        "country": "Bulgaria",
        "province": "Kardzhali",
        "population": -1,
        "latitude": 41.455374,
        "longitude": 25.409741
    },
    {
        "name": "Gorno Yabalkovo",
        "country": "Bulgaria",
        "province": "Burgas",
        "population": -1,
        "latitude": 42.111275,
        "longitude": 27.10241
    },
    {
        "name": "Gorno Uyno",
        "country": "Bulgaria",
        "province": "Kyustendil",
        "population": -1,
        "latitude": 42.446397,
        "longitude": 22.576611
    },
    {
        "name": "Gorno Spanchevo",
        "country": "Bulgaria",
        "province": "Blagoevgrad",
        "population": -1,
        "latitude": 41.500785,
        "longitude": 23.499935
    },
    {
        "name": "Gorno Selo",
        "country": "Bulgaria",
        "province": "Sofia",
        "population": -1,
        "latitude": 42.869175,
        "longitude": 22.780259
    },
    {
        "name": "Gorno Prahovo",
        "country": "Bulgaria",
        "province": "Kardzhali",
        "population": -1,
        "latitude": 41.65,
        "longitude": 25.15
    },
    {
        "name": "Gorno Pavlikene",
        "country": "Bulgaria",
        "province": "Lovech",
        "population": -1,
        "latitude": 43.1,
        "longitude": 24.8
    },
    {
        "name": "Gorno Lukovo",
        "country": "Bulgaria",
        "province": "Haskovo",
        "population": -1,
        "latitude": 41.361834,
        "longitude": 26.087083
    },
    {
        "name": "Gorno Kobile",
        "country": "Bulgaria",
        "province": "Kyustendil",
        "population": -1,
        "latitude": 42.565574,
        "longitude": 22.518421
    },
    {
        "name": "Gorni Tsibar",
        "country": "Bulgaria",
        "province": "Montana",
        "population": -1,
        "latitude": 43.800379,
        "longitude": 23.532324
    },
    {
        "name": "Gorni Dabnik",
        "country": "Bulgaria",
        "province": "Pleven",
        "population": -1,
        "latitude": 43.383333,
        "longitude": 24.35
    },
    {
        "name": "Gorna Rositsa",
        "country": "Bulgaria",
        "province": "Gabrovo",
        "population": -1,
        "latitude": 42.95,
        "longitude": 25.1333333
    },
    {
        "name": "Gorna Mitropolia",
        "country": "Bulgaria",
        "province": "Pleven",
        "population": -1,
        "latitude": 43.466667,
        "longitude": 24.45
    },
    {
        "name": "Gorna Malina",
        "country": "Bulgaria",
        "province": "Sofia",
        "population": 1501,
        "latitude": 42.6833333,
        "longitude": 23.7
    },
    {
        "name": "Gorna Mahala",
        "country": "Bulgaria",
        "province": "Plovdiv",
        "population": -1,
        "latitude": 42.45,
        "longitude": 24.783333
    },
    {
        "name": "Gorna Breznitsa",
        "country": "Bulgaria",
        "province": "Blagoevgrad",
        "population": -1,
        "latitude": 41.75,
        "longitude": 23.1166667
    },
    {
        "name": "Goritsa",
        "country": "Bulgaria",
        "province": "Varna",
        "population": -1,
        "latitude": 42.910695,
        "longitude": 27.843285
    },
    {
        "name": "Gorichane",
        "country": "Bulgaria",
        "province": "Dobrich",
        "population": -1,
        "latitude": 43.530109,
        "longitude": 28.455159
    },
    {
        "name": "Gomotartsi",
        "country": "Bulgaria",
        "province": "Vidin",
        "population": -1,
        "latitude": 44.09136,
        "longitude": 22.96776
    },
    {
        "name": "Golyamo Vranovo",
        "country": "Bulgaria",
        "province": "Ruse",
        "population": -1,
        "latitude": 43.963437,
        "longitude": 26.340851
    },
    {
        "name": "Golyamo Tsarkvishte",
        "country": "Bulgaria",
        "province": "Targovishte",
        "population": -1,
        "latitude": 43.05,
        "longitude": 26.55
    },
    {
        "name": "Golyamo Dryanovo",
        "country": "Bulgaria",
        "province": "Stara Zagora",
        "population": -1,
        "latitude": 42.6666667,
        "longitude": 25.25
    },
    {
        "name": "Golyamo Bukovo",
        "country": "Bulgaria",
        "province": "Burgas",
        "population": -1,
        "latitude": 42.189827,
        "longitude": 27.183779
    },
    {
        "name": "Golyamo Belovo",
        "country": "Bulgaria",
        "province": "Pazardzhik",
        "population": -1,
        "latitude": 42.1833333,
        "longitude": 23.9833333
    },
    {
        "name": "Golyam Manastir",
        "country": "Bulgaria",
        "province": "Yambol",
        "population": -1,
        "latitude": 42.2,
        "longitude": 26.35
    },
    {
        "name": "Golyam Izvor",
        "country": "Bulgaria",
        "province": "Razgrad",
        "population": -1,
        "latitude": 43.5666667,
        "longitude": 26.7166667
    },
    {
        "name": "Golyam Izvor",
        "country": "Bulgaria",
        "province": "Haskovo",
        "population": -1,
        "latitude": 41.7666667,
        "longitude": 25.7166667
    },
    {
        "name": "Golyam Devesil",
        "country": "Bulgaria",
        "province": "Kardzhali",
        "population": -1,
        "latitude": 41.343252,
        "longitude": 25.647595
    },
    {
        "name": "Golyam Dervent",
        "country": "Bulgaria",
        "province": "Yambol",
        "population": -1,
        "latitude": 41.98415,
        "longitude": 26.746606
    },
    {
        "name": "Golyam Chardak",
        "country": "Bulgaria",
        "province": "Plovdiv",
        "population": -1,
        "latitude": 42.3,
        "longitude": 24.6333333
    },
    {
        "name": "Golyama Zhelyazna",
        "country": "Bulgaria",
        "province": "Lovech",
        "population": -1,
        "latitude": 42.9666667,
        "longitude": 24.4666667
    },
    {
        "name": "Golyama Dolina",
        "country": "Bulgaria",
        "province": "Haskovo",
        "population": -1,
        "latitude": 41.696417,
        "longitude": 25.863997
    },
    {
        "name": "Golyama Chinka",
        "country": "Bulgaria",
        "province": "Kardzhali",
        "population": -1,
        "latitude": 41.403834,
        "longitude": 25.552855
    },
    {
        "name": "Golitsa",
        "country": "Bulgaria",
        "province": "Varna",
        "population": -1,
        "latitude": 42.9166667,
        "longitude": 27.55
    },
    {
        "name": "Goleshovo",
        "country": "Bulgaria",
        "province": "Blagoevgrad",
        "population": -1,
        "latitude": 41.432484,
        "longitude": 23.590908
    },
    {
        "name": "Golema Rakovitsa",
        "country": "Bulgaria",
        "province": "Sofia",
        "population": -1,
        "latitude": 42.6166667,
        "longitude": 23.8
    },
    {
        "name": "Golema Fucha",
        "country": "Bulgaria",
        "province": "Kyustendil",
        "population": -1,
        "latitude": 42.37498,
        "longitude": 22.948528
    },
    {
        "name": "Godech",
        "country": "Bulgaria",
        "province": "Sofia",
        "population": 5154,
        "latitude": 43.016825,
        "longitude": 23.04852
    },
    {
        "name": "Gluhar",
        "country": "Bulgaria",
        "province": "Kardzhali",
        "population": -1,
        "latitude": 41.6,
        "longitude": 25.4
    },
    {
        "name": "Glozhene",
        "country": "Bulgaria",
        "province": "Lovech",
        "population": -1,
        "latitude": 42.9833333,
        "longitude": 24.1833333
    },
    {
        "name": "Glodzhevo",
        "country": "Bulgaria",
        "province": "Ruse",
        "population": -1,
        "latitude": 43.7333333,
        "longitude": 26.4
    },
    {
        "name": "Glavinitsa",
        "country": "Bulgaria",
        "province": "Silistra",
        "population": 2220,
        "latitude": 43.9166667,
        "longitude": 26.8333333
    },
    {
        "name": "Glavinitsa",
        "country": "Bulgaria",
        "province": "Pazardzhik",
        "population": -1,
        "latitude": 42.15,
        "longitude": 24.3166667
    },
    {
        "name": "Glavatartsi",
        "country": "Bulgaria",
        "province": "Kardzhali",
        "population": -1,
        "latitude": 41.65,
        "longitude": 25.3
    },
    {
        "name": "Glavatar",
        "country": "Bulgaria",
        "province": "Plovdiv",
        "population": -1,
        "latitude": 42.3333333,
        "longitude": 24.8666667
    },
    {
        "name": "Glavantsi",
        "country": "Bulgaria",
        "province": "Dobrich",
        "population": -1,
        "latitude": 43.730266,
        "longitude": 27.2585
    },
    {
        "name": "Gita",
        "country": "Bulgaria",
        "province": "Stara Zagora",
        "population": -1,
        "latitude": 42.2,
        "longitude": 25.466667
    },
    {
        "name": "Geshanovo",
        "country": "Bulgaria",
        "province": "Dobrich",
        "population": -1,
        "latitude": 43.6666667,
        "longitude": 27.5333333
    },
    {
        "name": "Gergini",
        "country": "Bulgaria",
        "province": "Gabrovo",
        "population": -1,
        "latitude": 42.8833333,
        "longitude": 25.25
    },
    {
        "name": "Georgi-Dobrevo",
        "country": "Bulgaria",
        "province": "Haskovo",
        "population": -1,
        "latitude": 41.861917,
        "longitude": 26.133808
    },
    {
        "name": "Georgi Damyanovo",
        "country": "Bulgaria",
        "province": "Montana",
        "population": 748,
        "latitude": 43.386111,
        "longitude": 23.030556
    },
    {
        "name": "General Toshevo",
        "country": "Bulgaria",
        "province": "Dobrich",
        "population": 7758,
        "latitude": 43.70123,
        "longitude": 28.037874
    },
    {
        "name": "Generalovo",
        "country": "Bulgaria",
        "province": "Haskovo",
        "population": -1,
        "latitude": 41.722619,
        "longitude": 26.276891
    },
    {
        "name": "General Kiselovo",
        "country": "Bulgaria",
        "province": "Varna",
        "population": -1,
        "latitude": 43.465946,
        "longitude": 27.600111
    },
    {
        "name": "General Kantardzhievo",
        "country": "Bulgaria",
        "province": "Varna",
        "population": -1,
        "latitude": 43.359002,
        "longitude": 27.983162
    },
    {
        "name": "General-Inzovo",
        "country": "Bulgaria",
        "province": "Yambol",
        "population": -1,
        "latitude": 42.316667,
        "longitude": 26.433333
    },
    {
        "name": "Gelemenovo",
        "country": "Bulgaria",
        "province": "Pazardzhik",
        "population": -1,
        "latitude": 42.2666667,
        "longitude": 24.3166667
    },
    {
        "name": "Gaytaninovo",
        "country": "Bulgaria",
        "province": "Blagoevgrad",
        "population": -1,
        "latitude": 41.450506,
        "longitude": 23.714136
    },
    {
        "name": "Gavril Genovo",
        "country": "Bulgaria",
        "province": "Montana",
        "population": -1,
        "latitude": 43.3975,
        "longitude": 23.0588889
    },
    {
        "name": "Gabar",
        "country": "Bulgaria",
        "province": "Burgas",
        "population": -1,
        "latitude": 42.310983,
        "longitude": 27.353831
    },
    {
        "name": "Fotinovo",
        "country": "Bulgaria",
        "province": "Pazardzhik",
        "population": -1,
        "latitude": 41.8833333,
        "longitude": 24.35
    },
    {
        "name": "Varbitsa",
        "country": "Bulgaria",
        "province": "Haskovo",
        "population": -1,
        "latitude": 42.05,
        "longitude": 25.35
    },
    {
        "name": "Fazanovo",
        "country": "Bulgaria",
        "province": "Burgas",
        "population": -1,
        "latitude": 42.1998,
        "longitude": 27.719006
    },
    {
        "name": "Fakia",
        "country": "Bulgaria",
        "province": "Burgas",
        "population": -1,
        "latitude": 42.189862,
        "longitude": 27.085921
    },
    {
        "name": "Ezerovo",
        "country": "Bulgaria",
        "province": "Varna",
        "population": -1,
        "latitude": 43.2,
        "longitude": 27.771768
    },
    {
        "name": "Ezerovo",
        "country": "Bulgaria",
        "province": "Plovdiv",
        "population": -1,
        "latitude": 42.0166667,
        "longitude": 25.3
    },
    {
        "name": "Ezero",
        "country": "Bulgaria",
        "province": "Sliven",
        "population": -1,
        "latitude": 42.4666667,
        "longitude": 26.0166667
    },
    {
        "name": "Ezerets",
        "country": "Bulgaria",
        "province": "Dobrich",
        "population": -1,
        "latitude": 43.595091,
        "longitude": 28.536129
    },
    {
        "name": "Ezerche",
        "country": "Bulgaria",
        "province": "Razgrad",
        "population": -1,
        "latitude": 43.55,
        "longitude": 26.3166667
    },
    {
        "name": "Evrenozovo",
        "country": "Bulgaria",
        "province": "Burgas",
        "population": -1,
        "latitude": 42.133018,
        "longitude": 27.344127
    },
    {
        "name": "Esenitsa",
        "country": "Bulgaria",
        "province": "Varna",
        "population": -1,
        "latitude": 43.4333333,
        "longitude": 27.3833333
    },
    {
        "name": "Esen",
        "country": "Bulgaria",
        "province": "Burgas",
        "population": -1,
        "latitude": 42.8333333,
        "longitude": 26.7833333
    },
    {
        "name": "Enevo",
        "country": "Bulgaria",
        "province": "Dobrich",
        "population": -1,
        "latitude": 43.6333333,
        "longitude": 27.5166667
    },
    {
        "name": "Enchets",
        "country": "Bulgaria",
        "province": "Kardzhali",
        "population": -1,
        "latitude": 41.65,
        "longitude": 25.3333333
    },
    {
        "name": "Emona",
        "country": "Bulgaria",
        "province": "Burgas",
        "population": -1,
        "latitude": 42.714459,
        "longitude": 27.88538
    },
    {
        "name": "Elshitsa",
        "country": "Bulgaria",
        "province": "Pazardzhik",
        "population": -1,
        "latitude": 42.36872,
        "longitude": 24.217942
    },
    {
        "name": "Eliseyna",
        "country": "Bulgaria",
        "province": "Vratsa",
        "population": -1,
        "latitude": 43.0833333,
        "longitude": 23.4833333
    },
    {
        "name": "Elin Pelin",
        "country": "Bulgaria",
        "province": "Sofia",
        "population": 7373,
        "latitude": 42.6666667,
        "longitude": 23.6
    },
    {
        "name": "Eleshnitsa",
        "country": "Bulgaria",
        "province": "Blagoevgrad",
        "population": -1,
        "latitude": 41.8666667,
        "longitude": 23.6166667
    },
    {
        "name": "Ekzarh Yosif",
        "country": "Bulgaria",
        "province": "Ruse",
        "population": -1,
        "latitude": 43.615125,
        "longitude": 25.784722
    },
    {
        "name": "Ekzarh-Antimovo",
        "country": "Bulgaria",
        "province": "Burgas",
        "population": -1,
        "latitude": 42.533333,
        "longitude": 26.983333
    },
    {
        "name": "Efreytor Bakalovo",
        "country": "Bulgaria",
        "province": "Dobrich",
        "population": -1,
        "latitude": 43.834307,
        "longitude": 27.605524
    },
    {
        "name": "Dyulya",
        "country": "Bulgaria",
        "province": "Burgas",
        "population": -1,
        "latitude": 42.9166667,
        "longitude": 27.1166667
    },
    {
        "name": "Dyulino",
        "country": "Bulgaria",
        "province": "Varna",
        "population": -1,
        "latitude": 42.861697,
        "longitude": 27.728032
    },
    {
        "name": "Dyulevo",
        "country": "Bulgaria",
        "province": "Burgas",
        "population": -1,
        "latitude": 42.398221,
        "longitude": 27.16343
    },
    {
        "name": "Dyadovo",
        "country": "Bulgaria",
        "province": "Sliven",
        "population": -1,
        "latitude": 42.4333333,
        "longitude": 26.0166667
    },
    {
        "name": "Dve Mogili",
        "country": "Bulgaria",
        "province": "Ruse",
        "population": 4526,
        "latitude": 43.592582,
        "longitude": 25.874861
    },
    {
        "name": "Daskotna",
        "country": "Bulgaria",
        "province": "Burgas",
        "population": -1,
        "latitude": 42.883333,
        "longitude": 27.2
    },
    {
        "name": "Dushinkovo",
        "country": "Bulgaria",
        "province": "Kardzhali",
        "population": -1,
        "latitude": 41.474666,
        "longitude": 25.331277
    },
    {
        "name": "Dushevo",
        "country": "Bulgaria",
        "province": "Gabrovo",
        "population": -1,
        "latitude": 42.9666667,
        "longitude": 25.0333333
    },
    {
        "name": "Durankulak",
        "country": "Bulgaria",
        "province": "Dobrich",
        "population": -1,
        "latitude": 43.691409,
        "longitude": 28.529213
    },
    {
        "name": "Dunavtsi",
        "country": "Bulgaria",
        "province": "Vidin",
        "population": 3371,
        "latitude": 43.9211111,
        "longitude": 22.8211111
    },
    {
        "name": "Dulovo",
        "country": "Bulgaria",
        "province": "Silistra",
        "population": 6788,
        "latitude": 43.8166667,
        "longitude": 27.15
    },
    {
        "name": "Dalgopol",
        "country": "Bulgaria",
        "province": "Varna",
        "population": 5272,
        "latitude": 43.05,
        "longitude": 27.35
    },
    {
        "name": "Dalgodeltsi",
        "country": "Bulgaria",
        "province": "Montana",
        "population": -1,
        "latitude": 43.606667,
        "longitude": 23.280833
    },
    {
        "name": "Dalgi Del",
        "country": "Bulgaria",
        "province": "Montana",
        "population": -1,
        "latitude": 43.271944,
        "longitude": 22.959167
    },
    {
        "name": "Dalbok Izvor",
        "country": "Bulgaria",
        "province": "Plovdiv",
        "population": -1,
        "latitude": 42.033333,
        "longitude": 25.1
    },
    {
        "name": "Dalboki",
        "country": "Bulgaria",
        "province": "Stara Zagora",
        "population": -1,
        "latitude": 42.483333,
        "longitude": 25.766667
    },
    {
        "name": "Dalbok Dol",
        "country": "Bulgaria",
        "province": "Lovech",
        "population": -1,
        "latitude": 42.966667,
        "longitude": 24.65
    },
    {
        "name": "Duhovets",
        "country": "Bulgaria",
        "province": "Razgrad",
        "population": -1,
        "latitude": 43.666667,
        "longitude": 27.016667
    },
    {
        "name": "Dabravka",
        "country": "Bulgaria",
        "province": "Vidin",
        "population": -1,
        "latitude": 43.638166,
        "longitude": 22.62209
    },
    {
        "name": "Dabravino",
        "country": "Bulgaria",
        "province": "Varna",
        "population": -1,
        "latitude": 43.04957,
        "longitude": 27.606614
    },
    {
        "name": "Dabrava",
        "country": "Bulgaria",
        "province": "Dobrich",
        "population": -1,
        "latitude": 43.538883,
        "longitude": 28.093803
    },
    {
        "name": "Dabovo",
        "country": "Bulgaria",
        "province": "Stara Zagora",
        "population": -1,
        "latitude": 42.6,
        "longitude": 25.65
    },
    {
        "name": "Dabovitsa",
        "country": "Bulgaria",
        "province": "Burgas",
        "population": -1,
        "latitude": 42.816667,
        "longitude": 26.633333
    },
    {
        "name": "Dabovik",
        "country": "Bulgaria",
        "province": "Dobrich",
        "population": -1,
        "latitude": 43.689341,
        "longitude": 27.957711
    },
    {
        "name": "Dabovets",
        "country": "Bulgaria",
        "province": "Haskovo",
        "population": -1,
        "latitude": 41.670145,
        "longitude": 25.992306
    },
    {
        "name": "Dabova Mahala",
        "country": "Bulgaria",
        "province": "Montana",
        "population": -1,
        "latitude": 43.68232,
        "longitude": 23.018652
    },
    {
        "name": "Dabnitsa",
        "country": "Bulgaria",
        "province": "Blagoevgrad",
        "population": -1,
        "latitude": 41.566667,
        "longitude": 23.833333
    },
    {
        "name": "Dabnik",
        "country": "Bulgaria",
        "province": "Burgas",
        "population": -1,
        "latitude": 42.687831,
        "longitude": 27.504561
    },
    {
        "name": "Dabene",
        "country": "Bulgaria",
        "province": "Plovdiv",
        "population": -1,
        "latitude": 42.6,
        "longitude": 24.766667
    },
    {
        "name": "Dryanovo",
        "country": "Bulgaria",
        "province": "Gabrovo",
        "population": 8346,
        "latitude": 42.9789697157279,
        "longitude": 25.4784965515137
    },
    {
        "name": "Dryanovets",
        "country": "Bulgaria",
        "province": "Ruse",
        "population": -1,
        "latitude": 43.3833333,
        "longitude": 25.8666667
    },
    {
        "name": "Dryanova Glava",
        "country": "Bulgaria",
        "province": "Kardzhali",
        "population": -1,
        "latitude": 41.372342,
        "longitude": 25.301344
    },
    {
        "name": "Dryankovets",
        "country": "Bulgaria",
        "province": "Burgas",
        "population": -1,
        "latitude": 42.687577,
        "longitude": 27.375219
    },
    {
        "name": "Druzhevo",
        "country": "Bulgaria",
        "province": "Sofia",
        "population": -1,
        "latitude": 43.136734,
        "longitude": 23.3566
    },
    {
        "name": "Dramsha",
        "country": "Bulgaria",
        "province": "Sofia",
        "population": -1,
        "latitude": 42.933333,
        "longitude": 23.2
    },
    {
        "name": "Drugan",
        "country": "Bulgaria",
        "province": "Pernik",
        "population": -1,
        "latitude": 42.473831,
        "longitude": 23.066939
    },
    {
        "name": "Dropla",
        "country": "Bulgaria",
        "province": "Dobrich",
        "population": -1,
        "latitude": 43.576,
        "longitude": 28.07969
    },
    {
        "name": "Dripchevo",
        "country": "Bulgaria",
        "province": "Haskovo",
        "population": -1,
        "latitude": 41.980198,
        "longitude": 26.217332
    },
    {
        "name": "Drinovo",
        "country": "Bulgaria",
        "province": "Targovishte",
        "population": -1,
        "latitude": 43.3833333,
        "longitude": 26.3333333
    },
    {
        "name": "Drenovets",
        "country": "Bulgaria",
        "province": "Vidin",
        "population": -1,
        "latitude": 43.691343,
        "longitude": 22.973651
    },
    {
        "name": "Drazhevo",
        "country": "Bulgaria",
        "province": "Yambol",
        "population": -1,
        "latitude": 42.55,
        "longitude": 26.45
    },
    {
        "name": "Drangovo",
        "country": "Bulgaria",
        "province": "Blagoevgrad",
        "population": -1,
        "latitude": 41.417724,
        "longitude": 23.291435
    },
    {
        "name": "Drangovo",
        "country": "Bulgaria",
        "province": "Kardzhali",
        "population": -1,
        "latitude": 41.331125,
        "longitude": 25.242526
    },
    {
        "name": "Dragovishtitsa",
        "country": "Bulgaria",
        "province": "Kyustendil",
        "population": -1,
        "latitude": 42.3713889,
        "longitude": 22.6502778
    },
    {
        "name": "Dragomirovo",
        "country": "Bulgaria",
        "province": "Pernik",
        "population": -1,
        "latitude": 42.39336,
        "longitude": 22.845928
    },
    {
        "name": "Draginovo",
        "country": "Bulgaria",
        "province": "Pazardzhik",
        "population": -1,
        "latitude": 42.067108,
        "longitude": 24.012698
    },
    {
        "name": "Dragantsi",
        "country": "Bulgaria",
        "province": "Burgas",
        "population": -1,
        "latitude": 42.5666667,
        "longitude": 26.9833333
    },
    {
        "name": "Draganovtsi",
        "country": "Bulgaria",
        "province": "Gabrovo",
        "population": -1,
        "latitude": 42.9166667,
        "longitude": 25.1833333
    },
    {
        "name": "Draganovo",
        "country": "Bulgaria",
        "province": "Burgas",
        "population": -1,
        "latitude": 42.695692,
        "longitude": 27.441378
    },
    {
        "name": "Drachevo",
        "country": "Bulgaria",
        "province": "Burgas",
        "population": -1,
        "latitude": 42.343811,
        "longitude": 27.25236
    },
    {
        "name": "Doyrentsi",
        "country": "Bulgaria",
        "province": "Lovech",
        "population": -1,
        "latitude": 43.2333333,
        "longitude": 24.8333333
    },
    {
        "name": "Donchevo",
        "country": "Bulgaria",
        "province": "Dobrich",
        "population": -1,
        "latitude": 43.517266,
        "longitude": 27.76718
    },
    {
        "name": "Dolno Yabalkovo",
        "country": "Bulgaria",
        "province": "Burgas",
        "population": -1,
        "latitude": 42.134159,
        "longitude": 27.115624
    },
    {
        "name": "Dolno Uyno",
        "country": "Bulgaria",
        "province": "Kyustendil",
        "population": -1,
        "latitude": 42.416622,
        "longitude": 22.575147
    },
    {
        "name": "Dolno Tserovene",
        "country": "Bulgaria",
        "province": "Montana",
        "population": -1,
        "latitude": 43.590156,
        "longitude": 23.245004
    },
    {
        "name": "Dolno Sadievo",
        "country": "Bulgaria",
        "province": "Haskovo",
        "population": -1,
        "latitude": 41.716667,
        "longitude": 25.75
    },
    {
        "name": "Dolno Sahrane",
        "country": "Bulgaria",
        "province": "Stara Zagora",
        "population": -1,
        "latitude": 42.633333,
        "longitude": 25.233333
    },
    {
        "name": "Dolno Ryahovo",
        "country": "Bulgaria",
        "province": "Silistra",
        "population": -1,
        "latitude": 44.060986,
        "longitude": 26.794966
    },
    {
        "name": "Dolno Pole",
        "country": "Bulgaria",
        "province": "Haskovo",
        "population": -1,
        "latitude": 41.6666667,
        "longitude": 25.75
    },
    {
        "name": "Dolno Ozirovo",
        "country": "Bulgaria",
        "province": "Montana",
        "population": -1,
        "latitude": 43.239627,
        "longitude": 23.351797
    },
    {
        "name": "Dolno Osenovo",
        "country": "Bulgaria",
        "province": "Blagoevgrad",
        "population": -1,
        "latitude": 41.95,
        "longitude": 23.25
    },
    {
        "name": "Dolno Kapinovo",
        "country": "Bulgaria",
        "province": "Kardzhali",
        "population": -1,
        "latitude": 41.291528,
        "longitude": 25.280485
    },
    {
        "name": "Dolno Kobile",
        "country": "Bulgaria",
        "province": "Kyustendil",
        "population": -1,
        "latitude": 42.550662,
        "longitude": 22.531515
    },
    {
        "name": "Dolno Kamartsi",
        "country": "Bulgaria",
        "province": "Sofia",
        "population": -1,
        "latitude": 42.7166667,
        "longitude": 23.85
    },
    {
        "name": "Dolno Draglishte",
        "country": "Bulgaria",
        "province": "Blagoevgrad",
        "population": -1,
        "latitude": 41.9333333,
        "longitude": 23.5166667
    },
    {
        "name": "Dolno Botevo",
        "country": "Bulgaria",
        "province": "Haskovo",
        "population": -1,
        "latitude": 41.75,
        "longitude": 25.7166667
    },
    {
        "name": "Dolno Belotintsi",
        "country": "Bulgaria",
        "province": "Montana",
        "population": -1,
        "latitude": 43.4405556,
        "longitude": 23.2858333
    },
    {
        "name": "Dolno Belevo",
        "country": "Bulgaria",
        "province": "Haskovo",
        "population": -1,
        "latitude": 42.0666667,
        "longitude": 25.7166667
    },
    {
        "name": "Dolni Tsibar",
        "country": "Bulgaria",
        "province": "Montana",
        "population": -1,
        "latitude": 43.816352,
        "longitude": 23.511116
    },
    {
        "name": "Dolni Dabnik",
        "country": "Bulgaria",
        "province": "Pleven",
        "population": 5259,
        "latitude": 43.4,
        "longitude": 24.433333
    },
    {
        "name": "Dolna Oryahovitsa",
        "country": "Bulgaria",
        "province": "Veliko Tarnovo",
        "population": -1,
        "latitude": 43.166667,
        "longitude": 25.733333
    },
    {
        "name": "Dolna Banya",
        "country": "Bulgaria",
        "province": "Sofia",
        "population": 4990,
        "latitude": 42.3,
        "longitude": 23.7666667
    },
    {
        "name": "Dolishte",
        "country": "Bulgaria",
        "province": "Kardzhali",
        "population": -1,
        "latitude": 41.6833333,
        "longitude": 25.6
    },
    {
        "name": "Doktor Yosifovo",
        "country": "Bulgaria",
        "province": "Montana",
        "population": -1,
        "latitude": 43.505457,
        "longitude": 23.148081
    },
    {
        "name": "Dobarsko",
        "country": "Bulgaria",
        "province": "Blagoevgrad",
        "population": -1,
        "latitude": 41.966667,
        "longitude": 23.483333
    },
    {
        "name": "Dobrudzhanka",
        "country": "Bulgaria",
        "province": "Silistra",
        "population": -1,
        "latitude": 43.970753,
        "longitude": 27.576205
    },
    {
        "name": "Dobrina",
        "country": "Bulgaria",
        "province": "Varna",
        "population": -1,
        "latitude": 43.1833333,
        "longitude": 27.4666667
    },
    {
        "name": "Dobrinishte",
        "country": "Bulgaria",
        "province": "Blagoevgrad",
        "population": -1,
        "latitude": 41.8166667,
        "longitude": 23.5666667
    },
    {
        "name": "Dobrin",
        "country": "Bulgaria",
        "province": "Dobrich",
        "population": -1,
        "latitude": 43.864719,
        "longitude": 27.838368
    },
    {
        "name": "Dobrevo",
        "country": "Bulgaria",
        "province": "Dobrich",
        "population": -1,
        "latitude": 43.748801,
        "longitude": 27.843949
    },
    {
        "name": "Dobra Polyana",
        "country": "Bulgaria",
        "province": "Burgas",
        "population": -1,
        "latitude": 42.85,
        "longitude": 27.3166667
    },
    {
        "name": "Dlazhka Polyana",
        "country": "Bulgaria",
        "province": "Targovishte",
        "population": -1,
        "latitude": 43.083333,
        "longitude": 26.116667
    },
    {
        "name": "Dlagnevo",
        "country": "Bulgaria",
        "province": "Haskovo",
        "population": -1,
        "latitude": 42.116667,
        "longitude": 25.55
    },
    {
        "name": "Dimovtsi",
        "country": "Bulgaria",
        "province": "Veliko Tarnovo",
        "population": -1,
        "latitude": 42.85,
        "longitude": 25.6333333
    },
    {
        "name": "Dimovo",
        "country": "Bulgaria",
        "province": "Vidin",
        "population": 1461,
        "latitude": 43.741667,
        "longitude": 22.726944
    },
    {
        "name": "Pobeda",
        "country": "Bulgaria",
        "province": "Dobrich",
        "population": -1,
        "latitude": 43.593094,
        "longitude": 27.900426
    },
    {
        "name": "Dimitrovche",
        "country": "Bulgaria",
        "province": "Haskovo",
        "population": -1,
        "latitude": 41.813721,
        "longitude": 26.252471
    },
    {
        "name": "Dichevo",
        "country": "Bulgaria",
        "province": "Silistra",
        "population": -1,
        "latitude": 43.9833333,
        "longitude": 26.9
    },
    {
        "name": "Devnya",
        "country": "Bulgaria",
        "province": "Varna",
        "population": 8171,
        "latitude": 43.2222222,
        "longitude": 27.5694444
    },
    {
        "name": "Devetintsi",
        "country": "Bulgaria",
        "province": "Burgas",
        "population": -1,
        "latitude": 42.6,
        "longitude": 26.8333333
    },
    {
        "name": "Devetak",
        "country": "Bulgaria",
        "province": "Burgas",
        "population": -1,
        "latitude": 42.5666667,
        "longitude": 26.8333333
    },
    {
        "name": "Dervishka Mogila",
        "country": "Bulgaria",
        "province": "Haskovo",
        "population": -1,
        "latitude": 41.923167,
        "longitude": 26.356177
    },
    {
        "name": "Dermantsi",
        "country": "Bulgaria",
        "province": "Lovech",
        "population": -1,
        "latitude": 43.15,
        "longitude": 24.2833333
    },
    {
        "name": "Delyan",
        "country": "Bulgaria",
        "province": "Kyustendil",
        "population": -1,
        "latitude": 42.380722,
        "longitude": 23.099264
    },
    {
        "name": "Dedovo",
        "country": "Bulgaria",
        "province": "Plovdiv",
        "population": -1,
        "latitude": 42,
        "longitude": 24.6666667
    },
    {
        "name": "Debrene",
        "country": "Bulgaria",
        "province": "Dobrich",
        "population": -1,
        "latitude": 43.388572,
        "longitude": 27.863917
    },
    {
        "name": "Debnevo",
        "country": "Bulgaria",
        "province": "Lovech",
        "population": -1,
        "latitude": 42.95,
        "longitude": 24.85
    },
    {
        "name": "Debeltsovo",
        "country": "Bulgaria",
        "province": "Gabrovo",
        "population": -1,
        "latitude": 43.1,
        "longitude": 25.1
    },
    {
        "name": "Debelt",
        "country": "Bulgaria",
        "province": "Burgas",
        "population": -1,
        "latitude": 42.402564,
        "longitude": 27.263105
    },
    {
        "name": "Debelets",
        "country": "Bulgaria",
        "province": "Veliko Tarnovo",
        "population": 4418,
        "latitude": 43.0333333,
        "longitude": 25.6166667
    },
    {
        "name": "Davidkovo",
        "country": "Bulgaria",
        "province": "Smolyan",
        "population": -1,
        "latitude": 41.6666667,
        "longitude": 24.9666667
    },
    {
        "name": "Damyanitsa",
        "country": "Bulgaria",
        "province": "Blagoevgrad",
        "population": -1,
        "latitude": 41.5166667,
        "longitude": 23.2666667
    },
    {
        "name": "Chukarovo",
        "country": "Bulgaria",
        "province": "Haskovo",
        "population": -1,
        "latitude": 42.15,
        "longitude": 26.4
    },
    {
        "name": "Chomakovtsi",
        "country": "Bulgaria",
        "province": "Pleven",
        "population": -1,
        "latitude": 43.3166667,
        "longitude": 24.0666667
    },
    {
        "name": "Chitakovtsi",
        "country": "Bulgaria",
        "province": "Gabrovo",
        "population": -1,
        "latitude": 42.9333333,
        "longitude": 25.3
    },
    {
        "name": "Chichevo",
        "country": "Bulgaria",
        "province": "Kardzhali",
        "population": -1,
        "latitude": 41.347293,
        "longitude": 25.277567
    },
    {
        "name": "Chetirtsi",
        "country": "Bulgaria",
        "province": "Kyustendil",
        "population": -1,
        "latitude": 42.240289,
        "longitude": 22.876402
    },
    {
        "name": "Chestimensko",
        "country": "Bulgaria",
        "province": "Dobrich",
        "population": -1,
        "latitude": 43.780102,
        "longitude": 27.349943
    },
    {
        "name": "Cherven Bryag",
        "country": "Bulgaria",
        "province": "Pleven",
        "population": 13000,
        "latitude": 43.27884,
        "longitude": 24.08251
    },
    {
        "name": "Cherven Breg",
        "country": "Bulgaria",
        "province": "Kyustendil",
        "population": -1,
        "latitude": 42.3,
        "longitude": 23.1666667
    },
    {
        "name": "Chernyovtsi",
        "country": "Bulgaria",
        "province": "Kardzhali",
        "population": -1,
        "latitude": 41.733333,
        "longitude": 25.533333
    },
    {
        "name": "Chernookovo",
        "country": "Bulgaria",
        "province": "Dobrich",
        "population": -1,
        "latitude": 43.710549,
        "longitude": 28.169931
    },
    {
        "name": "Chernook",
        "country": "Bulgaria",
        "province": "Varna",
        "population": -1,
        "latitude": 43.1333333,
        "longitude": 27.2166667
    },
    {
        "name": "Chernomortsi",
        "country": "Bulgaria",
        "province": "Dobrich",
        "population": -1,
        "latitude": 43.669964,
        "longitude": 28.443936
    },
    {
        "name": "Chernomorets",
        "country": "Bulgaria",
        "province": "Burgas",
        "population": 2194,
        "latitude": 42.44408,
        "longitude": 27.639017
    },
    {
        "name": "Chernolik",
        "country": "Bulgaria",
        "province": "Silistra",
        "population": -1,
        "latitude": 43.8666667,
        "longitude": 27.0833333
    },
    {
        "name": "Chernograd",
        "country": "Bulgaria",
        "province": "Burgas",
        "population": -1,
        "latitude": 42.7166667,
        "longitude": 27.1
    },
    {
        "name": "Chernodab",
        "country": "Bulgaria",
        "province": "Haskovo",
        "population": -1,
        "latitude": 41.763246,
        "longitude": 26.277441
    },
    {
        "name": "Cherni Vrah",
        "country": "Bulgaria",
        "province": "Montana",
        "population": -1,
        "latitude": 43.650292,
        "longitude": 23.410028
    },
    {
        "name": "Cherni Vrah",
        "country": "Bulgaria",
        "province": "Burgas",
        "population": -1,
        "latitude": 42.443886,
        "longitude": 27.341449
    },
    {
        "name": "Cherni Vit",
        "country": "Bulgaria",
        "province": "Lovech",
        "population": -1,
        "latitude": 42.8833333,
        "longitude": 24.2
    },
    {
        "name": "Chernitsa",
        "country": "Bulgaria",
        "province": "Burgas",
        "population": -1,
        "latitude": 42.7666667,
        "longitude": 26.8166667
    },
    {
        "name": "Cherni Rid",
        "country": "Bulgaria",
        "province": "Haskovo",
        "population": -1,
        "latitude": 41.513891,
        "longitude": 25.972969
    },
    {
        "name": "Chernichevo",
        "country": "Bulgaria",
        "province": "Kardzhali",
        "population": -1,
        "latitude": 41.349558,
        "longitude": 25.777529
    },
    {
        "name": "Cheresha",
        "country": "Bulgaria",
        "province": "Burgas",
        "population": -1,
        "latitude": 42.8166667,
        "longitude": 27.1333333
    },
    {
        "name": "Cherepovo",
        "country": "Bulgaria",
        "province": "Haskovo",
        "population": -1,
        "latitude": 42.0166667,
        "longitude": 26.1333333
    },
    {
        "name": "Chelopechene",
        "country": "Bulgaria",
        "province": "Dobrich",
        "population": -1,
        "latitude": 43.549068,
        "longitude": 28.313228
    },
    {
        "name": "Chelopech",
        "country": "Bulgaria",
        "province": "Sofia",
        "population": 1760,
        "latitude": 42.7,
        "longitude": 24.0833333
    },
    {
        "name": "Chelnik",
        "country": "Bulgaria",
        "province": "Yambol",
        "population": -1,
        "latitude": 42.4,
        "longitude": 26.6833333
    },
    {
        "name": "Chehlare",
        "country": "Bulgaria",
        "province": "Plovdiv",
        "population": -1,
        "latitude": 42.416667,
        "longitude": 25.166667
    },
    {
        "name": "Chegantsi",
        "country": "Bulgaria",
        "province": "Kardzhali",
        "population": -1,
        "latitude": 41.7166667,
        "longitude": 25.3
    },
    {
        "name": "Chavei",
        "country": "Bulgaria",
        "province": "Gabrovo",
        "population": -1,
        "latitude": 42.9,
        "longitude": 25.233333
    },
    {
        "name": "Chavdartsi",
        "country": "Bulgaria",
        "province": "Lovech",
        "population": -1,
        "latitude": 43.25,
        "longitude": 25
    },
    {
        "name": "Chavdartsi",
        "country": "Bulgaria",
        "province": "Veliko Tarnovo",
        "population": -1,
        "latitude": 42.9666667,
        "longitude": 25.9166667
    },
    {
        "name": "Chavdar",
        "country": "Bulgaria",
        "province": "Sofia",
        "population": 1398,
        "latitude": 42.65,
        "longitude": 24.05
    },
    {
        "name": "Chavdar",
        "country": "Bulgaria",
        "province": "Smolyan",
        "population": -1,
        "latitude": 41.580064,
        "longitude": 24.222917
    },
    {
        "name": "Chalakovi",
        "country": "Bulgaria",
        "province": "Plovdiv",
        "population": -1,
        "latitude": 42.15,
        "longitude": 25.016667
    },
    {
        "name": "Chakalarovo",
        "country": "Bulgaria",
        "province": "Kardzhali",
        "population": -1,
        "latitude": 41.296289,
        "longitude": 25.304342
    },
    {
        "name": "Byalo Pole",
        "country": "Bulgaria",
        "province": "Stara Zagora",
        "population": -1,
        "latitude": 42.1666667,
        "longitude": 25.7166667
    },
    {
        "name": "Byalkovo",
        "country": "Bulgaria",
        "province": "Gabrovo",
        "population": -1,
        "latitude": 42.95,
        "longitude": 25.2666667
    },
    {
        "name": "Byal Izvor",
        "country": "Bulgaria",
        "province": "Stara Zagora",
        "population": -1,
        "latitude": 42.15,
        "longitude": 25.6333333
    },
    {
        "name": "Byal Izvor",
        "country": "Bulgaria",
        "province": "Kardzhali",
        "population": -1,
        "latitude": 41.55,
        "longitude": 25.0833333
    },
    {
        "name": "Byal Bryag",
        "country": "Bulgaria",
        "province": "Shumen",
        "population": -1,
        "latitude": 43.05,
        "longitude": 27.1
    },
    {
        "name": "Byala Reka",
        "country": "Bulgaria",
        "province": "Shumen",
        "population": -1,
        "latitude": 43,
        "longitude": 26.7666667
    },
    {
        "name": "Byala Reka",
        "country": "Bulgaria",
        "province": "Plovdiv",
        "population": -1,
        "latitude": 42.05,
        "longitude": 25.2666667
    },
    {
        "name": "Byala Polyana",
        "country": "Bulgaria",
        "province": "Haskovo",
        "population": -1,
        "latitude": 41.683333,
        "longitude": 25.633333
    },
    {
        "name": "Byala Palanka",
        "country": "Bulgaria",
        "province": "Sliven",
        "population": -1,
        "latitude": 42.7666667,
        "longitude": 26.1
    },
    {
        "name": "Byala",
        "country": "Bulgaria",
        "province": "Ruse",
        "population": -1,
        "latitude": 43.45,
        "longitude": 25.7333333
    },
    {
        "name": "Byala",
        "country": "Bulgaria",
        "province": "Varna",
        "population": 2327,
        "latitude": 42.874264,
        "longitude": 27.888647
    },
    {
        "name": "Byala",
        "country": "Bulgaria",
        "province": "Sliven",
        "population": -1,
        "latitude": 42.7333333,
        "longitude": 26.1833333
    },
    {
        "name": "Buynovo",
        "country": "Bulgaria",
        "province": "Razgrad",
        "population": -1,
        "latitude": 43.383333,
        "longitude": 26.75
    },
    {
        "name": "Buynovo",
        "country": "Bulgaria",
        "province": "Smolyan",
        "population": -1,
        "latitude": 41.559245,
        "longitude": 24.312174
    },
    {
        "name": "Bata",
        "country": "Bulgaria",
        "province": "Pazardzhik",
        "population": -1,
        "latitude": 42.449335,
        "longitude": 24.183555
    },
    {
        "name": "Barzia",
        "country": "Bulgaria",
        "province": "Montana",
        "population": -1,
        "latitude": 43.199216,
        "longitude": 23.161082
    },
    {
        "name": "Barza Reka",
        "country": "Bulgaria",
        "province": "Kardzhali",
        "population": -1,
        "latitude": 41.733333,
        "longitude": 25.383333
    },
    {
        "name": "Burya",
        "country": "Bulgaria",
        "province": "Gabrovo",
        "population": -1,
        "latitude": 43.0333333,
        "longitude": 25.3166667
    },
    {
        "name": "Bardovka",
        "country": "Bulgaria",
        "province": "Razgrad",
        "population": -1,
        "latitude": 43.633333,
        "longitude": 26.8
    },
    {
        "name": "Bardeni",
        "country": "Bulgaria",
        "province": "Gabrovo",
        "population": -1,
        "latitude": 42.883333,
        "longitude": 25.55
    },
    {
        "name": "Bardarski Geran",
        "country": "Bulgaria",
        "province": "Vratsa",
        "population": -1,
        "latitude": 43.546958,
        "longitude": 23.952661
    },
    {
        "name": "Balgarska Polyana",
        "country": "Bulgaria",
        "province": "Haskovo",
        "population": -1,
        "latitude": 42.033333,
        "longitude": 26.2
    },
    {
        "name": "Balgarovo",
        "country": "Bulgaria",
        "province": "Burgas",
        "population": -1,
        "latitude": 42.620219,
        "longitude": 27.305723
    },
    {
        "name": "Balgarka",
        "country": "Bulgaria",
        "province": "Silistra",
        "population": -1,
        "latitude": 44.02203,
        "longitude": 27.329862
    },
    {
        "name": "Balgarin",
        "country": "Bulgaria",
        "province": "Haskovo",
        "population": -1,
        "latitude": 41.95,
        "longitude": 25.95
    },
    {
        "name": "Balgari",
        "country": "Bulgaria",
        "province": "Burgas",
        "population": -1,
        "latitude": 42.087789,
        "longitude": 27.728879
    },
    {
        "name": "Balgarevo",
        "country": "Bulgaria",
        "province": "Dobrich",
        "population": -1,
        "latitude": 43.404377,
        "longitude": 28.412657
    },
    {
        "name": "Balgarene",
        "country": "Bulgaria",
        "province": "Pleven",
        "population": -1,
        "latitude": 43.433333,
        "longitude": 25.066667
    },
    {
        "name": "Balgarene",
        "country": "Bulgaria",
        "province": "Stara Zagora",
        "population": -1,
        "latitude": 42.25,
        "longitude": 25.9
    },
    {
        "name": "Balgaranovo",
        "country": "Bulgaria",
        "province": "Targovishte",
        "population": -1,
        "latitude": 43.016667,
        "longitude": 26.5
    },
    {
        "name": "Bulair",
        "country": "Bulgaria",
        "province": "Varna",
        "population": -1,
        "latitude": 42.9,
        "longitude": 27.45
    },
    {
        "name": "Buhovtsi",
        "country": "Bulgaria",
        "province": "Targovishte",
        "population": -1,
        "latitude": 43.3,
        "longitude": 26.716667
    },
    {
        "name": "Buhovo",
        "country": "Bulgaria",
        "province": "Sofia-Capital",
        "population": 3283,
        "latitude": 42.766667,
        "longitude": 23.566667
    },
    {
        "name": "Buchin Prohod",
        "country": "Bulgaria",
        "province": "Sofia",
        "population": -1,
        "latitude": 42.966667,
        "longitude": 23.133333
    },
    {
        "name": "Bryastovo",
        "country": "Bulgaria",
        "province": "Sliven",
        "population": -1,
        "latitude": 42.5333333,
        "longitude": 25.9333333
    },
    {
        "name": "Bryastovo",
        "country": "Bulgaria",
        "province": "Haskovo",
        "population": -1,
        "latitude": 41.9166667,
        "longitude": 25.3333333
    },
    {
        "name": "Bryastovets",
        "country": "Bulgaria",
        "province": "Burgas",
        "population": -1,
        "latitude": 42.672243,
        "longitude": 27.46464
    },
    {
        "name": "Bryast",
        "country": "Bulgaria",
        "province": "Haskovo",
        "population": -1,
        "latitude": 42.1,
        "longitude": 25.5833333
    },
    {
        "name": "Bryagovo",
        "country": "Bulgaria",
        "province": "Plovdiv",
        "population": -1,
        "latitude": 41.9833333,
        "longitude": 25.1833333
    },
    {
        "name": "Bryagovitsa",
        "country": "Bulgaria",
        "province": "Veliko Tarnovo",
        "population": -1,
        "latitude": 43.2,
        "longitude": 25.8833333
    },
    {
        "name": "Brashten",
        "country": "Bulgaria",
        "province": "Smolyan",
        "population": -1,
        "latitude": 41.559994,
        "longitude": 24.091558
    },
    {
        "name": "Brashlyanitsa",
        "country": "Bulgaria",
        "province": "Pleven",
        "population": -1,
        "latitude": 43.545454,
        "longitude": 24.733223
    },
    {
        "name": "Brashlyan",
        "country": "Bulgaria",
        "province": "Burgas",
        "population": -1,
        "latitude": 42.046357,
        "longitude": 27.428359
    },
    {
        "name": "Breznitsa",
        "country": "Bulgaria",
        "province": "Blagoevgrad",
        "population": -1,
        "latitude": 41.6666667,
        "longitude": 23.6666667
    },
    {
        "name": "Brezhani",
        "country": "Bulgaria",
        "province": "Blagoevgrad",
        "population": -1,
        "latitude": 41.8666667,
        "longitude": 23.1833333
    },
    {
        "name": "Brestovitsa",
        "country": "Bulgaria",
        "province": "Plovdiv",
        "population": -1,
        "latitude": 42.0833333,
        "longitude": 24.6
    },
    {
        "name": "Brestovets",
        "country": "Bulgaria",
        "province": "Pleven",
        "population": -1,
        "latitude": 43.35,
        "longitude": 24.6
    },
    {
        "name": "Brestovene",
        "country": "Bulgaria",
        "province": "Razgrad",
        "population": -1,
        "latitude": 43.757745,
        "longitude": 26.594822
    },
    {
        "name": "Brestnitsa",
        "country": "Bulgaria",
        "province": "Dobrich",
        "population": -1,
        "latitude": 43.882571,
        "longitude": 27.573319
    },
    {
        "name": "Brestnitsa",
        "country": "Bulgaria",
        "province": "Lovech",
        "population": -1,
        "latitude": 43.0666667,
        "longitude": 24.1833333
    },
    {
        "name": "Brestak",
        "country": "Bulgaria",
        "province": "Varna",
        "population": -1,
        "latitude": 43.45,
        "longitude": 27.5333333
    },
    {
        "name": "Brenitsa",
        "country": "Bulgaria",
        "province": "Silistra",
        "population": -1,
        "latitude": 43.890632,
        "longitude": 26.616171
    },
    {
        "name": "Bratya Daskalovi",
        "country": "Bulgaria",
        "province": "Stara Zagora",
        "population": 997,
        "latitude": 42.3,
        "longitude": 25.2166667
    },
    {
        "name": "Bratsigovo",
        "country": "Bulgaria",
        "province": "Pazardzhik",
        "population": 4577,
        "latitude": 42.0166667,
        "longitude": 24.3666667
    },
    {
        "name": "Bratanitsa",
        "country": "Bulgaria",
        "province": "Pazardzhik",
        "population": -1,
        "latitude": 42.164815,
        "longitude": 24.21724
    },
    {
        "name": "Branitsa",
        "country": "Bulgaria",
        "province": "Haskovo",
        "population": -1,
        "latitude": 42,
        "longitude": 26.0833333
    },
    {
        "name": "Branishte",
        "country": "Bulgaria",
        "province": "Dobrich",
        "population": -1,
        "latitude": 43.527597,
        "longitude": 27.847518
    },
    {
        "name": "Branichevo",
        "country": "Bulgaria",
        "province": "Shumen",
        "population": -1,
        "latitude": 43.6833333,
        "longitude": 27.0833333
    },
    {
        "name": "Bozhurovo",
        "country": "Bulgaria",
        "province": "Dobrich",
        "population": -1,
        "latitude": 43.703681,
        "longitude": 27.763099
    },
    {
        "name": "Bozhuritsa",
        "country": "Bulgaria",
        "province": "Pleven",
        "population": -1,
        "latitude": 43.509489,
        "longitude": 24.596308
    },
    {
        "name": "Bozhurishte",
        "country": "Bulgaria",
        "province": "Sofia",
        "population": 4360,
        "latitude": 42.75,
        "longitude": 23.2
    },
    {
        "name": "Bozhurets",
        "country": "Bulgaria",
        "province": "Dobrich",
        "population": -1,
        "latitude": 43.42396,
        "longitude": 28.295502
    },
    {
        "name": "Boyno",
        "country": "Bulgaria",
        "province": "Kardzhali",
        "population": -1,
        "latitude": 41.6,
        "longitude": 25.2666667
    },
    {
        "name": "Boykovtsi",
        "country": "Bulgaria",
        "province": "Veliko Tarnovo",
        "population": -1,
        "latitude": 42.9,
        "longitude": 26.1
    },
    {
        "name": "Boyantsi",
        "country": "Bulgaria",
        "province": "Plovdiv",
        "population": -1,
        "latitude": 42.05,
        "longitude": 24.95
    },
    {
        "name": "Boyanovo",
        "country": "Bulgaria",
        "province": "Yambol",
        "population": -1,
        "latitude": 42.25,
        "longitude": 26.6333333
    },
    {
        "name": "Boyadzhik",
        "country": "Bulgaria",
        "province": "Yambol",
        "population": -1,
        "latitude": 42.4,
        "longitude": 26.3
    },
    {
        "name": "Botevo",
        "country": "Bulgaria",
        "province": "Yambol",
        "population": -1,
        "latitude": 42.35,
        "longitude": 26.3666667
    },
    {
        "name": "Borovo",
        "country": "Bulgaria",
        "province": "Ruse",
        "population": 2467,
        "latitude": 43.500863,
        "longitude": 25.809918
    },
    {
        "name": "Borovan",
        "country": "Bulgaria",
        "province": "Vratsa",
        "population": 2941,
        "latitude": 43.4333333,
        "longitude": 23.75
    },
    {
        "name": "Borisovo",
        "country": "Bulgaria",
        "province": "Ruse",
        "population": -1,
        "latitude": 43.934054,
        "longitude": 26.231574
    },
    {
        "name": "Borisovo",
        "country": "Bulgaria",
        "province": "Yambol",
        "population": -1,
        "latitude": 42.3,
        "longitude": 26.7333333
    },
    {
        "name": "Borislavtsi",
        "country": "Bulgaria",
        "province": "Haskovo",
        "population": -1,
        "latitude": 41.660274,
        "longitude": 25.926025
    },
    {
        "name": "Bonevo",
        "country": "Bulgaria",
        "province": "Dobrich",
        "population": -1,
        "latitude": 43.7333333,
        "longitude": 27.3833333
    },
    {
        "name": "Bolyartsi",
        "country": "Bulgaria",
        "province": "Plovdiv",
        "population": -1,
        "latitude": 42.0666667,
        "longitude": 24.9666667
    },
    {
        "name": "Bolyarsko",
        "country": "Bulgaria",
        "province": "Yambol",
        "population": -1,
        "latitude": 42.4333333,
        "longitude": 26.3666667
    },
    {
        "name": "Bolyarovo",
        "country": "Bulgaria",
        "province": "Yambol",
        "population": 1368,
        "latitude": 42.149621,
        "longitude": 26.811156
    },
    {
        "name": "Stambolovo",
        "country": "Bulgaria",
        "province": "Sofia",
        "population": -1,
        "latitude": 42.4,
        "longitude": 23.8166667
    },
    {
        "name": "Bobovets",
        "country": "Bulgaria",
        "province": "Dobrich",
        "population": -1,
        "latitude": 43.440951,
        "longitude": 28.08646
    },
    {
        "name": "Bobov Dol",
        "country": "Bulgaria",
        "province": "Kyustendil",
        "population": 6184,
        "latitude": 42.362562,
        "longitude": 23.003237
    },
    {
        "name": "Boboshevo",
        "country": "Bulgaria",
        "province": "Kyustendil",
        "population": 1784,
        "latitude": 42.152956,
        "longitude": 23.001465
    },
    {
        "name": "Bobevtsi",
        "country": "Bulgaria",
        "province": "Gabrovo",
        "population": -1,
        "latitude": 42.95,
        "longitude": 25.3166667
    },
    {
        "name": "Boazat",
        "country": "Bulgaria",
        "province": "Gabrovo",
        "population": -1,
        "latitude": 42.883333,
        "longitude": 24.95
    },
    {
        "name": "Blaskovo",
        "country": "Bulgaria",
        "province": "Varna",
        "population": -1,
        "latitude": 43.116667,
        "longitude": 27.333333
    },
    {
        "name": "Bliznatsi",
        "country": "Bulgaria",
        "province": "Varna",
        "population": 940,
        "latitude": 43.067954,
        "longitude": 27.86744
    },
    {
        "name": "Blenika",
        "country": "Bulgaria",
        "province": "Kardzhali",
        "population": -1,
        "latitude": 41.6833333,
        "longitude": 25.3333333
    },
    {
        "name": "Blatnitsa",
        "country": "Bulgaria",
        "province": "Pazardzhik",
        "population": -1,
        "latitude": 42.3666667,
        "longitude": 24.4166667
    },
    {
        "name": "Blatets",
        "country": "Bulgaria",
        "province": "Sliven",
        "population": -1,
        "latitude": 42.6333333,
        "longitude": 26.5333333
    },
    {
        "name": "Blagun",
        "country": "Bulgaria",
        "province": "Kardzhali",
        "population": -1,
        "latitude": 41.37566,
        "longitude": 25.74191
    },
    {
        "name": "Blagoevo",
        "country": "Bulgaria",
        "province": "Razgrad",
        "population": -1,
        "latitude": 43.45,
        "longitude": 26.4
    },
    {
        "name": "Bisertsi",
        "country": "Bulgaria",
        "province": "Razgrad",
        "population": -1,
        "latitude": 43.884818,
        "longitude": 26.504641
    },
    {
        "name": "Bilka",
        "country": "Bulgaria",
        "province": "Burgas",
        "population": -1,
        "latitude": 42.9333333,
        "longitude": 27.2333333
    },
    {
        "name": "Bezvoditsa",
        "country": "Bulgaria",
        "province": "Dobrich",
        "population": -1,
        "latitude": 43.520025,
        "longitude": 27.971776
    },
    {
        "name": "Bezmer",
        "country": "Bulgaria",
        "province": "Dobrich",
        "population": -1,
        "latitude": 43.798632,
        "longitude": 27.414387
    },
    {
        "name": "Bezmer",
        "country": "Bulgaria",
        "province": "Yambol",
        "population": -1,
        "latitude": 42.4833333,
        "longitude": 26.4
    },
    {
        "name": "Bezhanovo",
        "country": "Bulgaria",
        "province": "Dobrich",
        "population": -1,
        "latitude": 43.713873,
        "longitude": 28.393722
    },
    {
        "name": "Bezhanovo",
        "country": "Bulgaria",
        "province": "Lovech",
        "population": -1,
        "latitude": 43.2333333,
        "longitude": 24.4
    },
    {
        "name": "Beronovo",
        "country": "Bulgaria",
        "province": "Burgas",
        "population": -1,
        "latitude": 42.8333333,
        "longitude": 26.7
    },
    {
        "name": "Berievo",
        "country": "Bulgaria",
        "province": "Gabrovo",
        "population": -1,
        "latitude": 42.9666667,
        "longitude": 24.8833333
    },
    {
        "name": "Benkovski",
        "country": "Bulgaria",
        "province": "Dobrich",
        "population": -1,
        "latitude": 43.6,
        "longitude": 27.4833333
    },