[
    {
        "name": "Bangui",
        "country": "Central African Republic",
        "province": "Bangui",
        "population": 542393,
        "latitude": 4.361217135048182,
        "longitude": 18.554964065551758
    },
    {
        "name": "Bimbo",
        "country": "Central African Republic",
        "province": "Ombella-M'Poko",
        "population": 129655,
        "latitude": 4.256714105873285,
        "longitude": 18.41583251953125
    },
    {
        "name": "Berbérati",
        "country": "Central African Republic",
        "province": "Mambéré-Kadéï",
        "population": 61815,
        "latitude": 4.261164977049693,
        "longitude": 15.792160034179688
    },
    {
        "name": "Mbaïki",
        "country": "Central African Republic",
        "province": "Lobaye",
        "population": 67132,
        "latitude": 3.867814,
        "longitude": 17.989227
    },
    {
        "name": "Bozoum",
        "country": "Central African Republic",
        "province": "Ouham-Pendé",
        "population": 40201,
        "latitude": 6.319334,
        "longitude": 16.379921
    },
    {
        "name": "Kaga-Bandoro",
        "country": "Central African Republic",
        "province": "Nana-Grébizi",
        "population": 56520,
        "latitude": 6.989607,
        "longitude": 19.187443
    },
    {
        "name": "Carnot",
        "country": "Central African Republic",
        "province": "Mambéré-Kadéï",
        "population": 38071,
        "latitude": 4.942726716620623,
        "longitude": 15.877346992492676
    },
    {
        "name": "Sibut",
        "country": "Central African Republic",
        "province": "Kémo",
        "population": 34267,
        "latitude": 5.718013,
        "longitude": 19.073889
    },
    {
        "name": "Bria",
        "country": "Central African Republic",
        "province": "Haute-Kotto",
        "population": 29027,
        "latitude": 6.542332,
        "longitude": 21.986329
    },
    {
        "name": "Bambari",
        "country": "Central African Republic",
        "province": "Ouaka",
        "population": 32547,
        "latitude": 5.767948,
        "longitude": 20.675651
    },
    {
        "name": "Bouar",
        "country": "Central African Republic",
        "province": "Nana-Mambéré",
        "population": 28581,
        "latitude": 5.934039,
        "longitude": 15.595987
    },
    {
        "name": "Bossangoa",
        "country": "Central African Republic",
        "province": "Ouham",
        "population": 27428,
        "latitude": 6.492629,
        "longitude": 17.455184
    },
    {
        "name": "Nola",
        "country": "Central African Republic",
        "province": "Sangha-Mbaéré",
        "population": 26809,
        "latitude": 3.52494,
        "longitude": 16.04583
    },
    {
        "name": "Obo",
        "country": "Central African Republic",
        "province": "Haut-Mbomou",
        "population": 12887,
        "latitude": 5.395863478525365,
        "longitude": 26.492114067077637
    },
    {
        "name": "Ndélé",
        "country": "Central African Republic",
        "province": "Bamingui-Bangoran",
        "population": 11764,
        "latitude": 8.410914,
        "longitude": 20.647278
    },
    {
        "name": "Mobaye",
        "country": "Central African Republic",
        "province": "Basse-Kotto",
        "population": 19431,
        "latitude": 4.319016,
        "longitude": 21.178613
    },
    {
        "name": "Birao",
        "country": "Central African Republic",
        "province": "Vakaga",
        "population": 10178,
        "latitude": 10.284879,
        "longitude": 22.788184
    },
    {
        "name": "Bangassou",
        "country": "Central African Republic",
        "province": "Mbomou",
        "population": 24361,
        "latitude": 4.741324,
        "longitude": 22.818383
    },
    {
        "name": "Damara",
        "country": "Central African Republic",
        "province": "Ombella-M'Poko",
        "population": 20093,
        "latitude": 4.960754,
        "longitude": 18.703497
    },
    {
        "name": "Bouca",
        "country": "Central African Republic",
        "province": "Ouham",
        "population": 13250,
        "latitude": 6.507337646456384,
        "longitude": 18.276700973510742
    },
    {
        "name": "Boda",
        "country": "Central African Republic",
        "province": "Lobaye",
        "population": 16655,
        "latitude": 4.318871,
        "longitude": 17.469528
    },
    {
        "name": "Batangafo",
        "country": "Central African Republic",
        "province": "Ouham",
        "population": 15310,
        "latitude": 7.300818,
        "longitude": 18.283296
    },
    {
        "name": "Mongoumba",
        "country": "Central African Republic",
        "province": "Lobaye",
        "population": 10885,
        "latitude": 3.641532,
        "longitude": 18.593636
    },
    {
        "name": "Kabo",
        "country": "Central African Republic",
        "province": "Ouham",
        "population": 13637,
        "latitude": 7.699373,
        "longitude": 18.629029
    },
    {
        "name": "Zemio",
        "country": "Central African Republic",
        "province": "Haut-Mbomou",
        "population": 14000,
        "latitude": 5.031437,
        "longitude": 25.136142
    },
    {
        "name": "Ouadda",
        "country": "Central African Republic",
        "province": "Haute-Kotto",
        "population": 5434,
        "latitude": 8.077711,
        "longitude": 22.400753
    },
    {
        "name": "Kembé",
        "country": "Central African Republic",
        "province": "Basse-Kotto",
        "population": 11513,
        "latitude": 4.622751,
        "longitude": 21.886449
    },
    {
        "name": "Ippy",
        "country": "Central African Republic",
        "province": "Ouaka",
        "population": 16571,
        "latitude": 6.26793,
        "longitude": 21.224675
    },
    {
        "name": "Alindao",
        "country": "Central African Republic",
        "province": "Basse-Kotto",
        "population": 14234,
        "latitude": 5.026665,
        "longitude": 21.208762
    },
    {
        "name": "Gamboula",
        "country": "Central African Republic",
        "province": "Mambéré-Kadéï",
        "population": 7646,
        "latitude": 4.117749,
        "longitude": 15.139262
    },
    {
        "name": "Baoro",
        "country": "Central African Republic",
        "province": "Nana-Mambéré",
        "population": 6319,
        "latitude": 5.6666667,
        "longitude": 15.9666667
    },
    {
        "name": "Paoua",
        "country": "Central African Republic",
        "province": "Ouham-Pendé",
        "population": 18441,
        "latitude": 7.242686,
        "longitude": 16.440592
    },
    {
        "name": "Kouango",
        "country": "Central African Republic",
        "province": "Ouaka",
        "population": 7529,
        "latitude": 4.993372,
        "longitude": 19.961856
    },
    {
        "name": "Ouango",
        "country": "Central African Republic",
        "province": "Mbomou",
        "population": 4365,
        "latitude": 4.31325,
        "longitude": 22.555244
    },
    {
        "name": "Ouanda Djallé",
        "country": "Central African Republic",
        "province": "Vakaga",
        "population": -1,
        "latitude": 8.90025,
        "longitude": 22.80277
    },
    {
        "name": "Gambo",
        "country": "Central African Republic",
        "province": "Mbomou",
        "population": 4971,
        "latitude": 4.648159,
        "longitude": 22.26331
    },
    {
        "name": "Goz Beïda",
        "country": "Central African Republic",
        "province": "Bamingui-Bangoran",
        "population": -1,
        "latitude": 8.490305,
        "longitude": 20.665739
    },
    {
        "name": "Léména",
        "country": "Central African Republic",
        "province": "Bamingui-Bangoran",
        "population": -1,
        "latitude": 8.470003,
        "longitude": 20.69006
    },
    {
        "name": "Goz Amar",
        "country": "Central African Republic",
        "province": "Bamingui-Bangoran",
        "population": -1,
        "latitude": 8.420698,
        "longitude": 20.624938
    },
    {
        "name": "Rokone al Arab",
        "country": "Central African Republic",
        "province": "Bamingui-Bangoran",
        "population": -1,
        "latitude": 8.435345,
        "longitude": 20.638611
    },
    {
        "name": "Kpakpalé",
        "country": "Central African Republic",
        "province": "Bamingui-Bangoran",
        "population": -1,
        "latitude": 8.419202,
        "longitude": 20.704845
    },
    {
        "name": "Yangou Brindji",
        "country": "Central African Republic",
        "province": "Bamingui-Bangoran",
        "population": -1,
        "latitude": 8.377128,
        "longitude": 20.699044
    },
    {
        "name": "Ngoudjaka",
        "country": "Central African Republic",
        "province": "Bamingui-Bangoran",
        "population": -1,
        "latitude": 8.368655,
        "longitude": 20.696912
    },
    {
        "name": "Gbétihindjou",
        "country": "Central African Republic",
        "province": "Bamingui-Bangoran",
        "population": -1,
        "latitude": 8.279041,
        "longitude": 20.69558
    },
    {
        "name": "Voungba",
        "country": "Central African Republic",
        "province": "Bamingui-Bangoran",
        "population": -1,
        "latitude": 8.26424,
        "longitude": 20.717344
    },
    {
        "name": "Golongosso",
        "country": "Central African Republic",
        "province": "Bamingui-Bangoran",
        "population": -1,
        "latitude": 8.961851,
        "longitude": 19.165833
    },
    {
        "name": "Gata Maïnda",
        "country": "Central African Republic",
        "province": "Bamingui-Bangoran",
        "population": -1,
        "latitude": 8.772988,
        "longitude": 19.417475
    },
    {
        "name": "Gadzi",
        "country": "Central African Republic",
        "province": "Mambéré-Kadéï",
        "population": -1,
        "latitude": 4.775691,
        "longitude": 16.707222
    },
    {
        "name": "Possel",
        "country": "Central African Republic",
        "province": "Kémo",
        "population": -1,
        "latitude": 5.031888,
        "longitude": 19.258081
    },
    {
        "name": "Diki",
        "country": "Central African Republic",
        "province": "Bamingui-Bangoran",
        "population": -1,
        "latitude": 8.805545,
        "longitude": 19.659138
    },
    {
        "name": "Dekoa",
        "country": "Central African Republic",
        "province": "Kémo",
        "population": -1,
        "latitude": 6.322292,
        "longitude": 19.079215
    },
    {
        "name": "Dédé Mokouba",
        "country": "Central African Republic",
        "province": "Mambéré-Kadéï",
        "population": -1,
        "latitude": 3.932941,
        "longitude": 15.247204
    },
    {
        "name": "Boyangéné",
        "country": "Central African Republic",
        "province": "Ombella-M'Poko",
        "population": -1,
        "latitude": 5.122045,
        "longitude": 17.80445
    },
    {
        "name": "Boésé I",
        "country": "Central African Republic",
        "province": "Ombella-M'Poko",
        "population": -1,
        "latitude": 5.670442,
        "longitude": 17.734814
    },
    {
        "name": "Boundara",
        "country": "Central African Republic",
        "province": "Lobaye",
        "population": -1,
        "latitude": 3.936378,
        "longitude": 18.189813
    },
    {
        "name": "Boubanzégué",
        "country": "Central African Republic",
        "province": "Lobaye",
        "population": -1,
        "latitude": 4.05,
        "longitude": 18.0833333
    },
    {
        "name": "Botokoni",
        "country": "Central African Republic",
        "province": "Ouham",
        "population": -1,
        "latitude": 6.611526,
        "longitude": 16.871315
    },
    {
        "name": "Botoko",
        "country": "Central African Republic",
        "province": "Lobaye",
        "population": -1,
        "latitude": 4.040986,
        "longitude": 18.080274
    },
    {
        "name": "Bossembélé",
        "country": "Central African Republic",
        "province": "Ombella-M'Poko",
        "population": -1,
        "latitude": 5.2666667,
        "longitude": 17.65
    },
    {
        "name": "Borofio",
        "country": "Central African Republic",
        "province": "Ombella-M'Poko",
        "population": -1,
        "latitude": 4.543014,
        "longitude": 17.773192
    },
    {
        "name": "Bonguélé",
        "country": "Central African Republic",
        "province": "Lobaye",
        "population": -1,
        "latitude": 4.02793,
        "longitude": 18.057221
    },
    {
        "name": "Bondziako",
        "country": "Central African Republic",
        "province": "Lobaye",
        "population": -1,
        "latitude": 4.360647,
        "longitude": 17.746161
    },
    {
        "name": "Bohomandji",
        "country": "Central African Republic",
        "province": "Lobaye",
        "population": -1,
        "latitude": 3.9166667,
        "longitude": 18.2
    },
    {
        "name": "Boguila",
        "country": "Central African Republic",
        "province": "Ouham",
        "population": -1,
        "latitude": 7.134357,
        "longitude": 16.913456
    },
    {
        "name": "Bogboua",
        "country": "Central African Republic",
        "province": "Lobaye",
        "population": -1,
        "latitude": 3.95405,
        "longitude": 18.159258
    },
    {
        "name": "Bobaloko II",
        "country": "Central African Republic",
        "province": "Ombella-M'Poko",
        "population": -1,
        "latitude": 5.239329,
        "longitude": 17.691431
    },
    {
        "name": "Bogangolo",
        "country": "Central African Republic",
        "province": "Ombella-M'Poko",
        "population": -1,
        "latitude": 5.57105,
        "longitude": 18.253669
    },
    {
        "name": "Boganangoné",
        "country": "Central African Republic",
        "province": "Lobaye",
        "population": -1,
        "latitude": 4.686838,
        "longitude": 17.198317
    },
    {
        "name": "Bocaranga",
        "country": "Central African Republic",
        "province": "Ouham-Pendé",
        "population": -1,
        "latitude": 6.985334,
        "longitude": 15.640616
    },
    {
        "name": "Bobili",
        "country": "Central African Republic",
        "province": "Ouham",
        "population": -1,
        "latitude": 6.758803,
        "longitude": 16.854085
    },
    {
        "name": "Bobeke",
        "country": "Central African Republic",
        "province": "Lobaye",
        "population": -1,
        "latitude": 3.9166667,
        "longitude": 18.1833333
    },
    {
        "name": "Bobangui",
        "country": "Central African Republic",
        "province": "Lobaye",
        "population": -1,
        "latitude": 4.05,
        "longitude": 18.1166667
    },
    {
        "name": "Biami",
        "country": "Central African Republic",
        "province": "Lobaye",
        "population": -1,
        "latitude": 3.97169,
        "longitude": 18.163822
    },
    {
        "name": "Beya Basobo",
        "country": "Central African Republic",
        "province": "Central African Republic",
        "population": -1,
        "latitude": 4.4166667,
        "longitude": 14.9666667
    },
    {
        "name": "Bénesa",
        "country": "Central African Republic",
        "province": "Ouham",
        "population": -1,
        "latitude": 6.635939,
        "longitude": 16.844085
    },
    {
        "name": "Bélam",
        "country": "Central African Republic",
        "province": "Ouham",
        "population": -1,
        "latitude": 7.421165,
        "longitude": 16.86725
    },
    {
        "name": "Bayanga",
        "country": "Central African Republic",
        "province": "Sangha-Mbaéré",
        "population": -1,
        "latitude": 2.904959,
        "longitude": 16.260277
    },
    {
        "name": "Bankara",
        "country": "Central African Republic",
        "province": "Ouham",
        "population": -1,
        "latitude": 6.643169,
        "longitude": 16.84169
    },
    {
        "name": "Banguélé",
        "country": "Central African Republic",
        "province": "Lobaye",
        "population": -1,
        "latitude": 3.898812,
        "longitude": 18.00551
    },
    {
        "name": "Bambio",
        "country": "Central African Republic",
        "province": "Sangha-Mbaéré",
        "population": -1,
        "latitude": 3.941228,
        "longitude": 16.972066
    },
    {
        "name": "Bamango",
        "country": "Central African Republic",
        "province": "Lobaye",
        "population": -1,
        "latitude": 4.043856,
        "longitude": 17.884995
    },
    {
        "name": "Baboua",
        "country": "Central African Republic",
        "province": "Nana-Mambéré",
        "population": -1,
        "latitude": 5.795648,
        "longitude": 14.827991
    },
    {
        "name": "Babassoua",
        "country": "Central African Republic",
        "province": "Lobaye",
        "population": -1,
        "latitude": 3.904846,
        "longitude": 18.137672
    },
    {
        "name": "Babadza",
        "country": "Central African Republic",
        "province": "Mambéré-Kadéï",
        "population": -1,
        "latitude": 4.238492,
        "longitude": 15.558367
    },
    {
        "name": "Ancien Bakani",
        "country": "Central African Republic",
        "province": "Lobaye",
        "population": -1,
        "latitude": 3.9333333,
        "longitude": 18.35
    },
    {
        "name": "Abbo Bougrima",
        "country": "Central African Republic",
        "province": "Nana-Mambéré",
        "population": -1,
        "latitude": 5.482865,
        "longitude": 14.939285
    },
    {
        "name": "Abba",
        "country": "Central African Republic",
        "province": "Nana-Mambéré",
        "population": -1,
        "latitude": 5.333541,
        "longitude": 15.151986
    },
    {
        "name": "Amada Gaza",
        "country": "Central African Republic",
        "province": "Mambéré-Kadéï",
        "population": -1,
        "latitude": 4.774407,
        "longitude": 15.205138
    },
    {
        "name": "Zinga",
        "country": "Central African Republic",
        "province": "Lobaye",
        "population": -1,
        "latitude": 3.715519,
        "longitude": 18.584127
    },
    {
        "name": "Ziendi",
        "country": "Central African Republic",
        "province": "Sangha-Mbaéré",
        "population": -1,
        "latitude": 3.406916,
        "longitude": 15.697314
    },
    {
        "name": "Zendé",
        "country": "Central African Republic",
        "province": "Lobaye",
        "population": -1,
        "latitude": 4.184687,
        "longitude": 18.07239
    },
    {
        "name": "Yenga",
        "country": "Central African Republic",
        "province": "Nana-Mambéré",
        "population": -1,
        "latitude": 5.902826,
        "longitude": 15.45119
    },
    {
        "name": "Yankouko",
        "country": "Central African Republic",
        "province": "Ouaka",
        "population": -1,
        "latitude": 6.018447,
        "longitude": 19.757603
    },
    {
        "name": "Yaloké",
        "country": "Central African Republic",
        "province": "Ombella-M'Poko",
        "population": -1,
        "latitude": 5.319529,
        "longitude": 17.101136
    },
    {
        "name": "Yakoussou",
        "country": "Central African Republic",
        "province": "Lobaye",
        "population": -1,
        "latitude": 3.9,
        "longitude": 18.05
    },
    {
        "name": "Wabongo",
        "country": "Central African Republic",
        "province": "Lobaye",
        "population": -1,
        "latitude": 3.9166667,
        "longitude": 18.1833333
    },
    {
        "name": "Voudou I",
        "country": "Central African Republic",
        "province": "Ouham-Pendé",
        "population": -1,
        "latitude": 6.315296,
        "longitude": 16.849806
    },
    {
        "name": "Tedoa",
        "country": "Central African Republic",
        "province": "Nana-Mambéré",
        "population": -1,
        "latitude": 5.551515,
        "longitude": 16.492428
    },
    {
        "name": "Sinzongo",
        "country": "Central African Republic",
        "province": "Lobaye",
        "population": -1,
        "latitude": 4.0666667,
        "longitude": 18.2166667
    },
    {
        "name": "Séoundou",
        "country": "Central African Republic",
        "province": "Ombella-M'Poko",
        "population": -1,
        "latitude": 4.078878,
        "longitude": 18.355062
    },
    {
        "name": "Pissa",
        "country": "Central African Republic",
        "province": "Lobaye",
        "population": -1,
        "latitude": 4.058656,
        "longitude": 18.214893
    },
    {
        "name": "Ouango",
        "country": "Central African Republic",
        "province": "Bangui",
        "population": -1,
        "latitude": 4.362853,
        "longitude": 18.623131
    },
    {
        "name": "Ouango",
        "country": "Central African Republic",
        "province": "Sangha-Mbaéré",
        "population": -1,
        "latitude": 3.8833333,
        "longitude": 16.3
    },
    {
        "name": "Ouakana",
        "country": "Central African Republic",
        "province": "Mambéré-Kadéï",
        "population": -1,
        "latitude": 4.3166667,
        "longitude": 16.3333333
    },
    {
        "name": "Njoko",
        "country": "Central African Republic",
        "province": "Bamingui-Bangoran",
        "population": -1,
        "latitude": 9.016994,
        "longitude": 19.568052
    },
    {
        "name": "Ngaoundaye I",
        "country": "Central African Republic",
        "province": "Ouham-Pendé",
        "population": -1,
        "latitude": 7.3166667,
        "longitude": 15.6166667
    },
    {
        "name": "Nanga",
        "country": "Central African Republic",
        "province": "Ouham",
        "population": -1,
        "latitude": 7.194439,
        "longitude": 16.940433
    },
    {
        "name": "Nadziboro",
        "country": "Central African Republic",
        "province": "Nana-Mambéré",
        "population": -1,
        "latitude": 5.276627,
        "longitude": 15.413638
    },
    {
        "name": "Miaméré",
        "country": "Central African Republic",
        "province": "Bamingui-Bangoran",
        "population": -1,
        "latitude": 8.866972,
        "longitude": 19.842555
    },
    {
        "name": "Mialouto",
        "country": "Central African Republic",
        "province": "Bamingui-Bangoran",
        "population": -1,
        "latitude": 8.933333,
        "longitude": 19.716667
    },
    {
        "name": "Mbrés",
        "country": "Central African Republic",
        "province": "Nana-Grébizi",
        "population": -1,
        "latitude": 6.668001,
        "longitude": 19.803229
    },
    {
        "name": "Mboma",
        "country": "Central African Republic",
        "province": "Lobaye",
        "population": -1,
        "latitude": 4.0333333,
        "longitude": 18.0666667
    },
    {
        "name": "Mbokassa",
        "country": "Central African Republic",
        "province": "Lobaye",
        "population": -1,
        "latitude": 4.15,
        "longitude": 18.25
    },
    {
        "name": "Markounda",
        "country": "Central African Republic",
        "province": "Ouham",
        "population": -1,
        "latitude": 7.628979,
        "longitude": 16.961666
    },
    {
        "name": "Maïkaba",
        "country": "Central African Republic",
        "province": "Bamingui-Bangoran",
        "population": -1,
        "latitude": 8.75,
        "longitude": 19.316667
    },
    {
        "name": "Koué",
        "country": "Central African Republic",
        "province": "Mambéré-Kadéï",
        "population": -1,
        "latitude": 3.885172,
        "longitude": 15.535871
    },
    {
        "name": "Kénouzou",
        "country": "Central African Republic",
        "province": "Bamingui-Bangoran",
        "population": -1,
        "latitude": 8.75,
        "longitude": 19.266667
    },
    {
        "name": "Karawa",
        "country": "Central African Republic",
        "province": "Lobaye",
        "population": -1,
        "latitude": 4.163783,
        "longitude": 18.02221
    },
    {
        "name": "Kadékadjia",
        "country": "Central African Republic",
        "province": "Bamingui-Bangoran",
        "population": -1,
        "latitude": 8.766667,
        "longitude": 19.266667
    },
    {
        "name": "Grand Elan",
        "country": "Central African Republic",
        "province": "Bamingui-Bangoran",
        "population": -1,
        "latitude": 8.776515,
        "longitude": 19.400909
    },
    {
        "name": "Mongounda",
        "country": "Central African Republic",
        "province": "Lobaye",
        "population": -1,
        "latitude": 4.039623,
        "longitude": 18.026201
    },
    {
        "name": "Ndimbi",
        "country": "Central African Republic",
        "province": "Lobaye",
        "population": -1,
        "latitude": 4.047872,
        "longitude": 18.053397
    },
    {
        "name": "Gbokopétémé",
        "country": "Central African Republic",
        "province": "Lobaye",
        "population": -1,
        "latitude": 4.200637,
        "longitude": 18.139761
    },
    {
        "name": "Zoukoutoumiala",
        "country": "Central African Republic",
        "province": "Bamingui-Bangoran",
        "population": -1,
        "latitude": 8.549558,
        "longitude": 20.612143
    },
    {
        "name": "Zangba",
        "country": "Central African Republic",
        "province": "Basse-Kotto",
        "population": -1,
        "latitude": 4.447998,
        "longitude": 20.987026
    },
    {
        "name": "Yombo Bac",
        "country": "Central African Republic",
        "province": "Nana-Grébizi",
        "population": -1,
        "latitude": 7.193046,
        "longitude": 20.005973
    },
    {
        "name": "Yangouléka",
        "country": "Central African Republic",
        "province": "Bamingui-Bangoran",
        "population": -1,
        "latitude": 7.30553,
        "longitude": 20.135437
    },
    {
        "name": "Yangou Gongo",
        "country": "Central African Republic",
        "province": "Bamingui-Bangoran",
        "population": -1,
        "latitude": 7.4333333,
        "longitude": 20.1833333
    },
    {
        "name": "Yangou Gala",
        "country": "Central African Republic",
        "province": "Bamingui-Bangoran",
        "population": -1,
        "latitude": 7.4,
        "longitude": 20.1833333
    },
    {
        "name": "Yangou Ndarsa",
        "country": "Central African Republic",
        "province": "Bamingui-Bangoran",
        "population": -1,
        "latitude": 8.449953,
        "longitude": 20.569753
    },
    {
        "name": "Yangou Birolo",
        "country": "Central African Republic",
        "province": "Bamingui-Bangoran",
        "population": -1,
        "latitude": 7.3,
        "longitude": 20.1333333
    },
    {
        "name": "Yambala Koudouvélé",
        "country": "Central African Republic",
        "province": "Bamingui-Bangoran",
        "population": -1,
        "latitude": 7.237554,
        "longitude": 20.049415
    },
    {
        "name": "Yambala Magonda",
        "country": "Central African Republic",
        "province": "Bamingui-Bangoran",
        "population": -1,
        "latitude": 7.767426,
        "longitude": 20.220143
    },
    {
        "name": "Yalinga",
        "country": "Central African Republic",
        "province": "Haute-Kotto",
        "population": -1,
        "latitude": 6.501333,
        "longitude": 23.265833
    },
    {
        "name": "Vougba",
        "country": "Central African Republic",
        "province": "Bamingui-Bangoran",
        "population": -1,
        "latitude": 8.2333333,
        "longitude": 20.6833333
    },
    {
        "name": "Sokoumba",
        "country": "Central African Republic",
        "province": "Bamingui-Bangoran",
        "population": -1,
        "latitude": 8.735191,
        "longitude": 20.670175
    },
    {
        "name": "Satema",
        "country": "Central African Republic",
        "province": "Basse-Kotto",
        "population": -1,
        "latitude": 4.304547,
        "longitude": 21.686628
    },
    {
        "name": "Sakoumba",
        "country": "Central African Republic",
        "province": "Bamingui-Bangoran",
        "population": -1,
        "latitude": 8.214373,
        "longitude": 20.559949
    },
    {
        "name": "Rafaï",
        "country": "Central African Republic",
        "province": "Mbomou",
        "population": -1,
        "latitude": 4.973067,
        "longitude": 23.931841
    },
    {
        "name": "Ouihi-Goutehoko",
        "country": "Central African Republic",
        "province": "Bamingui-Bangoran",
        "population": -1,
        "latitude": 8.3666667,
        "longitude": 20.7
    },
    {
        "name": "Ouihi",
        "country": "Central African Republic",
        "province": "Bamingui-Bangoran",
        "population": -1,
        "latitude": 8.401114,
        "longitude": 20.699009
    },
    {
        "name": "Niango",
        "country": "Central African Republic",
        "province": "Bamingui-Bangoran",
        "population": -1,
        "latitude": 7.580329,
        "longitude": 20.184361
    },
    {
        "name": "Nianga Bitibanda",
        "country": "Central African Republic",
        "province": "Bamingui-Bangoran",
        "population": -1,
        "latitude": 7.5833333,
        "longitude": 20.1833333
    },
    {
        "name": "Ngoussoua Campement",
        "country": "Central African Republic",
        "province": "Bamingui-Bangoran",
        "population": -1,
        "latitude": 8.1666667,
        "longitude": 20.6833333
    },
    {
        "name": "Ngouga",
        "country": "Central African Republic",
        "province": "Bamingui-Bangoran",
        "population": -1,
        "latitude": 8.2166667,
        "longitude": 20.6833333
    },
    {
        "name": "Ngoudro",
        "country": "Central African Republic",
        "province": "Bamingui-Bangoran",
        "population": -1,
        "latitude": 7.95,
        "longitude": 20.7833333
    },
    {
        "name": "Ndjoukou",
        "country": "Central African Republic",
        "province": "Basse-Kotto",
        "population": -1,
        "latitude": 4.5,
        "longitude": 21.3333333
    },
    {
        "name": "Ndiré",
        "country": "Central African Republic",
        "province": "Bamingui-Bangoran",
        "population": -1,
        "latitude": 7.96086,
        "longitude": 20.728688
    },
    {
        "name": "Mingala",
        "country": "Central African Republic",
        "province": "Mbomou",
        "population": -1,
        "latitude": 5.097593,
        "longitude": 21.808002
    },
    {
        "name": "Mindou",
        "country": "Central African Republic",
        "province": "Bamingui-Bangoran",
        "population": -1,
        "latitude": 8.359885,
        "longitude": 20.597548
    },
    {
        "name": "Miamété Adoum",
        "country": "Central African Republic",
        "province": "Bamingui-Bangoran",
        "population": -1,
        "latitude": 8.6333333,
        "longitude": 20.3333333
    },
    {
        "name": "Miafondo",
        "country": "Central African Republic",
        "province": "Bamingui-Bangoran",
        "population": -1,
        "latitude": 8.206846,
        "longitude": 20.54684
    },
    {
        "name": "Mbolo Abétlanga",
        "country": "Central African Republic",
        "province": "Bamingui-Bangoran",
        "population": -1,
        "latitude": 8.3,
        "longitude": 20.6666667
    },
    {
        "name": "Manovo",
        "country": "Central African Republic",
        "province": "Bamingui-Bangoran",
        "population": -1,
        "latitude": 8.1166667,
        "longitude": 21.1166667
    },
    {
        "name": "Manégoto",
        "country": "Central African Republic",
        "province": "Bamingui-Bangoran",
        "population": -1,
        "latitude": 8.45,
        "longitude": 20.6333333
    },
    {
        "name": "Lokotoumala",
        "country": "Central African Republic",
        "province": "Bamingui-Bangoran",
        "population": -1,
        "latitude": 8.5666667,
        "longitude": 20.6166667
    },
    {
        "name": "Les Moroubas",
        "country": "Central African Republic",
        "province": "Ouaka",
        "population": -1,
        "latitude": 6.20787,
        "longitude": 20.224226
    },
    {
        "name": "Lazangueré",
        "country": "Central African Republic",
        "province": "Bamingui-Bangoran",
        "population": -1,
        "latitude": 8.3833333,
        "longitude": 20.7
    },
    {
        "name": "Krakoma",
        "country": "Central African Republic",
        "province": "Bamingui-Bangoran",
        "population": -1,
        "latitude": 8.05,
        "longitude": 21.3333333
    },
    {
        "name": "Kovongo Mia",
        "country": "Central African Republic",
        "province": "Bamingui-Bangoran",
        "population": -1,
        "latitude": 8.18544,
        "longitude": 20.460348
    },
    {
        "name": "Kouyara",
        "country": "Central African Republic",
        "province": "Bamingui-Bangoran",
        "population": -1,
        "latitude": 8.062938,
        "longitude": 21.327645
    },
    {
        "name": "Kouya Koundou",
        "country": "Central African Republic",
        "province": "Bamingui-Bangoran",
        "population": -1,
        "latitude": 8.3,
        "longitude": 20.5833333
    },
    {
        "name": "Koutoukaye",
        "country": "Central African Republic",
        "province": "Bamingui-Bangoran",
        "population": -1,
        "latitude": 8.9333333,
        "longitude": 20.7666667
    },
    {
        "name": "Koutessako",
        "country": "Central African Republic",
        "province": "Bamingui-Bangoran",
        "population": -1,
        "latitude": 8.147832,
        "longitude": 20.389626
    },
    {
        "name": "Koundi",
        "country": "Central African Republic",
        "province": "Bamingui-Bangoran",
        "population": -1,
        "latitude": 8.826233,
        "longitude": 20.704662
    },
    {
        "name": "Koukourou",
        "country": "Central African Republic",
        "province": "Nana-Grébizi",
        "population": -1,
        "latitude": 7.195963,
        "longitude": 20.014811
    },
    {
        "name": "Koudi",
        "country": "Central African Republic",
        "province": "Bamingui-Bangoran",
        "population": -1,
        "latitude": 8.65,
        "longitude": 20.3333333
    },
    {
        "name": "Kilibiti",
        "country": "Central African Republic",
        "province": "Bamingui-Bangoran",
        "population": -1,
        "latitude": 8.271819,
        "longitude": 20.700213
    },
    {
        "name": "Kemba",
        "country": "Central African Republic",
        "province": "Mbomou",
        "population": -1,
        "latitude": 4.137195,
        "longitude": 22.435678
    },
    {
        "name": "Kazanga",
        "country": "Central African Republic",
        "province": "Central African Republic",
        "population": -1,
        "latitude": 4.3,
        "longitude": 21.65
    },
    {
        "name": "Kasséna Souleyman",
        "country": "Central African Republic",
        "province": "Bamingui-Bangoran",
        "population": -1,
        "latitude": 8.5666667,
        "longitude": 20.4333333
    },
    {
        "name": "Kaligné-Souleyman",
        "country": "Central African Republic",
        "province": "Bamingui-Bangoran",
        "population": -1,
        "latitude": 8.7333333,
        "longitude": 20.1166667
    },
    {
        "name": "Kaga-Doumba",
        "country": "Central African Republic",
        "province": "Bamingui-Bangoran",
        "population": -1,
        "latitude": 8.3333333,
        "longitude": 20.5833333
    },
    {
        "name": "Grimari",
        "country": "Central African Republic",
        "province": "Ouaka",
        "population": -1,
        "latitude": 5.739482,
        "longitude": 20.05564
    },
    {
        "name": "Gouyambri",
        "country": "Central African Republic",
        "province": "Bamingui-Bangoran",
        "population": -1,
        "latitude": 8.1833333,
        "longitude": 20.9
    },
    {
        "name": "Gounda",
        "country": "Central African Republic",
        "province": "Bamingui-Bangoran",
        "population": -1,
        "latitude": 9.088797,
        "longitude": 21.237004
    },
    {
        "name": "Goumindou",
        "country": "Central African Republic",
        "province": "Bamingui-Bangoran",
        "population": -1,
        "latitude": 8.06131,
        "longitude": 20.771326
    },
    {
        "name": "Gou Mbré",
        "country": "Central African Republic",
        "province": "Bamingui-Bangoran",
        "population": -1,
        "latitude": 7.6666667,
        "longitude": 20.9
    },
    {
        "name": "Gordil",
        "country": "Central African Republic",
        "province": "Vakaga",
        "population": -1,
        "latitude": 9.61157,
        "longitude": 21.686658
    },
    {
        "name": "Gondo",
        "country": "Central African Republic",
        "province": "Bamingui-Bangoran",
        "population": -1,
        "latitude": 8.474632,
        "longitude": 20.681846
    },
    {
        "name": "Godovo",
        "country": "Central African Republic",
        "province": "Bamingui-Bangoran",
        "population": -1,
        "latitude": 8.0166667,
        "longitude": 20.75
    },
    {
        "name": "Ellé",
        "country": "Central African Republic",
        "province": "Bamingui-Bangoran",
        "population": -1,
        "latitude": 8.138878,
        "longitude": 20.380483
    },
    {
        "name": "Djema",
        "country": "Central African Republic",
        "province": "Haut-Mbomou",
        "population": -1,
        "latitude": 6.046279,
        "longitude": 25.326075
    },
    {
        "name": "Djamassinda",
        "country": "Central African Republic",
        "province": "Bamingui-Bangoran",
        "population": -1,
        "latitude": 8.531212,
        "longitude": 20.490363
    },
    {
        "name": "Djabossinda",
        "country": "Central African Republic",
        "province": "Bamingui-Bangoran",
        "population": -1,
        "latitude": 8.742721,
        "longitude": 20.678679
    },
    {
        "name": "Digba",
        "country": "Central African Republic",
        "province": "Bamingui-Bangoran",
        "population": -1,
        "latitude": 8.125929,
        "longitude": 20.369331
    },
    {
        "name": "Demi Batchi",
        "country": "Central African Republic",
        "province": "Bamingui-Bangoran",
        "population": -1,
        "latitude": 8.732803,
        "longitude": 20.055029
    },
    {
        "name": "Ddebo",
        "country": "Central African Republic",
        "province": "Basse-Kotto",
        "population": -1,
        "latitude": 4.85,
        "longitude": 21.2333333
    },
    {
        "name": "Dangou Badouma",
        "country": "Central African Republic",
        "province": "Bamingui-Bangoran",
        "population": -1,
        "latitude": 8.1833333,
        "longitude": 20.5
    },
    {
        "name": "Dangavo",
        "country": "Central African Republic",
        "province": "Bamingui-Bangoran",
        "population": -1,
        "latitude": 7.855966,
        "longitude": 20.241004
    },
    {
        "name": "Boumbala",
        "country": "Central African Republic",
        "province": "Bamingui-Bangoran",
        "population": -1,
        "latitude": 7.679932,
        "longitude": 20.206519
    },
    {
        "name": "Boul-Kinia",
        "country": "Central African Republic",
        "province": "Bamingui-Bangoran",
        "population": -1,
        "latitude": 8.982065,
        "longitude": 20.583408
    },
    {
        "name": "Boufoura",
        "country": "Central African Republic",
        "province": "Bamingui-Bangoran",
        "population": -1,
        "latitude": 7.2,
        "longitude": 20.0166667
    },
    {
        "name": "Botédjo",
        "country": "Central African Republic",
        "province": "Bamingui-Bangoran",
        "population": -1,
        "latitude": 8.2666667,
        "longitude": 20.6833333
    },
    {
        "name": "Yangou Birlo",
        "country": "Central African Republic",
        "province": "Bamingui-Bangoran",
        "population": -1,
        "latitude": 8.348335,
        "longitude": 20.670344
    },
    {
        "name": "Bir-Batouma Moussa",
        "country": "Central African Republic",
        "province": "Bamingui-Bangoran",
        "population": -1,
        "latitude": 8.549505,
        "longitude": 20.467047
    },
    {
        "name": "Bingou",
        "country": "Central African Republic",
        "province": "Bamingui-Bangoran",
        "population": -1,
        "latitude": 7.3166667,
        "longitude": 20.1666667
    },
    {
        "name": "Bilinguili",
        "country": "Central African Republic",
        "province": "Bamingui-Bangoran",
        "population": -1,
        "latitude": 8.586506,
        "longitude": 20.372244
    },
    {
        "name": "Bangoran",
        "country": "Central African Republic",
        "province": "Bamingui-Bangoran",
        "population": -1,
        "latitude": 8.080744,
        "longitude": 20.345387
    },
    {
        "name": "Bangbali-Outmane",
        "country": "Central African Republic",
        "province": "Bamingui-Bangoran",
        "population": -1,
        "latitude": 8.7,
        "longitude": 20.2333333
    },
    {
        "name": "Bangbali",
        "country": "Central African Republic",
        "province": "Bamingui-Bangoran",
        "population": -1,
        "latitude": 8.688011,
        "longitude": 20.254399
    },
    {
        "name": "Bandjipreu",
        "country": "Central African Republic",
        "province": "Bamingui-Bangoran",
        "population": -1,
        "latitude": 8.159986,
        "longitude": 20.75075
    },
    {
        "name": "Bandévé",
        "country": "Central African Republic",
        "province": "Bamingui-Bangoran",
        "population": -1,
        "latitude": 7.99546,
        "longitude": 20.301884
    },
    {
        "name": "Bamingui",
        "country": "Central African Republic",
        "province": "Bamingui-Bangoran",
        "population": -1,
        "latitude": 7.555908,
        "longitude": 20.17667
    },
    {
        "name": "Bambouti",
        "country": "Central African Republic",
        "province": "Haut-Mbomou",
        "population": -1,
        "latitude": 5.410461,
        "longitude": 27.195648
    },
    {
        "name": "Balouba Yakandjia",
        "country": "Central African Republic",
        "province": "Bamingui-Bangoran",
        "population": -1,
        "latitude": 7.4833333,
        "longitude": 20.1833333
    },
    {
        "name": "Balouba",
        "country": "Central African Republic",
        "province": "Bamingui-Bangoran",
        "population": -1,
        "latitude": 7.483438,
        "longitude": 20.169213
    },
    {
        "name": "Bakouma",
        "country": "Central African Republic",
        "province": "Mbomou",
        "population": -1,
        "latitude": 5.706111,
        "longitude": 22.779531
    },
    {
        "name": "Bakala",
        "country": "Central African Republic",
        "province": "Ouaka",
        "population": -1,
        "latitude": 6.191865,
        "longitude": 20.386269
    },
    {
        "name": "Bahamo",
        "country": "Central African Republic",
        "province": "Ouaka",
        "population": -1,
        "latitude": 6.1166667,
        "longitude": 21.1166667
    },
    {
        "name": "Am Dafok",
        "country": "Central African Republic",
        "province": "Vakaga",
        "population": -1,
        "latitude": 10.462713,
        "longitude": 23.288999
    },
    {
        "name": "Aliou",
        "country": "Central African Republic",
        "province": "Bamingui-Bangoran",
        "population": -1,
        "latitude": 8.454666,
        "longitude": 20.695595
    },
    {
        "name": "Akourousoulba",
        "country": "Central African Republic",
        "province": "Bamingui-Bangoran",
        "population": -1,
        "latitude": 8.979027,
        "longitude": 20.736432
    },
    {
        "name": "Abou-Ndoulaf",
        "country": "Central African Republic",
        "province": "Bamingui-Bangoran",
        "population": -1,
        "latitude": 8.5166667,
        "longitude": 20.5
    },
    {
        "name": "Nana Bakassa",
        "country": "Central African Republic",
        "province": "Ouham",
        "population": -1,
        "latitude": 6.991262834268806,
        "longitude": 17.2774600982666
    },
    {
        "name": "Godéambolè",
        "country": "Central African Republic",
        "province": "Mambéré-Kadéï",
        "population": -1,
        "latitude": 4.1,
        "longitude": 16.1
    },
    {
        "name": "Gaboua",
        "country": "Central African Republic",
        "province": "Mambéré-Kadéï",
        "population": -1,
        "latitude": 5.171401,
        "longitude": 16.53221
    },
    {
        "name": "Fô",
        "country": "Central African Republic",
        "province": "Nana-Mambéré",
        "population": -1,
        "latitude": 5.583333,
        "longitude": 15.133333
    },
    {
        "name": "Dobiti",
        "country": "Central African Republic",
        "province": "Ouham",
        "population": -1,
        "latitude": 6.949728,
        "longitude": 17.053033
    },
    {
        "name": "Doaka",
        "country": "Central African Republic",
        "province": "Nana-Mambéré",
        "population": -1,
        "latitude": 5.908599,
        "longitude": 15.720353
    },
    {
        "name": "Dengémo",
        "country": "Central African Republic",
        "province": "Nana-Grébizi",
        "population": -1,
        "latitude": 6.9,
        "longitude": 19.2
    },
    {
        "name": "Kagoué I",
        "country": "Central African Republic",
        "province": "Ouham",
        "population": -1,
        "latitude": 7.180778,
        "longitude": 17.589013
    },
    {
        "name": "Kagana",
        "country": "Central African Republic",
        "province": "Ouham",
        "population": -1,
        "latitude": 7.18168,
        "longitude": 17.567399
    },
    {
        "name": "Bozoro I",
        "country": "Central African Republic",
        "province": "Ouham",
        "population": -1,
        "latitude": 7.251051,
        "longitude": 18.740848
    },
    {
        "name": "Bozanou",
        "country": "Central African Republic",
        "province": "Ouham",
        "population": -1,
        "latitude": 6.714132,
        "longitude": 17.567782
    },
    {
        "name": "Bouyèye Lim",
        "country": "Central African Republic",
        "province": "Ouham-Pendé",
        "population": -1,
        "latitude": 7.257811,
        "longitude": 15.344027
    },
    {
        "name": "Bouyafé",
        "country": "Central African Republic",
        "province": "Nana-Mambéré",
        "population": -1,
        "latitude": 5.206273,
        "longitude": 15.478141
    },
    {
        "name": "Boutili",
        "country": "Central African Republic",
        "province": "Ombella-M'Poko",
        "population": -1,
        "latitude": 4.65,
        "longitude": 18.25
    },
    {
        "name": "Boussé Kana",
        "country": "Central African Republic",
        "province": "Ombella-M'Poko",
        "population": -1,
        "latitude": 5.316667,
        "longitude": 18.066667
    },
    {
        "name": "Bondona",
        "country": "Central African Republic",
        "province": "Ombella-M'Poko",
        "population": -1,
        "latitude": 5.583376,
        "longitude": 18.15829
    },
    {
        "name": "Boundjoko",
        "country": "Central African Republic",
        "province": "Lobaye",
        "population": -1,
        "latitude": 4.110476,
        "longitude": 17.196137
    },
    {
        "name": "Boukonté",
        "country": "Central African Republic",
        "province": "Ouham",
        "population": -1,
        "latitude": 6.883333,
        "longitude": 16.95
    },
    {
        "name": "Bougoua",
        "country": "Central African Republic",
        "province": "Ouaka",
        "population": -1,
        "latitude": 5.75174,
        "longitude": 19.828216
    },
    {
        "name": "Bougoin",
        "country": "Central African Republic",
        "province": "Lobaye",
        "population": -1,
        "latitude": 4.557525,
        "longitude": 17.325328
    },
    {
        "name": "Boudoua",
        "country": "Central African Republic",
        "province": "Mambéré-Kadéï",
        "population": -1,
        "latitude": 4.470474,
        "longitude": 16.354641
    },
    {
        "name": "Boudayo",
        "country": "Central African Republic",
        "province": "Ouham",
        "population": -1,
        "latitude": 6.805182,
        "longitude": 17.951316
    },
    {
        "name": "Boudalou I",
        "country": "Central African Republic",
        "province": "Ouham-Pendé",
        "population": -1,
        "latitude": 6.385271,
        "longitude": 16.924773
    },
    {
        "name": "Boubazongo",
        "country": "Central African Republic",
        "province": "Ombella-M'Poko",
        "population": -1,
        "latitude": 4.679027,
        "longitude": 17.757132
    },
    {
        "name": "Bossoum",
        "country": "Central African Republic",
        "province": "Nana-Mambéré",
        "population": -1,
        "latitude": 6.1666667,
        "longitude": 15.4
    },
    {
        "name": "Bossongo I",
        "country": "Central African Republic",
        "province": "Lobaye",
        "population": -1,
        "latitude": 4.235881,
        "longitude": 18.274401
    },
    {
        "name": "Bossemtele II",
        "country": "Central African Republic",
        "province": "Ouham-Pendé",
        "population": -1,
        "latitude": 5.675231,
        "longitude": 16.642536
    },
    {
        "name": "Bossé",
        "country": "Central African Republic",
        "province": "Ombella-M'Poko",
        "population": -1,
        "latitude": 4.482317,
        "longitude": 18.217608
    },
    {
        "name": "Bossako",
        "country": "Central African Republic",
        "province": "Lobaye",
        "population": -1,
        "latitude": 4.207137,
        "longitude": 17.860677
    },
    {
        "name": "Borossé",
        "country": "Central African Republic",
        "province": "Ouham",
        "population": -1,
        "latitude": 7.311738,
        "longitude": 16.840484
    },
    {
        "name": "Bonmbala Kété",
        "country": "Central African Republic",
        "province": "Ouham",
        "population": -1,
        "latitude": 6.993404,
        "longitude": 16.878967
    },
    {
        "name": "Bonganou",
        "country": "Central African Republic",
        "province": "Lobaye",
        "population": -1,
        "latitude": 4.277953,
        "longitude": 18.273491
    },
    {
        "name": "Bombiti",
        "country": "Central African Republic",
        "province": "Lobaye",
        "population": -1,
        "latitude": 4.182664,
        "longitude": 17.668559
    },
    {
        "name": "Bombalou",
        "country": "Central African Republic",
        "province": "Ouham-Pendé",
        "population": -1,
        "latitude": 5.967344,
        "longitude": 16.547329
    },
    {
        "name": "Bomasana",
        "country": "Central African Republic",
        "province": "Ombella-M'Poko",
        "population": -1,
        "latitude": 5.572833,
        "longitude": 17.61031
    },
    {
        "name": "Bolaï I",
        "country": "Central African Republic",
        "province": "Lobaye",
        "population": -1,
        "latitude": 4.305358,
        "longitude": 17.391516
    },
    {
        "name": "Bokouma",
        "country": "Central African Republic",
        "province": "Lobaye",
        "population": -1,
        "latitude": 4.082304,
        "longitude": 17.768546
    },
    {
        "name": "Bokanga",
        "country": "Central African Republic",
        "province": "Lobaye",
        "population": -1,
        "latitude": 3.9,
        "longitude": 18.1666667
    },
    {
        "name": "Boguéré",
        "country": "Central African Republic",
        "province": "Ouham",
        "population": -1,
        "latitude": 7.16932,
        "longitude": 17.463802
    },
    {
        "name": "Bogouna",
        "country": "Central African Republic",
        "province": "Ouham",
        "population": -1,
        "latitude": 6.632713,
        "longitude": 17.547737
    },
    {
        "name": "Bougournou",
        "country": "Central African Republic",
        "province": "Ombella-M'Poko",
        "population": -1,
        "latitude": 5.184499,
        "longitude": 18.896451
    },
    {
        "name": "Boghéra I",
        "country": "Central African Republic",
        "province": "Lobaye",
        "population": -1,
        "latitude": 4.884538,
        "longitude": 17.151846
    },
    {
        "name": "Bogbom",
        "country": "Central African Republic",
        "province": "Ombella-M'Poko",
        "population": -1,
        "latitude": 5.207514,
        "longitude": 17.712837
    },
    {
        "name": "Bogba",
        "country": "Central African Republic",
        "province": "Ombella-M'Poko",
        "population": -1,
        "latitude": 5.35,
        "longitude": 17.9333333
    },
    {
        "name": "Boganli",
        "country": "Central African Republic",
        "province": "Ombella-M'Poko",
        "population": -1,
        "latitude": 5.413983,
        "longitude": 18.324828
    },
    {
        "name": "Bodoupa",
        "country": "Central African Republic",
        "province": "Ombella-M'Poko",
        "population": -1,
        "latitude": 5.709672,
        "longitude": 17.602574
    },
    {
        "name": "Bodoué",
        "country": "Central African Republic",
        "province": "Ombella-M'Poko",
        "population": -1,
        "latitude": 5.167255,
        "longitude": 17.741785
    },
    {
        "name": "Bodoua",
        "country": "Central African Republic",
        "province": "Ombella-M'Poko",
        "population": -1,
        "latitude": 5.4,
        "longitude": 17.9666667
    },
    {
        "name": "Bodiki",
        "country": "Central African Republic",
        "province": "Ombella-M'Poko",
        "population": -1,
        "latitude": 5.2833333,
        "longitude": 17.1333333
    },
    {
        "name": "Boda I",
        "country": "Central African Republic",
        "province": "Ombella-M'Poko",
        "population": -1,
        "latitude": 4.489253,
        "longitude": 18.098636
    },
    {
        "name": "Bobassa I",
        "country": "Central African Republic",
        "province": "Ombella-M'Poko",
        "population": -1,
        "latitude": 4.14038,
        "longitude": 18.605663
    },
    {
        "name": "Bobalya",
        "country": "Central African Republic",
        "province": "Ouham-Pendé",
        "population": -1,
        "latitude": 6.042549,
        "longitude": 16.545372
    },
    {
        "name": "Boane II",
        "country": "Central African Republic",
        "province": "Ouham-Pendé",
        "population": -1,
        "latitude": 5.62829,
        "longitude": 16.601161
    },
    {
        "name": "Boan",
        "country": "Central African Republic",
        "province": "Ouham-Pendé",
        "population": -1,
        "latitude": 6.33476,
        "longitude": 16.878082
    },
    {
        "name": "Boali",
        "country": "Central African Republic",
        "province": "Ombella-M'Poko",
        "population": 5876,
        "latitude": 4.800482,
        "longitude": 18.127472
    },
    {
        "name": "Bira Boyaré",
        "country": "Central African Republic",
        "province": "Nana-Mambéré",
        "population": -1,
        "latitude": 5.58368,
        "longitude": 14.792233
    },
    {
        "name": "Bezangala",
        "country": "Central African Republic",
        "province": "Ouham-Pendé",
        "population": -1,
        "latitude": 7.59466,
        "longitude": 16.330933
    },
    {
        "name": "Bembor II",
        "country": "Central African Republic",
        "province": "Ouham-Pendé",
        "population": -1,
        "latitude": 7.49998,
        "longitude": 16.419514
    },
    {
        "name": "Bembor III",
        "country": "Central African Republic",
        "province": "Ouham-Pendé",
        "population": -1,
        "latitude": 7.523132,
        "longitude": 16.274608
    },
    {
        "name": "Bemaïdé",
        "country": "Central African Republic",
        "province": "Ouham-Pendé",
        "population": -1,
        "latitude": 7.618102,
        "longitude": 16.551304
    },
    {
        "name": "Bekouna",
        "country": "Central African Republic",
        "province": "Ouham-Pendé",
        "population": -1,
        "latitude": 7.551742,
        "longitude": 16.291323
    },
    {
        "name": "Beïna-Boïmo",
        "country": "Central African Republic",
        "province": "Mambéré-Kadéï",
        "population": -1,
        "latitude": 4.047344,
        "longitude": 15.552442
    },
    {
        "name": "Bendengué I",
        "country": "Central African Republic",
        "province": "Ouham-Pendé",
        "population": -1,
        "latitude": 7.275242,
        "longitude": 16.705323
    },
    {
        "name": "Beboulo",
        "country": "Central African Republic",
        "province": "Ouham-Pendé",
        "population": -1,
        "latitude": 7.625797,
        "longitude": 16.453975
    },
    {
        "name": "Gbayagalé-Djoukou",
        "country": "Central African Republic",
        "province": "Kémo",
        "population": -1,
        "latitude": 5.125619,
        "longitude": 19.406511
    },
    {
        "name": "Bayanga Kadeï",
        "country": "Central African Republic",
        "province": "Mambéré-Kadéï",
        "population": -1,
        "latitude": 3.920068,
        "longitude": 15.393656
    },
    {
        "name": "Bavara I",
        "country": "Central African Republic",
        "province": "Ouham-Pendé",
        "population": -1,
        "latitude": 6.777488,
        "longitude": 16.603803
    },
    {
        "name": "Batara",
        "country": "Central African Republic",
        "province": "Ouham-Pendé",
        "population": -1,
        "latitude": 5.901673,
        "longitude": 16.130271
    },
    {
        "name": "Bartoua",
        "country": "Central African Republic",
        "province": "Nana-Mambéré",
        "population": -1,
        "latitude": 5.472146,
        "longitude": 15.04505
    },
    {
        "name": "Banga",
        "country": "Central African Republic",
        "province": "Mambéré-Kadéï",
        "population": -1,
        "latitude": 4.698997,
        "longitude": 14.727694
    },
    {
        "name": "Bandiforo",
        "country": "Central African Republic",
        "province": "Mambéré-Kadéï",
        "population": -1,
        "latitude": 4.036243,
        "longitude": 15.158028
    },
    {
        "name": "Bambari",
        "country": "Central African Republic",
        "province": "Lobaye",
        "population": -1,
        "latitude": 4.211361,
        "longitude": 17.583433
    },
    {
        "name": "Bambam",
        "country": "Central African Republic",
        "province": "Mambéré-Kadéï",
        "population": -1,
        "latitude": 4.1333333,
        "longitude": 16.05
    },
    {
        "name": "Bamara",
        "country": "Central African Republic",
        "province": "Mambéré-Kadéï",
        "population": -1,
        "latitude": 4.16771,
        "longitude": 16.229482
    },
    {
        "name": "Bakoui",
        "country": "Central African Republic",
        "province": "Ouham-Pendé",
        "population": -1,
        "latitude": 6.318432,
        "longitude": 16.412116
    },
    {
        "name": "Bakala",
        "country": "Central African Republic",
        "province": "Lobaye",
        "population": -1,
        "latitude": 3.725387,
        "longitude": 17.55583
    },
    {
        "name": "Bacbaya",
        "country": "Central African Republic",
        "province": "Lobaye",
        "population": -1,
        "latitude": 3.827508,
        "longitude": 17.46661
    },
    {
        "name": "Asoulémaka",
        "country": "Central African Republic",
        "province": "Kémo",
        "population": -1,
        "latitude": 6.02828,
        "longitude": 19.656274
    },
    {
        "name": "Ancien Village de Gara",
        "country": "Central African Republic",
        "province": "Bamingui-Bangoran",
        "population": -1,
        "latitude": 8.55,
        "longitude": 19.683333
    },
    {
        "name": "Ancien Sapoua",
        "country": "Central African Republic",
        "province": "Mambéré-Kadéï",
        "population": -1,
        "latitude": 4.0166667,
        "longitude": 15.95
    },
    {
        "name": "Zoumanga I",
        "country": "Central African Republic",
        "province": "Ouham",
        "population": -1,
        "latitude": 7.525873,
        "longitude": 18.64473
    },
    {
        "name": "Zoukombo",
        "country": "Central African Republic",
        "province": "Nana-Mambéré",
        "population": -1,
        "latitude": 5.836079,
        "longitude": 14.684332
    },
    {
        "name": "Zeckébawane",
        "country": "Central African Republic",
        "province": "Mambéré-Kadéï",
        "population": -1,
        "latitude": 4.456336,
        "longitude": 16.931812
    },
    {
        "name": "Zaorodinga",
        "country": "Central African Republic",
        "province": "Mambéré-Kadéï",
        "population": -1,
        "latitude": 4.697142,
        "longitude": 15.229178
    },
    {
        "name": "Yao",
        "country": "Central African Republic",
        "province": "Kémo",
        "population": -1,
        "latitude": 5.308828,
        "longitude": 19.600445
    },
    {
        "name": "Yanguékota",
        "country": "Central African Republic",
        "province": "Ouaka",
        "population": -1,
        "latitude": 5.839871,
        "longitude": 19.920005
    },
    {
        "name": "Yakamona",
        "country": "Central African Republic",
        "province": "Ouham",
        "population": -1,
        "latitude": 6.877428,
        "longitude": 17.722629
    },
    {
        "name": "Yatimbo",
        "country": "Central African Republic",
        "province": "Ombella-M'Poko",
        "population": -1,
        "latitude": 4.108748,
        "longitude": 18.394653
    },
    {
        "name": "Vafio I",
        "country": "Central African Republic",
        "province": "Ouham",
        "population": -1,
        "latitude": 7.407135,
        "longitude": 18.408592
    },
    {
        "name": "Téyéngué",
        "country": "Central African Republic",
        "province": "Ouham",
        "population": -1,
        "latitude": 7.018678,
        "longitude": 17.139768
    },
    {
        "name": "Taoungué",
        "country": "Central African Republic",
        "province": "Ouaka",
        "population": -1,
        "latitude": 5.696578,
        "longitude": 19.875373
    },
    {
        "name": "Tiguéda",
        "country": "Central African Republic",
        "province": "Ouham",
        "population": -1,
        "latitude": 7.008122,
        "longitude": 17.357446
    },
    {
        "name": "Seyango",
        "country": "Central African Republic",
        "province": "Ombella-M'Poko",
        "population": -1,
        "latitude": 5.135924,
        "longitude": 17.153838
    },
    {
        "name": "Sébokélé",
        "country": "Central African Republic",
        "province": "Ombella-M'Poko",
        "population": -1,
        "latitude": 4.217787,
        "longitude": 18.397829
    },
    {
        "name": "Sakani",
        "country": "Central African Republic",
        "province": "Nana-Mambéré",
        "population": -1,
        "latitude": 5.324595,
        "longitude": 14.892842
    },
    {
        "name": "Sabo",
        "country": "Central African Republic",
        "province": "Ouham",
        "population": -1,
        "latitude": 7.877794,
        "longitude": 17.771407
    },
    {
        "name": "Pamgakora",
        "country": "Central African Republic",
        "province": "Ouaka",
        "population": -1,
        "latitude": 5.758804,
        "longitude": 19.698838
    },
    {
        "name": "Ouondoro",
        "country": "Central African Republic",
        "province": "Kémo",
        "population": -1,
        "latitude": 5.67552,
        "longitude": 19.082447
    },
    {
        "name": "Ouga",
        "country": "Central African Republic",
        "province": "Ouham",
        "population": -1,
        "latitude": 6.285417,
        "longitude": 17.449652
    },
    {
        "name": "Ouayombo",
        "country": "Central African Republic",
        "province": "Mambéré-Kadéï",
        "population": -1,
        "latitude": 5,
        "longitude": 15.8666667
    },
    {
        "name": "Ouatere",
        "country": "Central African Republic",
        "province": "Kémo",
        "population": -1,
        "latitude": 5.50879,
        "longitude": 19.127302
    },
    {
        "name": "Ouanou",
        "country": "Central African Republic",
        "province": "Nana-Mambéré",
        "population": -1,
        "latitude": 5.130778,
        "longitude": 15.827005
    },
    {
        "name": "Ouandago",
        "country": "Central African Republic",
        "province": "Nana-Grébizi",
        "population": -1,
        "latitude": 7.252518,
        "longitude": 18.85461
    },
    {
        "name": "Ouambilo",
        "country": "Central African Republic",
        "province": "Sangha-Mbaéré",
        "population": -1,
        "latitude": 3.648093,
        "longitude": 16.137695
    },
    {
        "name": "Nzéka",
        "country": "Central African Republic",
        "province": "Mambéré-Kadéï",
        "population": -1,
        "latitude": 4.374159,
        "longitude": 17.014329
    },
    {
        "name": "Nguio-Bouar",
        "country": "Central African Republic",
        "province": "Nana-Mambéré",
        "population": -1,
        "latitude": 5.225926,
        "longitude": 14.728173
    },
    {
        "name": "Ndiba Bouassa",
        "country": "Central African Republic",
        "province": "Nana-Mambéré",
        "population": -1,
        "latitude": 5.82424,
        "longitude": 14.954184
    },
    {
        "name": "Ndéké I",
        "country": "Central African Republic",
        "province": "Ouham-Pendé",
        "population": -1,
        "latitude": 6.965892,
        "longitude": 16.440516
    },
    {
        "name": "Ndali",
        "country": "Central African Republic",
        "province": "Ouham",
        "population": -1,
        "latitude": 6.944883,
        "longitude": 17.304056
    },
    {
        "name": "Molongo",
        "country": "Central African Republic",
        "province": "Sangha-Mbaéré",
        "population": -1,
        "latitude": 2.4333333,
        "longitude": 16.1166667
    },
    {
        "name": "Mokélo",
        "country": "Central African Republic",
        "province": "Ombella-M'Poko",
        "population": -1,
        "latitude": 4.067164,
        "longitude": 18.63709
    },
    {
        "name": "Mboula",
        "country": "Central African Republic",
        "province": "Mambéré-Kadéï",
        "population": -1,
        "latitude": 4.441274,
        "longitude": 16.491397
    },
    {
        "name": "Mbo",
        "country": "Central African Republic",
        "province": "Ouham-Pendé",
        "population": -1,
        "latitude": 7.466491,
        "longitude": 15.721143
    },
    {
        "name": "Mbelou",
        "country": "Central African Republic",
        "province": "Mambéré-Kadéï",
        "population": -1,
        "latitude": 4.718071,
        "longitude": 16.110556
    },
    {
        "name": "Mbali",
        "country": "Central African Republic",
        "province": "Ouham",
        "population": -1,
        "latitude": 7.196422,
        "longitude": 17.674428
    },
    {
        "name": "Mbako-Ngounga",
        "country": "Central African Republic",
        "province": "Mambéré-Kadéï",
        "population": -1,
        "latitude": 4.468131,
        "longitude": 15.854351
    },
    {
        "name": "Mbaka",
        "country": "Central African Republic",
        "province": "Mambéré-Kadéï",
        "population": -1,
        "latitude": 4.8777,
        "longitude": 15.97641
    },
    {
        "name": "Mangué",
        "country": "Central African Republic",
        "province": "Kémo",
        "population": -1,
        "latitude": 5.45384,
        "longitude": 19.097779
    },
    {
        "name": "Makoundja Wali",
        "country": "Central African Republic",
        "province": "Mambéré-Kadéï",
        "population": -1,
        "latitude": 4.3333333,
        "longitude": 16.7666667
    },
    {
        "name": "Koumbé",
        "country": "Central African Republic",
        "province": "Mambéré-Kadéï",
        "population": -1,
        "latitude": 4.608264,
        "longitude": 16.249358
    },
    {
        "name": "Kouloungou I",
        "country": "Central African Republic",
        "province": "Ouham",
        "population": -1,
        "latitude": 7.747593,
        "longitude": 18.276973
    },
    {
        "name": "Gotokon",
        "country": "Central African Republic",
        "province": "Ouham",
        "population": -1,
        "latitude": 7.095431,
        "longitude": 17.309118
    },
    {
        "name": "Koroma",
        "country": "Central African Republic",
        "province": "Kémo",
        "population": -1,
        "latitude": 5.156484,
        "longitude": 19.445342
    },
    {
        "name": "Kellé",
        "country": "Central African Republic",
        "province": "Ouham-Pendé",
        "population": -1,
        "latitude": 7.214917,
        "longitude": 15.74059
    },
    {
        "name": "Kakosso",
        "country": "Central African Republic",
        "province": "Ouham",
        "population": -1,
        "latitude": 7.464847,
        "longitude": 18.131492
    },
    {
        "name": "Irma Bouéki II",
        "country": "Central African Republic",
        "province": "Mambéré-Kadéï",
        "population": -1,
        "latitude": 5.157883,
        "longitude": 16.393501
    },
    {
        "name": "Yakoli",
        "country": "Central African Republic",
        "province": "Ombella-M'Poko",
        "population": -1,
        "latitude": 4.24792,
        "longitude": 18.564024
    },
    {
        "name": "Guili",
        "country": "Central African Republic",
        "province": "Ouham-Pendé",
        "population": -1,
        "latitude": 7.7166667,
        "longitude": 16.4833333
    },
    {
        "name": "Gribingi Morobanda",
        "country": "Central African Republic",
        "province": "Nana-Grébizi",
        "population": -1,
        "latitude": 6.52905,
        "longitude": 19.834034
    },
    {
        "name": "Goussoumalé",
        "country": "Central African Republic",
        "province": "Ouaka",
        "population": -1,
        "latitude": 5.925332,
        "longitude": 19.798893
    },
    {
        "name": "Zouginindja",
        "country": "Central African Republic",
        "province": "Basse-Kotto",
        "population": -1,
        "latitude": 5.405359,
        "longitude": 21.674908
    },
    {
        "name": "Zalo",
        "country": "Central African Republic",
        "province": "Mbomou",
        "population": -1,
        "latitude": 4.249567,
        "longitude": 22.536172
    },
    {
        "name": "Yapassira",
        "country": "Central African Republic",
        "province": "Haut-Mbomou",
        "population": -1,
        "latitude": 5.1666667,
        "longitude": 26.5333333
    },
    {
        "name": "Yakotoko",
        "country": "Central African Republic",
        "province": "Haut-Mbomou",
        "population": -1,
        "latitude": 5.321525,
        "longitude": 25.324644
    },
    {
        "name": "Tiessou",
        "country": "Central African Republic",
        "province": "Basse-Kotto",
        "population": -1,
        "latitude": 4.5166667,
        "longitude": 21.45
    },
    {
        "name": "Tambourah",
        "country": "Central African Republic",
        "province": "Haut-Mbomou",
        "population": -1,
        "latitude": 5.171933,
        "longitude": 25.201265
    },
    {
        "name": "Takobanda",
        "country": "Central African Republic",
        "province": "Ouaka",
        "population": -1,
        "latitude": 6.4333333,
        "longitude": 20.45
    },
    {
        "name": "Makamba",
        "country": "Central African Republic",
        "province": "Mbomou",
        "population": -1,
        "latitude": 5.1666667,
        "longitude": 23.5
    },
    {
        "name": "Madonguere",
        "country": "Central African Republic",
        "province": "Ouaka",
        "population": -1,
        "latitude": 6.626523,
        "longitude": 21.098315
    },
    {
        "name": "Madjia",
        "country": "Central African Republic",
        "province": "Vakaga",
        "population": -1,
        "latitude": 9.831471,
        "longitude": 22.533174
    },
    {
        "name": "Madianikao",
        "country": "Central African Republic",
        "province": "Mbomou",
        "population": -1,
        "latitude": 5.003032,
        "longitude": 22.512191
    },
    {
        "name": "Mabo",
        "country": "Central African Republic",
        "province": "Haut-Mbomou",
        "population": -1,
        "latitude": 6.4166667,
        "longitude": 25.25
    },
    {
        "name": "Kitessa",
        "country": "Central African Republic",
        "province": "Haut-Mbomou",
        "population": -1,
        "latitude": 5.35775,
        "longitude": 25.363437
    },
    {
        "name": "Kazima",
        "country": "Central African Republic",
        "province": "Haut-Mbomou",
        "population": -1,
        "latitude": 5.264912,
        "longitude": 26.187124
    },
    {
        "name": "Karafala",
        "country": "Central African Republic",
        "province": "Mbomou",
        "population": -1,
        "latitude": 4.247077,
        "longitude": 22.145272
    },
    {
        "name": "Ianikao",
        "country": "Central African Republic",
        "province": "Mbomou",
        "population": -1,
        "latitude": 4.951877,
        "longitude": 22.554186
    },
    {
        "name": "Hyrra Banda",
        "country": "Central African Republic",
        "province": "Haute-Kotto",
        "population": -1,
        "latitude": 5.953922,
        "longitude": 22.070519
    },
    {
        "name": "Guédimba",
        "country": "Central African Republic",
        "province": "Haut-Mbomou",
        "population": -1,
        "latitude": 5.666667,
        "longitude": 25.3
    },
    {
        "name": "Gréfodé",
        "country": "Central African Republic",
        "province": "Ouaka",
        "population": -1,
        "latitude": 5.728034,
        "longitude": 21.538594
    },
    {
        "name": "Godéré",
        "country": "Central African Republic",
        "province": "Bamingui-Bangoran",
        "population": -1,
        "latitude": 7.914811,
        "longitude": 20.828699
    },
    {
        "name": "Denguiro",
        "country": "Central African Republic",
        "province": "Mbomou",
        "population": -1,
        "latitude": 5.632657,
        "longitude": 23.037204
    },
    {
        "name": "Dahal Azrak",
        "country": "Central African Republic",
        "province": "Vakaga",
        "population": -1,
        "latitude": 10.386618,
        "longitude": 22.801412
    },
    {
        "name": "Catambour",
        "country": "Central African Republic",
        "province": "Mbomou",
        "population": -1,
        "latitude": 6.1666667,
        "longitude": 24.55
    },
    {
        "name": "Bozégi",
        "country": "Central African Republic",
        "province": "Mbomou",
        "population": -1,
        "latitude": 4.505795,
        "longitude": 22.686317
    },
    {
        "name": "Boromata",
        "country": "Central African Republic",
        "province": "Vakaga",
        "population": -1,
        "latitude": 10.083622,
        "longitude": 21.927295
    },
    {
        "name": "Bonguia",
        "country": "Central African Republic",
        "province": "Mbomou",
        "population": -1,
        "latitude": 4.831953,
        "longitude": 23.148457
    },
    {
        "name": "Bissingou II",
        "country": "Central African Republic",
        "province": "Bamingui-Bangoran",
        "population": -1,
        "latitude": 8.258846,
        "longitude": 20.568169
    },
    {
        "name": "Birini",
        "country": "Central African Republic",
        "province": "Haute-Kotto",
        "population": -1,
        "latitude": 7.862325,
        "longitude": 22.397429
    },
    {
        "name": "Bembé Ouadaka",
        "country": "Central African Republic",
        "province": "Haut-Mbomou",
        "population": -1,
        "latitude": 5.733333,
        "longitude": 26.116667
    },
    {
        "name": "Bassigbiri",
        "country": "Central African Republic",
        "province": "Haut-Mbomou",
        "population": -1,
        "latitude": 5.320485,
        "longitude": 26.908383
    },
    {
        "name": "Banabongo",
        "country": "Central African Republic",
        "province": "Mbomou",
        "population": -1,
        "latitude": 5.085691,
        "longitude": 22.7671
    },
    {
        "name": "Atongo Bakari",
        "country": "Central African Republic",
        "province": "Ouaka",
        "population": -1,
        "latitude": 5.810252,
        "longitude": 21.588925
    },
    {
        "name": "Ancien Zémongo",
        "country": "Central African Republic",
        "province": "Haut-Mbomou",
        "population": -1,
        "latitude": 7.123313,
        "longitude": 24.959569
    },
    {
        "name": "Ngou Ouassa",
        "country": "Central African Republic",
        "province": "Bamingui-Bangoran",
        "population": -1,
        "latitude": 7.519675,
        "longitude": 20.173373
    },
    {
        "name": "Ancien Goubéré",
        "country": "Central African Republic",
        "province": "Haut-Mbomou",
        "population": -1,
        "latitude": 5.85,
        "longitude": 26.766667
    },
    {
        "name": "Alakhaï",
        "country": "Central African Republic",
        "province": "Haut-Mbomou",
        "population": -1,
        "latitude": 5.3,
        "longitude": 25
    },
    {
        "name": "Adelaye",
        "country": "Central African Republic",
        "province": "Haute-Kotto",
        "population": -1,
        "latitude": 7.1166667,
        "longitude": 22.8166667
    },
    {
        "name": "Goni",
        "country": "Central African Republic",
        "province": "Ouham-Pendé",
        "population": -1,
        "latitude": 6.561527,
        "longitude": 16.029946
    },
    {
        "name": "Gonékou",
        "country": "Central African Republic",
        "province": "Ouham",
        "population": -1,
        "latitude": 7.9,
        "longitude": 18.033333
    },
    {
        "name": "Gofo",
        "country": "Central African Republic",
        "province": "Mambéré-Kadéï",
        "population": -1,
        "latitude": 4.228241,
        "longitude": 15.871344
    },
    {
        "name": "Gobo",
        "country": "Central African Republic",
        "province": "Nana-Grébizi",
        "population": -1,
        "latitude": 6.698147,
        "longitude": 19.495744
    },
    {
        "name": "Guissibanda",
        "country": "Central African Republic",
        "province": "Ouaka",
        "population": -1,
        "latitude": 5.902067,
        "longitude": 19.63392
    },
    {
        "name": "Kouadingara",
        "country": "Central African Republic",
        "province": "Ouham",
        "population": -1,
        "latitude": 7.518233,
        "longitude": 17.58577
    },
    {
        "name": "Guimoudo",
        "country": "Central African Republic",
        "province": "Ouaka",
        "population": -1,
        "latitude": 5.879806,
        "longitude": 19.634758
    },
    {
        "name": "Guigui",
        "country": "Central African Republic",
        "province": "Kémo",
        "population": -1,
        "latitude": 5.136517,
        "longitude": 19.229444
    },
    {
        "name": "Guigui II",
        "country": "Central African Republic",
        "province": "Kémo",
        "population": -1,
        "latitude": 5.174797,
        "longitude": 19.467949
    },
    {
        "name": "Gibada",
        "country": "Central African Republic",
        "province": "Ouaka",
        "population": -1,
        "latitude": 6.0166667,
        "longitude": 19.75
    },
    {
        "name": "Gédzé",
        "country": "Central African Republic",
        "province": "Nana-Mambéré",
        "population": -1,
        "latitude": 6.139761,
        "longitude": 14.813768
    },
    {
        "name": "Gbadéré",
        "country": "Central African Republic",
        "province": "Ombella-M'Poko",
        "population": -1,
        "latitude": 5.6166667,
        "longitude": 17.8833333
    },
    {
        "name": "Gbada I",
        "country": "Central African Republic",
        "province": "Kémo",
        "population": -1,
        "latitude": 5.132982,
        "longitude": 19.724222
    },
    {
        "name": "Gazipama",
        "country": "Central African Republic",
        "province": "Lobaye",
        "population": -1,
        "latitude": 4.901382,
        "longitude": 17.146291
    },
    {
        "name": "Gazibeya",
        "country": "Central African Republic",
        "province": "Lobaye",
        "population": -1,
        "latitude": 4.935569,
        "longitude": 17.01323
    },
    {
        "name": "Ngawa",
        "country": "Central African Republic",
        "province": "Ouham",
        "population": -1,
        "latitude": 5.985763,
        "longitude": 17.476308
    },
    {
        "name": "Gasamba",
        "country": "Central African Republic",
        "province": "Kémo",
        "population": -1,
        "latitude": 6.3333333,
        "longitude": 19.0833333
    },
    {
        "name": "Ngarou Mbéré",
        "country": "Central African Republic",
        "province": "Ouham-Pendé",
        "population": -1,
        "latitude": 7.272572,
        "longitude": 15.411224
    },
    {
        "name": "Gangé",
        "country": "Central African Republic",
        "province": "Nana-Grébizi",
        "population": -1,
        "latitude": 6.663508,
        "longitude": 19.701826
    },
    {
        "name": "Ganga",
        "country": "Central African Republic",
        "province": "Mambéré-Kadéï",
        "population": -1,
        "latitude": 4.407099,
        "longitude": 16.35325
    },
    {
        "name": "Gallo-Boyo",
        "country": "Central African Republic",
        "province": "Nana-Mambéré",
        "population": -1,
        "latitude": 5.800486,
        "longitude": 15.17085
    },
    {
        "name": "Ngala",
        "country": "Central African Republic",
        "province": "Ouham",
        "population": -1,
        "latitude": 7.227687,
        "longitude": 17.399507
    },
    {
        "name": "Gara",
        "country": "Central African Republic",
        "province": "Kémo",
        "population": -1,
        "latitude": 5.690746,
        "longitude": 19.277288
    },
    {
        "name": "Foudakpa",
        "country": "Central African Republic",
        "province": "Nana-Grébizi",
        "population": -1,
        "latitude": 7.0666667,
        "longitude": 19.0666667
    },
    {
        "name": "Féré",
        "country": "Central African Republic",
        "province": "Ombella-M'Poko",
        "population": -1,
        "latitude": 5.344465,
        "longitude": 19.020214
    },
    {
        "name": "Faya II",
        "country": "Central African Republic",
        "province": "Nana-Grébizi",
        "population": -1,
        "latitude": 6.760461,
        "longitude": 19.276518
    },
    {
        "name": "Faranzala",
        "country": "Central African Republic",
        "province": "Ouham",
        "population": -1,
        "latitude": 7.3666667,
        "longitude": 18.7166667
    },
    {
        "name": "Fambé",
        "country": "Central African Republic",
        "province": "Nana-Mambéré",
        "population": -1,
        "latitude": 5.785847,
        "longitude": 15.073403
    },
    {
        "name": "Bodjomo Kété",
        "country": "Central African Republic",
        "province": "Ouham",
        "population": -1,
        "latitude": 7.332807,
        "longitude": 17.21685
    },
    {
        "name": "Douzou",
        "country": "Central African Republic",
        "province": "Ouham-Pendé",
        "population": -1,
        "latitude": 7.090997,
        "longitude": 15.676967
    },
    {
        "name": "Doumounou",
        "country": "Central African Republic",
        "province": "Kémo",
        "population": -1,
        "latitude": 5.564336,
        "longitude": 19.109394
    },
    {
        "name": "Doro",
        "country": "Central African Republic",
        "province": "Mambéré-Kadéï",
        "population": -1,
        "latitude": 4.529886,
        "longitude": 15.810179
    },
    {
        "name": "Dongoundza",
        "country": "Central African Republic",
        "province": "Sangha-Mbaéré",
        "population": -1,
        "latitude": 3.669751,
        "longitude": 16.769223
    },
    {
        "name": "Dongbé I",
        "country": "Central African Republic",
        "province": "Ombella-M'Poko",
        "population": -1,
        "latitude": 5.101207,
        "longitude": 18.580847
    },
    {
        "name": "Donfèla",
        "country": "Central African Republic",
        "province": "Ouham",
        "population": -1,
        "latitude": 6.951338,
        "longitude": 16.945634
    },
    {
        "name": "Domandere",
        "country": "Central African Republic",
        "province": "Kémo",
        "population": -1,
        "latitude": 5.8666667,
        "longitude": 19.15
    },
    {
        "name": "Dokodélé",
        "country": "Central African Republic",
        "province": "Ouham-Pendé",
        "population": -1,
        "latitude": 7.059834,
        "longitude": 15.673568
    },
    {
        "name": "Dohoukota",
        "country": "Central African Republic",
        "province": "Ouham",
        "population": -1,
        "latitude": 6.048766,
        "longitude": 17.457069
    },
    {
        "name": "Dodoa",
        "country": "Central African Republic",
        "province": "Ouham-Pendé",
        "population": -1,
        "latitude": 7.276157,
        "longitude": 16.711385
    },
    {
        "name": "Dokoyo",
        "country": "Central African Republic",
        "province": "Ouham",
        "population": -1,
        "latitude": 7.467815,
        "longitude": 18.111982
    },
    {
        "name": "Dobamoundou",
        "country": "Central African Republic",
        "province": "Ouham",
        "population": -1,
        "latitude": 7.16406,
        "longitude": 17.781235
    },
    {
        "name": "Mama",
        "country": "Central African Republic",
        "province": "Ouham-Pendé",
        "population": -1,
        "latitude": 7.317826,
        "longitude": 15.525311
    },
    {
        "name": "Djousa",
        "country": "Central African Republic",
        "province": "Ouham-Pendé",
        "population": -1,
        "latitude": 6.848363,
        "longitude": 16.12459
    },
    {
        "name": "Djembé",
        "country": "Central African Republic",
        "province": "Mambéré-Kadéï",
        "population": -1,
        "latitude": 4.917884,
        "longitude": 15.846837
    },
    {
        "name": "Djangola",
        "country": "Central African Republic",
        "province": "Ouaka",
        "population": -1,
        "latitude": 5.758049,
        "longitude": 19.818165
    },
    {
        "name": "Djabo",
        "country": "Central African Republic",
        "province": "Nana-Mambéré",
        "population": -1,
        "latitude": 5.3333333,
        "longitude": 15.8
    },
    {
        "name": "Dingéré",
        "country": "Central African Republic",
        "province": "Kémo",
        "population": -1,
        "latitude": 6.0333333,
        "longitude": 19.1333333
    },
    {
        "name": "Dimba I",
        "country": "Central African Republic",
        "province": "Ouham",
        "population": -1,
        "latitude": 7.470765,
        "longitude": 18.456025
    },
    {
        "name": "Dika",
        "country": "Central African Republic",
        "province": "Nana-Mambéré",
        "population": -1,
        "latitude": 5.985344,
        "longitude": 15.192255
    },
    {
        "name": "Desa",
        "country": "Central African Republic",
        "province": "Ouham",
        "population": -1,
        "latitude": 7.025539,
        "longitude": 17.385761
    },
    {
        "name": "Denguema",
        "country": "Central African Republic",
        "province": "Ouham-Pendé",
        "population": -1,
        "latitude": 7.473675,
        "longitude": 16.081979
    },
    {
        "name": "Dambi",
        "country": "Central African Republic",
        "province": "Nana-Grébizi",
        "population": -1,
        "latitude": 7.026637,
        "longitude": 19.192471
    },
    {
        "name": "Déko-Dakpa",
        "country": "Central African Republic",
        "province": "Kémo",
        "population": -1,
        "latitude": 5.39786,
        "longitude": 19.646456
    },
    {
        "name": "Déko-Togbo",
        "country": "Central African Republic",
        "province": "Kémo",
        "population": -1,
        "latitude": 5.299167,
        "longitude": 19.570881
    },
    {
        "name": "Doko",
        "country": "Central African Republic",
        "province": "Ouham-Pendé",
        "population": -1,
        "latitude": 7.139297,
        "longitude": 15.523974
    },
    {
        "name": "Déffe",
        "country": "Central African Republic",
        "province": "Ouham",
        "population": -1,
        "latitude": 7.439712,
        "longitude": 16.877647
    },
    {
        "name": "Daozou",
        "country": "Central African Republic",
        "province": "Mambéré-Kadéï",
        "population": -1,
        "latitude": 4.4666667,
        "longitude": 15.15
    },
    {
        "name": "Dawé",
        "country": "Central African Republic",
        "province": "Ouham",
        "population": -1,
        "latitude": 7.022479,
        "longitude": 18.338377
    },
    {
        "name": "Dangué",
        "country": "Central African Republic",
        "province": "Ouaka",
        "population": -1,
        "latitude": 5.600819,
        "longitude": 19.777853
    },
    {
        "name": "Dangba",
        "country": "Central African Republic",
        "province": "Kémo",
        "population": -1,
        "latitude": 5.8666667,
        "longitude": 19.1333333
    },
    {
        "name": "Ndanga",
        "country": "Central African Republic",
        "province": "Ouham-Pendé",
        "population": -1,
        "latitude": 7.411049,
        "longitude": 15.503124
    },
    {
        "name": "Dandi",
        "country": "Central African Republic",
        "province": "Ouham-Pendé",
        "population": -1,
        "latitude": 7.424544,
        "longitude": 15.968047
    },
    {
        "name": "Dambouyassi",
        "country": "Central African Republic",
        "province": "Ouaka",
        "population": -1,
        "latitude": 5.704238,
        "longitude": 19.906629
    },
    {
        "name": "Bama",
        "country": "Central African Republic",
        "province": "Ouham-Pendé",
        "population": -1,
        "latitude": 7.312882,
        "longitude": 15.936515
    },
    {
        "name": "Dakpa",
        "country": "Central African Republic",
        "province": "Ouaka",
        "population": -1,
        "latitude": 6.1,
        "longitude": 19.95
    },
    {
        "name": "Ndafourou",
        "country": "Central African Republic",
        "province": "Ouham",
        "population": -1,
        "latitude": 7.260321,
        "longitude": 18.67066
    },
    {
        "name": "Korozien",
        "country": "Central African Republic",
        "province": "Ouham-Pendé",
        "population": -1,
        "latitude": 7.294219,
        "longitude": 16.68198
    },
    {
        "name": "Kolo",
        "country": "Central African Republic",
        "province": "Ouham",
        "population": -1,
        "latitude": 7.03772,
        "longitude": 17.458337
    },
    {
        "name": "Chen-Boupané",
        "country": "Central African Republic",
        "province": "Mambéré-Kadéï",
        "population": -1,
        "latitude": 4.783333,
        "longitude": 16.616667
    },
    {
        "name": "Cepa Campement",
        "country": "Central African Republic",
        "province": "Mambéré-Kadéï",
        "population": -1,
        "latitude": 4.25,
        "longitude": 15.1833333
    },
    {
        "name": "Karé",
        "country": "Central African Republic",
        "province": "Ouham",
        "population": -1,
        "latitude": 7.191713,
        "longitude": 17.959358
    },
    {
        "name": "Karangara",
        "country": "Central African Republic",
        "province": "Ouham",
        "population": -1,
        "latitude": 7.038407,
        "longitude": 17.430623
    },
    {
        "name": "Karamba",
        "country": "Central African Republic",
        "province": "Ouham",
        "population": -1,
        "latitude": 7.183394,
        "longitude": 17.726136
    },
    {
        "name": "Kangoro",
        "country": "Central African Republic",
        "province": "Ouham",
        "population": -1,
        "latitude": 7.191967,
        "longitude": 17.641374
    },
    {
        "name": "Kangomo",
        "country": "Central African Republic",
        "province": "Ouham",
        "population": -1,
        "latitude": 7.186688,
        "longitude": 17.613946
    },
    {
        "name": "Tao",
        "country": "Central African Republic",
        "province": "Ouham-Pendé",
        "population": -1,
        "latitude": 7.21522,
        "longitude": 15.510583
    },
    {
        "name": "Campement Ngoéré",
        "country": "Central African Republic",
        "province": "Mambéré-Kadéï",
        "population": -1,
        "latitude": 4.7166667,
        "longitude": 15.5666667
    },
    {
        "name": "Mialouto",
        "country": "Central African Republic",
        "province": "Bamingui-Bangoran",
        "population": -1,
        "latitude": 8.878385,
        "longitude": 19.212027
    },
    {
        "name": "Bilssémé",
        "country": "Central African Republic",
        "province": "Ouham-Pendé",
        "population": -1,
        "latitude": 7.061376,
        "longitude": 15.593929
    },
    {
        "name": "Camp Bato",
        "country": "Central African Republic",
        "province": "Mambéré-Kadéï",
        "population": -1,
        "latitude": 4.3666667,
        "longitude": 16.0666667
    },
    {
        "name": "Kagoro",
        "country": "Central African Republic",
        "province": "Ouham",
        "population": -1,
        "latitude": 7.138287,
        "longitude": 17.874516
    },
    {
        "name": "Kakoundja",
        "country": "Central African Republic",
        "province": "Ouham",
        "population": -1,
        "latitude": 7.19222,
        "longitude": 17.662721
    },
    {
        "name": "Kakambia",
        "country": "Central African Republic",
        "province": "Ouham",
        "population": -1,
        "latitude": 7.364787,
        "longitude": 17.040376
    },
    {
        "name": "Kabodo",
        "country": "Central African Republic",
        "province": "Ouham",
        "population": -1,
        "latitude": 7.193693,
        "longitude": 17.650249
    },
    {
        "name": "Bugwala",
        "country": "Central African Republic",
        "province": "Ombella-M'Poko",
        "population": -1,
        "latitude": 5.6166667,
        "longitude": 17.9
    },
    {
        "name": "Ouala",
        "country": "Central African Republic",
        "province": "Ouham-Pendé",
        "population": -1,
        "latitude": 7.410349,
        "longitude": 16.049941
    },
    {
        "name": "Brounou",
        "country": "Central African Republic",
        "province": "Kémo",
        "population": -1,
        "latitude": 5.106022,
        "longitude": 19.839468
    },
    {
        "name": "Bozoy I",
        "country": "Central African Republic",
        "province": "Ouham-Pendé",
        "population": -1,
        "latitude": 7.220574,
        "longitude": 16.418519
    },
    {
        "name": "Bozoro",
        "country": "Central African Republic",
        "province": "Ouham",
        "population": -1,
        "latitude": 6.929804,
        "longitude": 18.314721
    },
    {
        "name": "Bozoro",
        "country": "Central African Republic",
        "province": "Ouham",
        "population": -1,
        "latitude": 6.310639,
        "longitude": 17.681204
    },
    {
        "name": "Bozogwé I",
        "country": "Central African Republic",
        "province": "Ouham-Pendé",
        "population": -1,
        "latitude": 6.766667,
        "longitude": 15.533333
    },
    {
        "name": "Bozinga",
        "country": "Central African Republic",
        "province": "Ombella-M'Poko",
        "population": -1,
        "latitude": 5.581681,
        "longitude": 16.558125
    },
    {
        "name": "Bozanzon",
        "country": "Central African Republic",
        "province": "Ouham",
        "population": -1,
        "latitude": 6.98608,
        "longitude": 16.796055
    },
    {
        "name": "Boyokara",
        "country": "Central African Republic",
        "province": "Ouham",
        "population": -1,
        "latitude": 7.007956,
        "longitude": 17.49165
    },
    {
        "name": "Boyalido I",
        "country": "Central African Republic",
        "province": "Ouham-Pendé",
        "population": -1,
        "latitude": 6.191016,
        "longitude": 16.278672
    },
    {
        "name": "Boyali",
        "country": "Central African Republic",
        "province": "Ombella-M'Poko",
        "population": -1,
        "latitude": 4.590211,
        "longitude": 17.612709
    },