[
    {
        "name": "Copenhagen",
        "country": "Denmark",
        "province": "Capital Region",
        "population": 1153615,
        "latitude": 55.6759389272801,
        "longitude": 12.5655269622803
    },
    {
        "name": "Frederiksberg",
        "country": "Denmark",
        "province": "Capital Region",
        "population": 95029,
        "latitude": 55.6793750060019,
        "longitude": 12.5346279144287
    },
    {
        "name": "Vejle",
        "country": "Denmark",
        "province": "South Denmark",
        "population": 60231,
        "latitude": 55.7092706640481,
        "longitude": 9.53570365905762
    },
    {
        "name": "Odense",
        "country": "Denmark",
        "province": "South Denmark",
        "population": 180863,
        "latitude": 55.3959381271672,
        "longitude": 10.3883135318756
    },
    {
        "name": "Aalborg",
        "country": "Denmark",
        "province": "North Denmark",
        "population": 142937,
        "latitude": 57.0479990421469,
        "longitude": 9.91870164871216
    },
    {
        "name": "Viborg",
        "country": "Denmark",
        "province": "Central Jutland",
        "population": 41239,
        "latitude": 56.45318910196371,
        "longitude": 9.402011632919312
    },
    {
        "name": "Roskilde",
        "country": "Denmark",
        "province": "Zealand",
        "population": 51916,
        "latitude": 55.64151915174411,
        "longitude": 12.080347537994385
    },
    {
        "name": "Aarhus",
        "country": "Denmark",
        "province": "Central Jutland",
        "population": 285273,
        "latitude": 56.1567365813134,
        "longitude": 10.2107620239258
    },
    {
        "name": "Hillerød",
        "country": "Denmark",
        "province": "Capital Region",
        "population": 35357,
        "latitude": 55.927909,
        "longitude": 12.300806
    },
    {
        "name": "Esbjerg",
        "country": "Denmark",
        "province": "South Denmark",
        "population": 71698,
        "latitude": 55.470276,
        "longitude": 8.451869
    },
    {
        "name": "Svendborg",
        "country": "Denmark",
        "province": "South Denmark",
        "population": 27300,
        "latitude": 55.059819360964845,
        "longitude": 10.606771409511566
    },
    {
        "name": "Sorø",
        "country": "Denmark",
        "province": "Zealand",
        "population": 7999,
        "latitude": 55.43183962617909,
        "longitude": 11.555471420288086
    },
    {
        "name": "Soenderborg",
        "country": "Denmark",
        "province": "South Denmark",
        "population": 27766,
        "latitude": 54.90896,
        "longitude": 9.78917
    },
    {
        "name": "Silkeborg",
        "country": "Denmark",
        "province": "Central Jutland",
        "population": 49747,
        "latitude": 56.1697004358941,
        "longitude": 9.54508066177368
    },
    {
        "name": "Rødovre Municipality",
        "country": "Denmark",
        "province": "Capital Region",
        "population": 40652,
        "latitude": 55.6806211149001,
        "longitude": 12.4537324905396
    },
    {
        "name": "Randers",
        "country": "Denmark",
        "province": "Central Jutland",
        "population": 62802,
        "latitude": 56.460704,
        "longitude": 10.03639
    },
    {
        "name": "Nakskov",
        "country": "Denmark",
        "province": "Zealand",
        "population": 12495,
        "latitude": 54.83038,
        "longitude": 11.13567
    },
    {
        "name": "Køge",
        "country": "Denmark",
        "province": "Zealand",
        "population": 38304,
        "latitude": 55.45801738910123,
        "longitude": 12.182137370109558
    },
    {
        "name": "Kolding",
        "country": "Denmark",
        "province": "South Denmark",
        "population": 61638,
        "latitude": 55.49039948236232,
        "longitude": 9.472164809703827
    },
    {
        "name": "Hvidovre",
        "country": "Denmark",
        "province": "Capital Region",
        "population": 53527,
        "latitude": 55.657186413939,
        "longitude": 12.4736398458481
    },
    {
        "name": "Horsens",
        "country": "Denmark",
        "province": "Central Jutland",
        "population": 61074,
        "latitude": 55.86065823586629,
        "longitude": 9.850337505340576
    },
    {
        "name": "Hørsholm",
        "country": "Denmark",
        "province": "Capital Region",
        "population": 47680,
        "latitude": 55.88098,
        "longitude": 12.501106
    },
    {
        "name": "Ballerup Municipality",
        "country": "Denmark",
        "province": "Capital Region",
        "population": 40000,
        "latitude": 55.7316456911196,
        "longitude": 12.3632830381393
    },
    {
        "name": "Allerød Municipality",
        "country": "Denmark",
        "province": "Capital Region",
        "population": 25867,
        "latitude": 55.870347,
        "longitude": 12.357372
    },
    {
        "name": "Albertslund",
        "country": "Denmark",
        "province": "Capital Region",
        "population": 30000,
        "latitude": 55.6569140460036,
        "longitude": 12.3638141155243
    },
    {
        "name": "Herning",
        "country": "Denmark",
        "province": "Central Jutland",
        "population": 50565,
        "latitude": 56.13615,
        "longitude": 8.97662
    },
    {
        "name": "Elsinore",
        "country": "Denmark",
        "province": "Capital Region",
        "population": 35048,
        "latitude": 56.03606493729136,
        "longitude": 12.613602876663208
    },
    {
        "name": "Fredericia",
        "country": "Denmark",
        "province": "South Denmark",
        "population": 40886,
        "latitude": 55.565676328037526,
        "longitude": 9.752565622329712
    },
    {
        "name": "Vojens",
        "country": "Denmark",
        "province": "South Denmark",
        "population": 7475,
        "latitude": 55.246393,
        "longitude": 9.306035
    },
    {
        "name": "Vissenbjerg",
        "country": "Denmark",
        "province": "South Denmark",
        "population": 3232,
        "latitude": 55.384825,
        "longitude": 10.137836
    },
    {
        "name": "Videbæk",
        "country": "Denmark",
        "province": "Central Jutland",
        "population": 4242,
        "latitude": 56.087595,
        "longitude": 8.628517
    },
    {
        "name": "Vejen Municipality",
        "country": "Denmark",
        "province": "South Denmark",
        "population": 8525,
        "latitude": 55.48117,
        "longitude": 9.137948
    },
    {
        "name": "Varde",
        "country": "Denmark",
        "province": "South Denmark",
        "population": 14039,
        "latitude": 55.621120529005985,
        "longitude": 8.48069429397583
    },
    {
        "name": "Tønder",
        "country": "Denmark",
        "province": "South Denmark",
        "population": 16401,
        "latitude": 54.9330598082844,
        "longitude": 8.86673927307129
    },
    {
        "name": "Tinglev",
        "country": "Denmark",
        "province": "South Denmark",
        "population": 2731,
        "latitude": 54.93788,
        "longitude": 9.25547
    },
    {
        "name": "Them",
        "country": "Denmark",
        "province": "Central Jutland",
        "population": 2376,
        "latitude": 56.0942576373958,
        "longitude": 9.54866409301758
    },
    {
        "name": "Stubbekøbing",
        "country": "Denmark",
        "province": "Zealand",
        "population": 2268,
        "latitude": 54.8887527372959,
        "longitude": 12.041015625
    },
    {
        "name": "Struer Municipality",
        "country": "Denmark",
        "province": "Central Jutland",
        "population": 11317,
        "latitude": 56.49205,
        "longitude": 8.59397
    },
    {
        "name": "Slangerup",
        "country": "Denmark",
        "province": "Capital Region",
        "population": 6826,
        "latitude": 55.85,
        "longitude": 12.1833333
    },
    {
        "name": "Slagelse",
        "country": "Denmark",
        "province": "Zealand",
        "population": 31896,
        "latitude": 55.40276161812005,
        "longitude": 11.354590058326721
    },
    {
        "name": "Skævinge",
        "country": "Denmark",
        "province": "Capital Region",
        "population": 2613,
        "latitude": 55.90785,
        "longitude": 12.15036
    },
    {
        "name": "Skørping",
        "country": "Denmark",
        "province": "North Denmark",
        "population": 2971,
        "latitude": 56.83626,
        "longitude": 9.892549
    },
    {
        "name": "Skjern",
        "country": "Denmark",
        "province": "Central Jutland",
        "population": 7145,
        "latitude": 55.95,
        "longitude": 8.5
    },
    {
        "name": "Skive",
        "country": "Denmark",
        "province": "Central Jutland",
        "population": 20190,
        "latitude": 56.56699,
        "longitude": 9.02707
    },
    {
        "name": "Skanderborg",
        "country": "Denmark",
        "province": "Central Jutland",
        "population": 13543,
        "latitude": 56.03434,
        "longitude": 9.93177
    },
    {
        "name": "Skagen",
        "country": "Denmark",
        "province": "North Denmark",
        "population": 7571,
        "latitude": 57.72093331471784,
        "longitude": 10.583937764167786
    },
    {
        "name": "Sindal",
        "country": "Denmark",
        "province": "North Denmark",
        "population": 3095,
        "latitude": 57.47117386320269,
        "longitude": 10.203123092651367
    },
    {
        "name": "Sakskøbing",
        "country": "Denmark",
        "province": "Zealand",
        "population": 4595,
        "latitude": 54.79970463706625,
        "longitude": 11.625992059707642
    },
    {
        "name": "Rønnede",
        "country": "Denmark",
        "province": "Zealand",
        "population": 2746,
        "latitude": 55.257102,
        "longitude": 12.021245
    },
    {
        "name": "Rønne",
        "country": "Denmark",
        "province": "Capital Region",
        "population": 13807,
        "latitude": 55.100907,
        "longitude": 14.706636
    },
    {
        "name": "Rødby",
        "country": "Denmark",
        "province": "Zealand",
        "population": 1983,
        "latitude": 54.694952,
        "longitude": 11.38885
    },
    {
        "name": "Ringsted",
        "country": "Denmark",
        "province": "Zealand",
        "population": 23086,
        "latitude": 55.442599150219465,
        "longitude": 11.790105700492859
    },
    {
        "name": "Ribe",
        "country": "Denmark",
        "province": "South Denmark",
        "population": 8257,
        "latitude": 55.330511505908774,
        "longitude": 8.769664764404297
    },
    {
        "name": "Præstø",
        "country": "Denmark",
        "province": "Zealand",
        "population": 3857,
        "latitude": 55.12374,
        "longitude": 12.04477
    },
    {
        "name": "Pandrup",
        "country": "Denmark",
        "province": "North Denmark",
        "population": 2862,
        "latitude": 57.221467235448095,
        "longitude": 9.67569351196289
    },
    {
        "name": "Ølgod",
        "country": "Denmark",
        "province": "South Denmark",
        "population": 3705,
        "latitude": 55.806823,
        "longitude": 8.628588
    },
    {
        "name": "Odder",
        "country": "Denmark",
        "province": "Central Jutland",
        "population": 12454,
        "latitude": 55.9731258009686,
        "longitude": 10.1529979705811
    },
    {
        "name": "Nyborg",
        "country": "Denmark",
        "province": "South Denmark",
        "population": 17525,
        "latitude": 55.312735559536556,
        "longitude": 10.789636373519897
    },
    {
        "name": "Næstved",
        "country": "Denmark",
        "province": "Zealand",
        "population": 44331,
        "latitude": 55.22991789680976,
        "longitude": 11.760917901992798
    },
    {
        "name": "Nordborg",
        "country": "Denmark",
        "province": "South Denmark",
        "population": 5709,
        "latitude": 55.057319,
        "longitude": 9.740799
    },
    {
        "name": "Nørre Alslev",
        "country": "Denmark",
        "province": "Zealand",
        "population": 2379,
        "latitude": 54.897835,
        "longitude": 11.884136
    },
    {
        "name": "Mariager",
        "country": "Denmark",
        "province": "North Denmark",
        "population": 2506,
        "latitude": 56.649851,
        "longitude": 9.975148
    },
    {
        "name": "Løgumkloster",
        "country": "Denmark",
        "province": "South Denmark",
        "population": 3480,
        "latitude": 55.059411,
        "longitude": 8.955079
    },
    {
        "name": "Løgstør",
        "country": "Denmark",
        "province": "North Denmark",
        "population": 3967,
        "latitude": 56.962451,
        "longitude": 9.258304
    },
    {
        "name": "Korsør",
        "country": "Denmark",
        "province": "Zealand",
        "population": 14463,
        "latitude": 55.3299256127534,
        "longitude": 11.1385703086853
    },
    {
        "name": "Kalundborg",
        "country": "Denmark",
        "province": "Zealand",
        "population": 16211,
        "latitude": 55.67954438235814,
        "longitude": 11.088638305664062
    },
    {
        "name": "Jægerspris",
        "country": "Denmark",
        "province": "Capital Region",
        "population": 4020,
        "latitude": 55.85248,
        "longitude": 11.98565
    },
    {
        "name": "Jelling",
        "country": "Denmark",
        "province": "South Denmark",
        "population": 3658,
        "latitude": 55.755883,
        "longitude": 9.425798
    },
    {
        "name": "Ishøj",
        "country": "Denmark",
        "province": "Capital Region",
        "population": 19453,
        "latitude": 55.615425431128465,
        "longitude": 12.351819276809692
    },
    {
        "name": "Hundested",
        "country": "Denmark",
        "province": "Capital Region",
        "population": 8543,
        "latitude": 55.96397,
        "longitude": 11.85044
    },
    {
        "name": "Birkerød",
        "country": "Denmark",
        "province": "Capital Region",
        "population": 20877,
        "latitude": 55.84759024581777,
        "longitude": 12.427908182144165
    },
    {
        "name": "Billund",
        "country": "Denmark",
        "province": "South Denmark",
        "population": 6725,
        "latitude": 55.7334866675726,
        "longitude": 9.10785377025604
    },
    {
        "name": "Augustenborg",
        "country": "Denmark",
        "province": "South Denmark",
        "population": 3171,
        "latitude": 54.952008,
        "longitude": 9.872163
    },
    {
        "name": "Aabenraa",
        "country": "Denmark",
        "province": "South Denmark",
        "population": 16401,
        "latitude": 55.0443426591741,
        "longitude": 9.41740751266479
    },
    {
        "name": "Høng",
        "country": "Denmark",
        "province": "Zealand",
        "population": 4355,
        "latitude": 55.50736,
        "longitude": 11.28873
    },
    {
        "name": "Højer",
        "country": "Denmark",
        "province": "South Denmark",
        "population": 1102,
        "latitude": 54.963439,
        "longitude": 8.698528
    },
    {
        "name": "Holstebro",
        "country": "Denmark",
        "province": "Central Jutland",
        "population": 32072,
        "latitude": 56.36009155377193,
        "longitude": 8.616070747375488
    },
    {
        "name": "Holeby",
        "country": "Denmark",
        "province": "Zealand",
        "population": 1400,
        "latitude": 54.711475,
        "longitude": 11.464165
    },
    {
        "name": "Holbæk",
        "country": "Denmark",
        "province": "Zealand",
        "population": 29608,
        "latitude": 55.7175,
        "longitude": 11.71279
    },
    {
        "name": "Hobro",
        "country": "Denmark",
        "province": "North Denmark",
        "population": 12071,
        "latitude": 56.643061589319764,
        "longitude": 9.790288209915161
    },
    {
        "name": "Hjørring",
        "country": "Denmark",
        "province": "North Denmark",
        "population": 25644,
        "latitude": 57.464169442516,
        "longitude": 9.982291460037231
    },
    {
        "name": "Hirtshals",
        "country": "Denmark",
        "province": "North Denmark",
        "population": 5532,
        "latitude": 57.588117332847936,
        "longitude": 9.959224462509155
    },
    {
        "name": "Hanstholm",
        "country": "Denmark",
        "province": "North Denmark",
        "population": 2104,
        "latitude": 57.11548,
        "longitude": 8.6172
    },
    {
        "name": "Hammel",
        "country": "Denmark",
        "province": "Central Jutland",
        "population": 6854,
        "latitude": 56.257615,
        "longitude": 9.863157
    },
    {
        "name": "Hadsund",
        "country": "Denmark",
        "province": "North Denmark",
        "population": 5066,
        "latitude": 56.714822902401465,
        "longitude": 10.116820335388184
    },
    {
        "name": "Haderslev",
        "country": "Denmark",
        "province": "South Denmark",
        "population": 22011,
        "latitude": 55.24943,
        "longitude": 9.48771
    },
    {
        "name": "Grenå",
        "country": "Denmark",
        "province": "Central Jutland",
        "population": 14176,
        "latitude": 56.415782749491825,
        "longitude": 10.878245830535889
    },
    {
        "name": "Gråsten",
        "country": "Denmark",
        "province": "South Denmark",
        "population": 4274,
        "latitude": 54.919179,
        "longitude": 9.595232
    },
    {
        "name": "Gørlev",
        "country": "Denmark",
        "province": "Zealand",
        "population": 2397,
        "latitude": 55.5392558932959,
        "longitude": 11.2270832061768
    },
    {
        "name": "Glostrup Municipality",
        "country": "Denmark",
        "province": "Capital Region",
        "population": 23128,
        "latitude": 55.666597,
        "longitude": 12.403768
    },
    {
        "name": "Glamsbjerg",
        "country": "Denmark",
        "province": "South Denmark",
        "population": 3344,
        "latitude": 55.27237,
        "longitude": 10.104829
    },
    {
        "name": "Gjern",
        "country": "Denmark",
        "province": "Central Jutland",
        "population": 1398,
        "latitude": 56.230232031830674,
        "longitude": 9.73912239074707
    },
    {
        "name": "Gentofte Municipality",
        "country": "Denmark",
        "province": "Capital Region",
        "population": -1,
        "latitude": 55.749029,
        "longitude": 12.546008
    },
    {
        "name": "Gedved",
        "country": "Denmark",
        "province": "Central Jutland",
        "population": 2336,
        "latitude": 55.93085,
        "longitude": 9.846008
    },
    {
        "name": "Fuglebjerg",
        "country": "Denmark",
        "province": "Zealand",
        "population": 2268,
        "latitude": 55.30604309737329,
        "longitude": 11.547660827636719
    },
    {
        "name": "Frederiksværk",
        "country": "Denmark",
        "province": "Capital Region",
        "population": 12718,
        "latitude": 55.970730266349946,
        "longitude": 12.022497653961182
    },
    {
        "name": "Frederikssund",
        "country": "Denmark",
        "province": "Capital Region",
        "population": 16850,
        "latitude": 55.83956359931351,
        "longitude": 12.06895887851715
    },
    {
        "name": "Frederikshavn",
        "country": "Denmark",
        "province": "North Denmark",
        "population": 22672,
        "latitude": 57.440734690776445,
        "longitude": 10.536607503890991
    },
    {
        "name": "Fjerritslev",
        "country": "Denmark",
        "province": "North Denmark",
        "population": 3326,
        "latitude": 57.08822,
        "longitude": 9.26622
    },
    {
        "name": "Farsø",
        "country": "Denmark",
        "province": "North Denmark",
        "population": 3349,
        "latitude": 56.772758,
        "longitude": 9.339255
    },
    {
        "name": "Fakse",
        "country": "Denmark",
        "province": "Zealand",
        "population": 4246,
        "latitude": 55.25561,
        "longitude": 12.11926
    },
    {
        "name": "Egtved",
        "country": "Denmark",
        "province": "South Denmark",
        "population": 2446,
        "latitude": 55.61613,
        "longitude": 9.30763
    },
    {
        "name": "Dronninglund",
        "country": "Denmark",
        "province": "North Denmark",
        "population": 3487,
        "latitude": 57.160353,
        "longitude": 10.29287
    },
    {
        "name": "Dragør",
        "country": "Denmark",
        "province": "Capital Region",
        "population": 12401,
        "latitude": 55.5928,
        "longitude": 12.67221
    },
    {
        "name": "Christiansfeld",
        "country": "Denmark",
        "province": "South Denmark",
        "population": 2977,
        "latitude": 55.358172,
        "longitude": 9.487014
    },
    {
        "name": "Brovst",
        "country": "Denmark",
        "province": "North Denmark",
        "population": 2624,
        "latitude": 57.0975,
        "longitude": 9.52264
    },
    {
        "name": "Brønderslev",
        "country": "Denmark",
        "province": "North Denmark",
        "population": 12549,
        "latitude": 57.270209140234456,
        "longitude": 9.941017627716064
    },
    {
        "name": "Broager",
        "country": "Denmark",
        "province": "South Denmark",
        "population": 3238,
        "latitude": 54.8894,
        "longitude": 9.67465
    },
    {
        "name": "Bredebro",
        "country": "Denmark",
        "province": "South Denmark",
        "population": 1412,
        "latitude": 55.05483,
        "longitude": 8.829317
    },
    {
        "name": "Brande",
        "country": "Denmark",
        "province": "Central Jutland",
        "population": 7449,
        "latitude": 55.94316,
        "longitude": 9.12798
    },
    {
        "name": "Bramming",
        "country": "Denmark",
        "province": "South Denmark",
        "population": 7111,
        "latitude": 55.469456,
        "longitude": 8.700074
    },
    {
        "name": "Vrå",
        "country": "Denmark",
        "province": "North Denmark",
        "population": 2509,
        "latitude": 57.3537,
        "longitude": 9.94176
    },
    {
        "name": "Vordingborg",
        "country": "Denmark",
        "province": "Zealand",
        "population": 17868,
        "latitude": 55.008005078052555,
        "longitude": 11.910569071769714
    },
    {
        "name": "Vorbasse",
        "country": "Denmark",
        "province": "South Denmark",
        "population": 1300,
        "latitude": 55.629919,
        "longitude": 9.082386
    },
    {
        "name": "Vodskov",
        "country": "Denmark",
        "province": "North Denmark",
        "population": 4663,
        "latitude": 57.108539,
        "longitude": 10.022151
    },
    {
        "name": "Vinderup",
        "country": "Denmark",
        "province": "Central Jutland",
        "population": 3077,
        "latitude": 56.48176,
        "longitude": 8.77991
    },
    {
        "name": "Vildbjerg",
        "country": "Denmark",
        "province": "Central Jutland",
        "population": 3773,
        "latitude": 56.2,
        "longitude": 8.7666667
    },
    {
        "name": "Viby",
        "country": "Denmark",
        "province": "Zealand",
        "population": 4773,
        "latitude": 55.548724,
        "longitude": 12.023912
    },
    {
        "name": "Væggerløse",
        "country": "Denmark",
        "province": "Zealand",
        "population": 1333,
        "latitude": 54.712418,
        "longitude": 11.925452
    },
    {
        "name": "Vestbjerg",
        "country": "Denmark",
        "province": "North Denmark",
        "population": 2888,
        "latitude": 57.131656,
        "longitude": 9.959421
    },
    {
        "name": "Vemb",
        "country": "Denmark",
        "province": "Central Jutland",
        "population": 1276,
        "latitude": 56.3423,
        "longitude": 8.337488
    },
    {
        "name": "Vanløse",
        "country": "Denmark",
        "province": "Capital Region",
        "population": 37115,
        "latitude": 55.683611,
        "longitude": 12.48713
    },
    {
        "name": "Vamdrup",
        "country": "Denmark",
        "province": "South Denmark",
        "population": 4809,
        "latitude": 55.427637,
        "longitude": 9.284347
    },
    {
        "name": "Vallensbæk",
        "country": "Denmark",
        "province": "Capital Region",
        "population": 16515,
        "latitude": 55.62199,
        "longitude": 12.38511
    },
    {
        "name": "Valby",
        "country": "Denmark",
        "province": "Capital Region",
        "population": 46161,
        "latitude": 55.66613,
        "longitude": 12.51388
    },
    {
        "name": "Ulstrup",
        "country": "Denmark",
        "province": "Central Jutland",
        "population": 1963,
        "latitude": 56.389942,
        "longitude": 9.793545
    },
    {
        "name": "Ullerslev",
        "country": "Denmark",
        "province": "South Denmark",
        "population": 2640,
        "latitude": 55.361722,
        "longitude": 10.651905
    },
    {
        "name": "Ulfborg",
        "country": "Denmark",
        "province": "Central Jutland",
        "population": 1994,
        "latitude": 56.267253,
        "longitude": 8.321668
    },
    {
        "name": "Tylstrup",
        "country": "Denmark",
        "province": "North Denmark",
        "population": 1258,
        "latitude": 57.194702,
        "longitude": 9.953085
    },
    {
        "name": "Tune",
        "country": "Denmark",
        "province": "Zealand",
        "population": 5300,
        "latitude": 55.59287,
        "longitude": 12.16968
    },
    {
        "name": "Trige",
        "country": "Denmark",
        "province": "Central Jutland",
        "population": 3191,
        "latitude": 56.252906,
        "longitude": 10.148399
    },
    {
        "name": "Tranekær",
        "country": "Denmark",
        "province": "South Denmark",
        "population": 12367,
        "latitude": 54.997603,
        "longitude": 10.843814
    },
    {
        "name": "Tranbjerg",
        "country": "Denmark",
        "province": "Central Jutland",
        "population": 7307,
        "latitude": 56.09519,
        "longitude": 10.13605
    },
    {
        "name": "Tølløse",
        "country": "Denmark",
        "province": "Zealand",
        "population": 3759,
        "latitude": 55.612505,
        "longitude": 11.770344
    },
    {
        "name": "Tjæreborg",
        "country": "Denmark",
        "province": "South Denmark",
        "population": 2904,
        "latitude": 55.464574,
        "longitude": 8.579683
    },
    {
        "name": "Tistrup",
        "country": "Denmark",
        "province": "South Denmark",
        "population": 1433,
        "latitude": 55.72363,
        "longitude": 8.61028
    },
    {
        "name": "Thyborøn",
        "country": "Denmark",
        "province": "Central Jutland",
        "population": 1890,
        "latitude": 56.698459,
        "longitude": 8.21238
    },
    {
        "name": "Thorsø",
        "country": "Denmark",
        "province": "Central Jutland",
        "population": 1751,
        "latitude": 56.299529,
        "longitude": 9.789157
    },
    {
        "name": "Thisted",
        "country": "Denmark",
        "province": "North Denmark",
        "population": 13461,
        "latitude": 56.9552254432748,
        "longitude": 8.69490623474121
    },
    {
        "name": "Taastrup",
        "country": "Denmark",
        "province": "Capital Region",
        "population": 35238,
        "latitude": 55.65006,
        "longitude": 12.3016
    },
    {
        "name": "Tårs",
        "country": "Denmark",
        "province": "North Denmark",
        "population": 1873,
        "latitude": 57.383333,
        "longitude": 10.116667
    },
    {
        "name": "Tårnby",
        "country": "Denmark",
        "province": "Capital Region",
        "population": 10000,
        "latitude": 55.63029758927799,
        "longitude": 12.600352764129639
    },
    {
        "name": "Tarm",
        "country": "Denmark",
        "province": "Central Jutland",
        "population": 4010,
        "latitude": 55.908615,
        "longitude": 8.530412
    },
    {
        "name": "Svinninge",
        "country": "Denmark",
        "province": "Zealand",
        "population": 2376,
        "latitude": 55.721114,
        "longitude": 11.465466
    },
    {
        "name": "Svenstrup",
        "country": "Denmark",
        "province": "North Denmark",
        "population": 7650,
        "latitude": 56.972304,
        "longitude": 9.848058
    },
    {
        "name": "Svebølle",
        "country": "Denmark",
        "province": "Zealand",
        "population": 2186,
        "latitude": 55.651834,
        "longitude": 11.286578
    },
    {
        "name": "Svaneke",
        "country": "Denmark",
        "province": "Capital Region",
        "population": 1079,
        "latitude": 55.13573941069205,
        "longitude": 15.14139175415039
    },
    {
        "name": "Sunds",
        "country": "Denmark",
        "province": "Central Jutland",
        "population": 3525,
        "latitude": 56.20743,
        "longitude": 9.01386
    },
    {
        "name": "Sulsted",
        "country": "Denmark",
        "province": "North Denmark",
        "population": 1524,
        "latitude": 57.163426,
        "longitude": 9.956673
    },
    {
        "name": "Storvorde",
        "country": "Denmark",
        "province": "North Denmark",
        "population": 3425,
        "latitude": 57.003916,
        "longitude": 10.101252
    },
    {
        "name": "Store Merløse",
        "country": "Denmark",
        "province": "Zealand",
        "population": 1184,
        "latitude": 55.543823,
        "longitude": 11.713028
    },
    {
        "name": "Stensved",
        "country": "Denmark",
        "province": "Zealand",
        "population": 1585,
        "latitude": 54.997137,
        "longitude": 12.029834
    },
    {
        "name": "Stenløse",
        "country": "Denmark",
        "province": "Capital Region",
        "population": 19998,
        "latitude": 55.768281244688175,
        "longitude": 12.197227478027344
    },
    {
        "name": "Stenlille",
        "country": "Denmark",
        "province": "Zealand",
        "population": 1905,
        "latitude": 55.53888,
        "longitude": 11.5912
    },
    {
        "name": "Stege",
        "country": "Denmark",
        "province": "Zealand",
        "population": 3792,
        "latitude": 54.987043,
        "longitude": 12.284609
    },
    {
        "name": "Søndersø",
        "country": "Denmark",
        "province": "South Denmark",
        "population": 3319,
        "latitude": 55.485263,
        "longitude": 10.255404
    },
    {
        "name": "Sønder Bjert",
        "country": "Denmark",
        "province": "South Denmark",
        "population": 2025,
        "latitude": 55.452724,
        "longitude": 9.56741
    },
    {
        "name": "Søllested",
        "country": "Denmark",
        "province": "Zealand",
        "population": 1345,
        "latitude": 54.810193,
        "longitude": 11.271231
    },
    {
        "name": "Søllerød",
        "country": "Denmark",
        "province": "Capital Region",
        "population": -1,
        "latitude": 55.809784,
        "longitude": 12.501361
    },
    {
        "name": "Solrød Strand",
        "country": "Denmark",
        "province": "Zealand",
        "population": 17337,
        "latitude": 55.532850656309,
        "longitude": 12.2222685813904
    },
    {
        "name": "Solbjerg",
        "country": "Denmark",
        "province": "Central Jutland",
        "population": 4240,
        "latitude": 56.042705594991254,
        "longitude": 10.086307525634766
    },
    {
        "name": "Smorumnedre",
        "country": "Denmark",
        "province": "Capital Region",
        "population": 9507,
        "latitude": 55.742322,
        "longitude": 12.302763
    },
    {
        "name": "Skaerbaek",
        "country": "Denmark",
        "province": "South Denmark",
        "population": 3062,
        "latitude": 55.157353,
        "longitude": 8.769011
    },
    {
        "name": "Skodsborg",
        "country": "Denmark",
        "province": "Capital Region",
        "population": 1269,
        "latitude": 55.822496,
        "longitude": 12.573236
    },
    {
        "name": "Skælskør",
        "country": "Denmark",
        "province": "Zealand",
        "population": 6472,
        "latitude": 55.250578,
        "longitude": 11.293522
    },
    {
        "name": "Skibby",
        "country": "Denmark",
        "province": "Capital Region",
        "population": 3120,
        "latitude": 55.751225,
        "longitude": 11.960827
    },
    {
        "name": "Skals",
        "country": "Denmark",
        "province": "Central Jutland",
        "population": 1759,
        "latitude": 56.556758,
        "longitude": 9.403809
    },
    {
        "name": "Sejlflod",
        "country": "Denmark",
        "province": "North Denmark",
        "population": -1,
        "latitude": 56.986941,
        "longitude": 10.100533
    },
    {
        "name": "Sæby",
        "country": "Denmark",
        "province": "North Denmark",
        "population": 8838,
        "latitude": 57.331881,
        "longitude": 10.52251
    },
    {
        "name": "Sabro",
        "country": "Denmark",
        "province": "Central Jutland",
        "population": 3309,
        "latitude": 56.213327,
        "longitude": 10.034414
    },
    {
        "name": "Ryslinge",
        "country": "Denmark",
        "province": "South Denmark",
        "population": 1768,
        "latitude": 55.24160096923462,
        "longitude": 10.536746978759766
    },
    {
        "name": "Ryomgård",
        "country": "Denmark",
        "province": "Central Jutland",
        "population": 2498,
        "latitude": 56.384305,
        "longitude": 10.502952
    },
    {
        "name": "Ry",
        "country": "Denmark",
        "province": "Central Jutland",
        "population": 7151,
        "latitude": 56.090375,
        "longitude": 9.765053
    },
    {
        "name": "Ruds-Vedby",
        "country": "Denmark",
        "province": "Zealand",
        "population": 1696,
        "latitude": 55.540927,
        "longitude": 11.379572
    },
    {
        "name": "Rudkøbing",
        "country": "Denmark",
        "province": "South Denmark",
        "population": 4521,
        "latitude": 54.93638980990852,
        "longitude": 10.710194706916809
    },
    {
        "name": "Rørvig",
        "country": "Denmark",
        "province": "Zealand",
        "population": 1042,
        "latitude": 55.944046,
        "longitude": 11.752678
    },
    {
        "name": "Rødekro",
        "country": "Denmark",
        "province": "South Denmark",
        "population": 5950,
        "latitude": 55.07076,
        "longitude": 9.33531
    },
    {
        "name": "Rødding",
        "country": "Denmark",
        "province": "South Denmark",
        "population": 2712,
        "latitude": 55.365691,
        "longitude": 9.063161
    },
    {
        "name": "Ringkøbing",
        "country": "Denmark",
        "province": "Central Jutland",
        "population": 9894,
        "latitude": 56.09006203020177,
        "longitude": 8.244016170501709
    },
    {
        "name": "Padborg",
        "country": "Denmark",
        "province": "South Denmark",
        "population": 4311,
        "latitude": 54.826572,
        "longitude": 9.362473
    },
    {
        "name": "Outrup",
        "country": "Denmark",
        "province": "South Denmark",
        "population": 1040,
        "latitude": 55.719194,
        "longitude": 8.344658
    },
    {
        "name": "Otterup",
        "country": "Denmark",
        "province": "South Denmark",
        "population": 5269,
        "latitude": 55.51527,
        "longitude": 10.397562
    },
    {
        "name": "Ørbæk",
        "country": "Denmark",
        "province": "South Denmark",
        "population": 1702,
        "latitude": 55.258489,
        "longitude": 10.670754
    },
    {
        "name": "Ølsted",
        "country": "Denmark",
        "province": "Capital Region",
        "population": 1894,
        "latitude": 55.923182,
        "longitude": 12.07071
    },
    {
        "name": "Oksbøl",
        "country": "Denmark",
        "province": "South Denmark",
        "population": 2815,
        "latitude": 55.626805,
        "longitude": 8.28757
    },
    {
        "name": "Nysted",
        "country": "Denmark",
        "province": "Zealand",
        "population": 1292,
        "latitude": 54.665127,
        "longitude": 11.734256
    },
    {
        "name": "Nykøbing Falster",
        "country": "Denmark",
        "province": "Zealand",
        "population": 19976,
        "latitude": 54.7690581396173,
        "longitude": 11.87424659729
    },
    {
        "name": "Nykøbing Sjælland",
        "country": "Denmark",
        "province": "Zealand",
        "population": 5002,
        "latitude": 55.92491341335989,
        "longitude": 11.671085357666016
    },
    {
        "name": "Nørresundby",
        "country": "Denmark",
        "province": "North Denmark",
        "population": 23718,
        "latitude": 57.05877,
        "longitude": 9.92284
    },
    {
        "name": "Nørre Nebel",
        "country": "Denmark",
        "province": "South Denmark",
        "population": 1316,
        "latitude": 55.779806,
        "longitude": 8.295237
    },
    {
        "name": "Nørre Bindslev",
        "country": "Denmark",
        "province": "North Denmark",
        "population": 1031,
        "latitude": 57.54161,
        "longitude": 10.19868
    },
    {
        "name": "Nørre Åby",
        "country": "Denmark",
        "province": "South Denmark",
        "population": 3133,
        "latitude": 55.461074,
        "longitude": 9.8794
    },
    {
        "name": "Nørager",
        "country": "Denmark",
        "province": "North Denmark",
        "population": 1168,
        "latitude": 56.706424,
        "longitude": 9.629963
    },
    {
        "name": "Nivå",
        "country": "Denmark",
        "province": "Capital Region",
        "population": 7997,
        "latitude": 55.934052,
        "longitude": 12.50485
    },
    {
        "name": "Nibe",
        "country": "Denmark",
        "province": "North Denmark",
        "population": 5433,
        "latitude": 56.981502,
        "longitude": 9.639167
    },
    {
        "name": "Nexø",
        "country": "Denmark",
        "province": "Capital Region",
        "population": 3668,
        "latitude": 55.060674991347625,
        "longitude": 15.130577087402344
    },
    {
        "name": "Munkebo",
        "country": "Denmark",
        "province": "South Denmark",
        "population": 5571,
        "latitude": 55.45553,
        "longitude": 10.55433
    },
    {
        "name": "Middelfart",
        "country": "Denmark",
        "province": "South Denmark",
        "population": 16277,
        "latitude": 55.50590992501312,
        "longitude": 9.730542004108429
    },
    {
        "name": "Mern",
        "country": "Denmark",
        "province": "Zealand",
        "population": 1005,
        "latitude": 55.048236,
        "longitude": 12.055604
    },
    {
        "name": "Marstal",
        "country": "Denmark",
        "province": "South Denmark",
        "population": 2120,
        "latitude": 54.856205,
        "longitude": 10.517255
    },
    {
        "name": "Mårslet",
        "country": "Denmark",
        "province": "Central Jutland",
        "population": 5004,
        "latitude": 56.0669,
        "longitude": 10.16112
    },
    {
        "name": "Maribo",
        "country": "Denmark",
        "province": "Zealand",
        "population": 5722,
        "latitude": 54.77661751851673,
        "longitude": 11.50016963481903
    },
    {
        "name": "Måløv",
        "country": "Denmark",
        "province": "Capital Region",
        "population": 8787,
        "latitude": 55.755283,
        "longitude": 12.323269
    },
    {
        "name": "Malling",
        "country": "Denmark",
        "province": "Central Jutland",
        "population": 6194,
        "latitude": 56.036323,
        "longitude": 10.19632
    },
    {
        "name": "Lystrup",
        "country": "Denmark",
        "province": "Central Jutland",
        "population": 10273,
        "latitude": 56.498392,
        "longitude": 10.468872
    },
    {
        "name": "Lystrup",
        "country": "Denmark",
        "province": "Central Jutland",
        "population": 10273,
        "latitude": 56.237504,
        "longitude": 10.237777
    },
    {
        "name": "Lynge",
        "country": "Denmark",
        "province": "Capital Region",
        "population": 4163,
        "latitude": 55.839412,
        "longitude": 12.277248
    },
    {
        "name": "Lunderskov",
        "country": "Denmark",
        "province": "South Denmark",
        "population": 2687,
        "latitude": 55.48375,
        "longitude": 9.299174
    },
    {
        "name": "Løsning",
        "country": "Denmark",
        "province": "Central Jutland",
        "population": 12220,
        "latitude": 55.802357,
        "longitude": 9.695386
    },
    {
        "name": "Løkken",
        "country": "Denmark",
        "province": "North Denmark",
        "population": 8828,
        "latitude": 57.37046755804649,
        "longitude": 9.71466064453125
    },
    {
        "name": "Løgstrup",
        "country": "Denmark",
        "province": "Central Jutland",
        "population": 1939,
        "latitude": 56.510316,
        "longitude": 9.335377
    },
    {
        "name": "Liseleje",
        "country": "Denmark",
        "province": "Capital Region",
        "population": 2507,
        "latitude": 56.01295,
        "longitude": 11.96544
    },
    {
        "name": "Værløse",
        "country": "Denmark",
        "province": "Capital Region",
        "population": 13069,
        "latitude": 55.782509,
        "longitude": 12.368559
    },
    {
        "name": "Lille Skensved",
        "country": "Denmark",
        "province": "Zealand",
        "population": 1565,
        "latitude": 55.509774,
        "longitude": 12.13506
    },
    {
        "name": "Lemvig",
        "country": "Denmark",
        "province": "Central Jutland",
        "population": 7330,
        "latitude": 56.548560797126875,
        "longitude": 8.310191631317139
    },
    {
        "name": "Låsby",
        "country": "Denmark",
        "province": "Central Jutland",
        "population": 1989,
        "latitude": 56.150221,
        "longitude": 9.806827
    },
    {
        "name": "Langeskov",
        "country": "Denmark",
        "province": "South Denmark",
        "population": 4222,
        "latitude": 55.356547,
        "longitude": 10.58447
    },
    {
        "name": "Langebæk",
        "country": "Denmark",
        "province": "Zealand",
        "population": 248,
        "latitude": 54.996535,
        "longitude": 12.089928
    },
    {
        "name": "Langå",
        "country": "Denmark",
        "province": "Central Jutland",
        "population": 2811,
        "latitude": 56.390257,
        "longitude": 9.89486
    },
    {
        "name": "Kvistgård",
        "country": "Denmark",
        "province": "Capital Region",
        "population": 1133,
        "latitude": 55.993477,
        "longitude": 12.504461
    },
    {
        "name": "Kruså",
        "country": "Denmark",
        "province": "South Denmark",
        "population": 1560,
        "latitude": 54.85097,
        "longitude": 9.40129
    },
    {
        "name": "Kongens Lyngby",
        "country": "Denmark",
        "province": "Capital Region",
        "population": 10600,
        "latitude": 55.77044186226907,
        "longitude": 12.503782510757446
    },
    {
        "name": "Klarup",
        "country": "Denmark",
        "province": "North Denmark",
        "population": 4969,
        "latitude": 57.011935,
        "longitude": 10.056171
    },
    {
        "name": "Kjellerup",
        "country": "Denmark",
        "province": "Central Jutland",
        "population": 4514,
        "latitude": 56.285809,
        "longitude": 9.435276
    },
    {
        "name": "Kibæk",
        "country": "Denmark",
        "province": "Central Jutland",
        "population": 2667,
        "latitude": 56.031701,
        "longitude": 8.856974
    },
    {
        "name": "Karup",
        "country": "Denmark",
        "province": "Central Jutland",
        "population": 2176,
        "latitude": 56.30672943709366,
        "longitude": 9.16834831237793
    },
    {
        "name": "Karlebo",
        "country": "Denmark",
        "province": "Capital Region",
        "population": -1,
        "latitude": 55.91928,
        "longitude": 12.409987
    },
    {
        "name": "Karise",
        "country": "Denmark",
        "province": "Zealand",
        "population": 2392,
        "latitude": 55.30734,
        "longitude": 12.1972
    },
    {
        "name": "Jyllinge",
        "country": "Denmark",
        "province": "Zealand",
        "population": 10134,
        "latitude": 55.75295,
        "longitude": 12.10315
    },
    {
        "name": "Jyderup",
        "country": "Denmark",
        "province": "Zealand",
        "population": 4303,
        "latitude": 55.663991,
        "longitude": 11.420289
    },
    {
        "name": "Juelsminde",
        "country": "Denmark",
        "province": "Central Jutland",
        "population": 3667,
        "latitude": 55.708759,
        "longitude": 10.016679
    },
    {
        "name": "Ikast",
        "country": "Denmark",
        "province": "Central Jutland",
        "population": 14692,
        "latitude": 56.13883090658505,
        "longitude": 9.157683849334717
    },
    {
        "name": "Idestrup",
        "country": "Denmark",
        "province": "Zealand",
        "population": 1153,
        "latitude": 54.743118,
        "longitude": 11.956743
    },
    {
        "name": "Hvide Sande",
        "country": "Denmark",
        "province": "Central Jutland",
        "population": 2874,
        "latitude": 55.99866,
        "longitude": 8.12605
    },
    {
        "name": "Hornsyld",
        "country": "Denmark",
        "province": "Central Jutland",
        "population": 1634,
        "latitude": 55.75621,
        "longitude": 9.85643
    },
    {
        "name": "Hornslet",
        "country": "Denmark",
        "province": "Central Jutland",
        "population": 6171,
        "latitude": 56.315496,
        "longitude": 10.320412
    },
    {
        "name": "Hornbæk",
        "country": "Denmark",
        "province": "Capital Region",
        "population": 5334,
        "latitude": 56.09027,
        "longitude": 12.45693
    },
    {
        "name": "Hørve",
        "country": "Denmark",
        "province": "Zealand",
        "population": 2382,
        "latitude": 55.75292,
        "longitude": 11.452976
    },
    {
        "name": "Bække",
        "country": "Denmark",
        "province": "South Denmark",
        "population": 1067,
        "latitude": 55.570253,
        "longitude": 9.139743
    },
    {
        "name": "Bjæverskov",
        "country": "Denmark",
        "province": "Zealand",
        "population": 2988,
        "latitude": 55.457556,
        "longitude": 12.036508
    },
    {
        "name": "Bjerringbro",
        "country": "Denmark",
        "province": "Central Jutland",
        "population": 7437,
        "latitude": 56.377973,
        "longitude": 9.66065
    },
    {
        "name": "Beder",
        "country": "Denmark",
        "province": "Central Jutland",
        "population": 4214,
        "latitude": 56.060248692696604,
        "longitude": 10.2117919921875
    },
    {
        "name": "Avlum",
        "country": "Denmark",
        "province": "Central Jutland",
        "population": 3249,
        "latitude": 56.26539,
        "longitude": 8.79256
    },
    {
        "name": "Auning",
        "country": "Denmark",
        "province": "Central Jutland",
        "population": 3061,
        "latitude": 56.430791,
        "longitude": 10.378184
    },
    {
        "name": "Asnæs",
        "country": "Denmark",
        "province": "Zealand",
        "population": 3100,
        "latitude": 55.812292,
        "longitude": 11.501293
    },
    {
        "name": "Årup",
        "country": "Denmark",
        "province": "South Denmark",
        "population": 3259,
        "latitude": 55.37315,
        "longitude": 10.041314
    },
    {
        "name": "Årslev",
        "country": "Denmark",
        "province": "South Denmark",
        "population": 4193,
        "latitude": 55.303526,
        "longitude": 10.46428
    },
    {
        "name": "Aars",
        "country": "Denmark",
        "province": "North Denmark",
        "population": 8474,
        "latitude": 56.8039858355313,
        "longitude": 9.51440691947937
    },
    {
        "name": "Arden",
        "country": "Denmark",
        "province": "North Denmark",
        "population": 2516,
        "latitude": 56.768987,
        "longitude": 9.861842
    },
    {
        "name": "Ans",
        "country": "Denmark",
        "province": "Central Jutland",
        "population": 1912,
        "latitude": 56.307115,
        "longitude": 9.592761
    },
    {
        "name": "Ålsgårde",
        "country": "Denmark",
        "province": "Capital Region",
        "population": 5790,
        "latitude": 56.075593,
        "longitude": 12.53995
    },
    {
        "name": "Ålestrup",
        "country": "Denmark",
        "province": "North Denmark",
        "population": 2780,
        "latitude": 56.694701,
        "longitude": 9.493357
    },
    {
        "name": "Ålbæk",
        "country": "Denmark",
        "province": "North Denmark",
        "population": 1437,
        "latitude": 57.592532,
        "longitude": 10.404556
    },
    {
        "name": "Åkirkeby",
        "country": "Denmark",
        "province": "Capital Region",
        "population": 2119,
        "latitude": 55.07079984200853,
        "longitude": 14.919776916503906
    },
    {
        "name": "Ærøskøbing",
        "country": "Denmark",
        "province": "South Denmark",
        "population": 935,
        "latitude": 54.888029197456326,
        "longitude": 10.41117399930954
    },
    {
        "name": "Aabybro",
        "country": "Denmark",
        "province": "North Denmark",
        "population": 6318,
        "latitude": 57.16249,
        "longitude": 9.72996
    },
    {
        "name": "Hørning",
        "country": "Denmark",
        "province": "Central Jutland",
        "population": 8395,
        "latitude": 56.087014,
        "longitude": 10.037162
    },
    {
        "name": "Holsted",
        "country": "Denmark",
        "province": "South Denmark",
        "population": 3046,
        "latitude": 55.510864,
        "longitude": 8.918721
    },
    {
        "name": "Hjortshøj",
        "country": "Denmark",
        "province": "Central Jutland",
        "population": 3590,
        "latitude": 56.24811,
        "longitude": 10.265325
    },
    {
        "name": "Hjallerup",
        "country": "Denmark",
        "province": "North Denmark",
        "population": 4235,
        "latitude": 57.164661,
        "longitude": 10.145708
    },
    {
        "name": "Hinnerup",
        "country": "Denmark",
        "province": "Central Jutland",
        "population": 8164,
        "latitude": 56.266078,
        "longitude": 10.062993
    },
    {
        "name": "Herlev",
        "country": "Denmark",
        "province": "Capital Region",
        "population": -1,
        "latitude": 55.723660073820405,
        "longitude": 12.439978122711182
    },
    {
        "name": "Hellebæk",
        "country": "Denmark",
        "province": "Capital Region",
        "population": 5790,
        "latitude": 56.068234,
        "longitude": 12.557821
    },
    {
        "name": "Hedensted",
        "country": "Denmark",
        "province": "Central Jutland",
        "population": 47099,
        "latitude": 55.770429792112445,
        "longitude": 9.701099395751953
    },
    {
        "name": "Hedehusene",
        "country": "Denmark",
        "province": "Capital Region",
        "population": 13663,
        "latitude": 55.64951,
        "longitude": 12.19827
    },
    {
        "name": "Havdrup",
        "country": "Denmark",
        "province": "Zealand",
        "population": 4365,
        "latitude": 55.544811,
        "longitude": 12.123917
    },
    {
        "name": "Hasselager",
        "country": "Denmark",
        "province": "Central Jutland",
        "population": 7437,
        "latitude": 56.10555,
        "longitude": 10.10003
    },
    {
        "name": "Haslev",
        "country": "Denmark",
        "province": "Zealand",
        "population": 12119,
        "latitude": 55.323464956093744,
        "longitude": 11.963891386985779
    },
    {
        "name": "Hasle",
        "country": "Denmark",
        "province": "Capital Region",
        "population": 1634,
        "latitude": 55.182124,
        "longitude": 14.711167
    },
    {
        "name": "Harlev",
        "country": "Denmark",
        "province": "Central Jutland",
        "population": 3990,
        "latitude": 56.141054628234016,
        "longitude": 9.996013641357422
    },
    {
        "name": "Hårlev",
        "country": "Denmark",
        "province": "Zealand",
        "population": 2865,
        "latitude": 55.349357,
        "longitude": 12.233823
    },
    {
        "name": "Hals",
        "country": "Denmark",
        "province": "North Denmark",
        "population": 2388,
        "latitude": 56.996091,
        "longitude": 10.308066
    },
    {
        "name": "Hadsten",
        "country": "Denmark",
        "province": "Central Jutland",
        "population": 8254,
        "latitude": 56.32818555104113,
        "longitude": 10.049314498901367
    },
    {
        "name": "Gudme",
        "country": "Denmark",
        "province": "South Denmark",
        "population": -1,
        "latitude": 55.14979370156332,
        "longitude": 10.707979202270508
    },
    {
        "name": "Græsted",
        "country": "Denmark",
        "province": "Capital Region",
        "population": 3561,
        "latitude": 56.065579,
        "longitude": 12.285119
    },
    {
        "name": "Greve",
        "country": "Denmark",
        "province": "Zealand",
        "population": 47671,
        "latitude": 55.5833333,
        "longitude": 12.3
    },
    {
        "name": "Gram",
        "country": "Denmark",
        "province": "South Denmark",
        "population": 2521,
        "latitude": 55.28947806218907,
        "longitude": 9.049129486083984
    },
    {
        "name": "Glumsø",
        "country": "Denmark",
        "province": "Zealand",
        "population": 2121,
        "latitude": 55.35679,
        "longitude": 11.685573
    },
    {
        "name": "Gladsaxe",
        "country": "Denmark",
        "province": "Capital Region",
        "population": -1,
        "latitude": 55.737973,
        "longitude": 12.48159
    },
    {
        "name": "Gjellerup",
        "country": "Denmark",
        "province": "Central Jutland",
        "population": 11406,
        "latitude": 56.15683218335044,
        "longitude": 10.130081176757812
    },
    {
        "name": "Give",
        "country": "Denmark",
        "province": "South Denmark",
        "population": 4550,
        "latitude": 55.84523,
        "longitude": 9.23769
    },
    {
        "name": "Gistrup",
        "country": "Denmark",
        "province": "North Denmark",
        "population": 3664,
        "latitude": 56.994302,
        "longitude": 9.990851
    },
    {
        "name": "Gilleleje",
        "country": "Denmark",
        "province": "Capital Region",
        "population": 6781,
        "latitude": 56.121959,
        "longitude": 12.310561
    },
    {
        "name": "Gelsted",
        "country": "Denmark",
        "province": "South Denmark",
        "population": 1711,
        "latitude": 55.398777,
        "longitude": 9.97314
    },
    {
        "name": "Gandrup",
        "country": "Denmark",
        "province": "North Denmark",
        "population": 1573,
        "latitude": 57.057443,
        "longitude": 10.181373
    },
    {
        "name": "Galten",
        "country": "Denmark",
        "province": "Central Jutland",
        "population": 4895,
        "latitude": 56.159019,
        "longitude": 9.916911
    },
    {
        "name": "Gadstrup",
        "country": "Denmark",
        "province": "Zealand",
        "population": 2014,
        "latitude": 55.56915,
        "longitude": 12.09493
    },
    {
        "name": "Fredensborg",
        "country": "Denmark",
        "province": "Capital Region",
        "population": 8965,
        "latitude": 55.97557521681644,
        "longitude": 12.403135299682617
    },
    {
        "name": "Fløng",
        "country": "Denmark",
        "province": "Capital Region",
        "population": 11108,
        "latitude": 55.662115,
        "longitude": 12.186975
    },
    {
        "name": "Farum",
        "country": "Denmark",
        "province": "Capital Region",
        "population": 20312,
        "latitude": 55.80858147483152,
        "longitude": 12.360659837722778
    },
    {
        "name": "Faxe Ladeplads",
        "country": "Denmark",
        "province": "Zealand",
        "population": 2884,
        "latitude": 55.219805,
        "longitude": 12.170133
    },
    {
        "name": "Faaborg",
        "country": "Denmark",
        "province": "South Denmark",
        "population": 6944,
        "latitude": 55.095104689109114,
        "longitude": 10.242264568805695
    },
    {
        "name": "Espergærde",
        "country": "Denmark",
        "province": "Capital Region",
        "population": 11358,
        "latitude": 55.99464,
        "longitude": 12.54733
    },
    {
        "name": "Eskilstrup",
        "country": "Denmark",
        "province": "Zealand",
        "population": 1066,
        "latitude": 54.85574,
        "longitude": 11.886676
    },
    {
        "name": "Ejby",
        "country": "Denmark",
        "province": "South Denmark",
        "population": 1996,
        "latitude": 55.430102,
        "longitude": 9.929729
    },
    {
        "name": "Ebeltoft",
        "country": "Denmark",
        "province": "Central Jutland",
        "population": 7204,
        "latitude": 56.19442118459094,
        "longitude": 10.682101249694824
    },
    {
        "name": "Dianalund",
        "country": "Denmark",
        "province": "Zealand",
        "population": 3605,
        "latitude": 55.531326,
        "longitude": 11.492499
    },
    {
        "name": "Christianshavn",
        "country": "Denmark",
        "province": "Capital Region",
        "population": 10140,
        "latitude": 55.673828,
        "longitude": 12.595406
    },
    {
        "name": "Freetown Christiania",
        "country": "Denmark",
        "province": "Capital Region",
        "population": -1,
        "latitude": 55.67346,
        "longitude": 12.59765
    },
    {
        "name": "Charlottenlund",
        "country": "Denmark",
        "province": "Capital Region",
        "population": 40000,
        "latitude": 55.75238,
        "longitude": 12.5745
    },
    {
        "name": "Brørup",
        "country": "Denmark",
        "province": "South Denmark",
        "population": 4516,
        "latitude": 55.481936,
        "longitude": 9.017558
    },
    {
        "name": "Brenderup",
        "country": "Denmark",
        "province": "South Denmark",
        "population": 1366,
        "latitude": 55.48407,
        "longitude": 9.97908
    },
    {
        "name": "Bredsten",
        "country": "Denmark",
        "province": "South Denmark",
        "population": 1711,
        "latitude": 55.701287,
        "longitude": 9.385005
    },
    {
        "name": "Brædstrup",
        "country": "Denmark",
        "province": "Central Jutland",
        "population": 3992,
        "latitude": 55.971534,
        "longitude": 9.611293
    },
    {
        "name": "Borup",
        "country": "Denmark",
        "province": "Zealand",
        "population": 4728,
        "latitude": 55.494716,
        "longitude": 11.975843
    },
    {
        "name": "Børkop",
        "country": "Denmark",
        "province": "South Denmark",
        "population": 3561,
        "latitude": 55.64195,
        "longitude": 9.64958
    },
    {
        "name": "Brøndby",
        "country": "Denmark",
        "province": "Capital Region",
        "population": 20000,
        "latitude": 55.6455,
        "longitude": 12.41008
    },
    {
        "name": "Sundby",
        "country": "Denmark",
        "province": "Zealand",
        "population": 3065,
        "latitude": 54.767111,
        "longitude": 11.84979
    },
    {
        "name": "Virum",
        "country": "Denmark",
        "province": "Capital Region",
        "population": -1,
        "latitude": 55.794881,
        "longitude": 12.45103
    },
    {
        "name": "Vipperød",
        "country": "Denmark",
        "province": "Zealand",
        "population": 2345,
        "latitude": 55.667675,
        "longitude": 11.739673
    },
    {
        "name": "Vindinge",
        "country": "Denmark",
        "province": "Zealand",
        "population": 3059,
        "latitude": 55.622977,
        "longitude": 12.138696
    },
    {
        "name": "Vindeby",
        "country": "Denmark",
        "province": "South Denmark",
        "population": 2339,
        "latitude": 55.044891,
        "longitude": 10.613089
    },
    {
        "name": "Viby J",
        "country": "Denmark",
        "province": "Central Jutland",
        "population": -1,
        "latitude": 56.12259144921196,
        "longitude": 10.151453018188477
    },
    {
        "name": "Vestervig",
        "country": "Denmark",
        "province": "North Denmark",
        "population": 591,
        "latitude": 56.762793,
        "longitude": 8.319419
    },
    {
        "name": "Vester-Skerninge",
        "country": "Denmark",
        "province": "South Denmark",
        "population": 1315,
        "latitude": 55.073223,
        "longitude": 10.455359
    },
    {
        "name": "Vester Hassing",
        "country": "Denmark",
        "province": "North Denmark",
        "population": 2589,
        "latitude": 57.067674,
        "longitude": 10.125581
    },
    {
        "name": "Veksø",
        "country": "Denmark",
        "province": "Capital Region",
        "population": 1792,
        "latitude": 55.754734,
        "longitude": 12.238366
    },
    {
        "name": "Vedbæk",
        "country": "Denmark",
        "province": "Capital Region",
        "population": -1,
        "latitude": 55.847286,
        "longitude": 12.568859
    },
    {
        "name": "Vadum",
        "country": "Denmark",
        "province": "North Denmark",
        "population": 1978,
        "latitude": 57.117904,
        "longitude": 9.857
    },
    {
        "name": "Undløse",
        "country": "Denmark",
        "province": "Zealand",
        "population": 1147,
        "latitude": 55.604513,
        "longitude": 11.588258
    },
    {
        "name": "Trørød",
        "country": "Denmark",
        "province": "Capital Region",
        "population": 8576,
        "latitude": 55.839465,
        "longitude": 12.544316
    },
    {
        "name": "Troense",
        "country": "Denmark",
        "province": "South Denmark",
        "population": 1240,
        "latitude": 55.033239,
        "longitude": 10.643607
    },
    {
        "name": "Torrig",
        "country": "Denmark",
        "province": "Zealand",
        "population": -1,
        "latitude": 54.90808,
        "longitude": 11.317264
    },
    {
        "name": "Toreby",
        "country": "Denmark",
        "province": "Zealand",
        "population": 611,
        "latitude": 54.753589,
        "longitude": 11.786605
    },
    {
        "name": "Tommerup Stationsby",
        "country": "Denmark",
        "province": "South Denmark",
        "population": 2482,
        "latitude": 55.345346,
        "longitude": 10.175939
    },
    {
        "name": "Tommerup",
        "country": "Denmark",
        "province": "South Denmark",
        "population": 1545,
        "latitude": 55.319521,
        "longitude": 10.206589
    },
    {
        "name": "Toftlund",
        "country": "Denmark",
        "province": "South Denmark",
        "population": 3438,
        "latitude": 55.18858,
        "longitude": 9.069251
    },
    {
        "name": "Tjele",
        "country": "Denmark",
        "province": "Central Jutland",
        "population": -1,
        "latitude": 56.511773,
        "longitude": 9.613707
    },
    {
        "name": "Tisvilde",
        "country": "Denmark",
        "province": "Capital Region",
        "population": 1444,
        "latitude": 56.057428,
        "longitude": 12.097522
    },
    {
        "name": "Tim",
        "country": "Denmark",
        "province": "Central Jutland",
        "population": 857,
        "latitude": 56.195632,
        "longitude": 8.307851
    },
    {
        "name": "Tilst",
        "country": "Denmark",
        "province": "Central Jutland",
        "population": -1,
        "latitude": 56.19376455899441,
        "longitude": 10.112829208374023
    },
    {
        "name": "Tikøb",
        "country": "Denmark",
        "province": "Capital Region",
        "population": 695,
        "latitude": 56.020581,
        "longitude": 12.453124
    },
    {
        "name": "Thurø By",
        "country": "Denmark",
        "province": "South Denmark",
        "population": 3350,
        "latitude": 55.047398,
        "longitude": 10.663847
    },
    {
        "name": "Taulov",
        "country": "Denmark",
        "province": "South Denmark",
        "population": 3402,
        "latitude": 55.54582397215944,
        "longitude": 9.61552619934082
    },
    {
        "name": "Svogerslev",
        "country": "Denmark",
        "province": "Zealand",
        "population": 4267,
        "latitude": 55.634232,
        "longitude": 12.014654
    },
    {
        "name": "Svinninge",
        "country": "Denmark",
        "province": "Zealand",
        "population": 2808,
        "latitude": 55.883062,
        "longitude": 11.609906
    },
    {
        "name": "Svenstrup",
        "country": "Denmark",
        "province": "North Denmark",
        "population": 7650,
        "latitude": 56.60263,
        "longitude": 9.943606
    },
    {
        "name": "Strib",
        "country": "Denmark",
        "province": "South Denmark",
        "population": 4872,
        "latitude": 55.540213,
        "longitude": 9.767479
    },
    {
        "name": "Strandby",
        "country": "Denmark",
        "province": "North Denmark",
        "population": 2518,
        "latitude": 57.491501,
        "longitude": 10.496085
    },
    {
        "name": "Store Heddinge",
        "country": "Denmark",
        "province": "Zealand",
        "population": 3668,
        "latitude": 55.3096489848695,
        "longitude": 12.388847172260284
    },
    {
        "name": "Støvring",
        "country": "Denmark",
        "province": "North Denmark",
        "population": 9089,
        "latitude": 56.88535633290388,
        "longitude": 9.838390946388245
    },
    {
        "name": "Stokkemarke",
        "country": "Denmark",
        "province": "Zealand",
        "population": 406,
        "latitude": 54.838136,
        "longitude": 11.360328
    },
    {
        "name": "Stoholm",
        "country": "Denmark",
        "province": "Central Jutland",
        "population": 2533,
        "latitude": 56.484541,
        "longitude": 9.146167
    },
    {
        "name": "Stige",
        "country": "Denmark",
        "province": "South Denmark",
        "population": 2182,
        "latitude": 55.439413,
        "longitude": 10.409399
    },
    {
        "name": "Stavtrup",
        "country": "Denmark",
        "province": "Central Jutland",
        "population": 3519,
        "latitude": 56.13124,
        "longitude": 10.119871
    },
    {
        "name": "Spjald",
        "country": "Denmark",
        "province": "Central Jutland",
        "population": -1,
        "latitude": 56.128616,
        "longitude": 8.50843
    },
    {
        "name": "Spentrup",
        "country": "Denmark",
        "province": "Central Jutland",
        "population": 2155,
        "latitude": 56.537031,
        "longitude": 10.037917
    },
    {
        "name": "Søften",
        "country": "Denmark",
        "province": "Central Jutland",
        "population": 3072,
        "latitude": 56.23801,
        "longitude": 10.085101
    },
    {
        "name": "Søby",
        "country": "Denmark",
        "province": "South Denmark",
        "population": -1,
        "latitude": 54.939627,
        "longitude": 10.255635
    },
    {
        "name": "Søborg",
        "country": "Denmark",
        "province": "Capital Region",
        "population": -1,
        "latitude": 55.730207,
        "longitude": 12.509814
    },
    {
        "name": "Snoghøj",
        "country": "Denmark",
        "province": "South Denmark",
        "population": 2371,
        "latitude": 55.522527,
        "longitude": 9.721248
    },
    {
        "name": "Snekkersten",
        "country": "Denmark",
        "province": "Capital Region",
        "population": -1,
        "latitude": 56.009046,
        "longitude": 12.585951
    },
    {
        "name": "Skovlunde",
        "country": "Denmark",
        "province": "Capital Region",
        "population": -1,
        "latitude": 55.715655,
        "longitude": 12.398021
    },
    {
        "name": "Skødstrup",
        "country": "Denmark",
        "province": "Central Jutland",
        "population": -1,
        "latitude": 56.263487,
        "longitude": 10.304059
    },
    {
        "name": "Skårup",
        "country": "Denmark",
        "province": "South Denmark",
        "population": -1,
        "latitude": 55.091084,
        "longitude": 10.690403
    },
    {
        "name": "Skamby",
        "country": "Denmark",
        "province": "South Denmark",
        "population": 435,
        "latitude": 55.520849,
        "longitude": 10.274895
    },
    {
        "name": "Seden",
        "country": "Denmark",
        "province": "South Denmark",
        "population": 3350,
        "latitude": 55.426479,
        "longitude": 10.44265
    },
    {
        "name": "Sandved",
        "country": "Denmark",
        "province": "Zealand",
        "population": 704,
        "latitude": 55.262999,
        "longitude": 11.521676
    },
    {
        "name": "Rudbjerg",
        "country": "Denmark",
        "province": "Zealand",
        "population": -1,
        "latitude": 54.740727,
        "longitude": 11.121286
    },
    {
        "name": "Rønde",
        "country": "Denmark",
        "province": "Central Jutland",
        "population": 3191,
        "latitude": 56.301453,
        "longitude": 10.475055
    },
    {
        "name": "Rødbyhavn",
        "country": "Denmark",
        "province": "Zealand",
        "population": 1544,
        "latitude": 54.65944,
        "longitude": 11.35504
    },
    {
        "name": "Risskov",
        "country": "Denmark",
        "province": "Central Jutland",
        "population": -1,
        "latitude": 56.197156,
        "longitude": 10.247996
    },
    {
        "name": "Ringe",
        "country": "Denmark",
        "province": "South Denmark",
        "population": 6474,
        "latitude": 55.23828,
        "longitude": 10.4786
    },
    {
        "name": "Redsted",
        "country": "Denmark",
        "province": "North Denmark",
        "population": -1,
        "latitude": 56.739397,
        "longitude": 8.652933
    },
    {
        "name": "Ranum",
        "country": "Denmark",
        "province": "North Denmark",
        "population": 929,
        "latitude": 56.897253,
        "longitude": 9.228716
    },
    {
        "name": "Ramløse",
        "country": "Denmark",
        "province": "Capital Region",
        "population": 1540,
        "latitude": 56.013984,
        "longitude": 12.116082
    },
    {
        "name": "Over Holluf",
        "country": "Denmark",
        "province": "South Denmark",
        "population": 1548,
        "latitude": 55.357713,
        "longitude": 10.469773
    },
    {
        "name": "Oure",
        "country": "Denmark",
        "province": "South Denmark",
        "population": -1,
        "latitude": 55.119712,
        "longitude": 10.723444
    },
    {
        "name": "Osted",
        "country": "Denmark",
        "province": "Zealand",
        "population": 2204,
        "latitude": 55.562283,
        "longitude": 11.957861
    },
    {
        "name": "Østervrå",
        "country": "Denmark",
        "province": "North Denmark",
        "population": -1,
        "latitude": 57.34169,
        "longitude": 10.240126
    },
    {
        "name": "Øster Ulslev",
        "country": "Denmark",
        "province": "Zealand",
        "population": 231,
        "latitude": 54.698391,
        "longitude": 11.626674
    },
    {
        "name": "Østermarie",
        "country": "Denmark",
        "province": "Capital Region",
        "population": 461,
        "latitude": 55.1406700135066,
        "longitude": 15.012474060058594
    },
    {
        "name": "Ørum",
        "country": "Denmark",
        "province": "Central Jutland",
        "population": 1420,
        "latitude": 56.48072,
        "longitude": 9.625372
    },
    {
        "name": "Ølstykke",
        "country": "Denmark",
        "province": "Capital Region",
        "population": 5348,
        "latitude": 55.795669,
        "longitude": 12.155089
    },
    {
        "name": "Nykøbing Mors",
        "country": "Denmark",
        "province": "North Denmark",
        "population": 9033,
        "latitude": 56.793340470572,
        "longitude": 8.852823972702026
    },
    {
        "name": "Nærum",
        "country": "Denmark",
        "province": "Capital Region",
        "population": -1,
        "latitude": 55.815972,
        "longitude": 12.538458
    },
    {
        "name": "Nørre Snede",
        "country": "Denmark",
        "province": "Central Jutland",
        "population": -1,
        "latitude": 55.964446,
        "longitude": 9.393171
    },
    {
        "name": "Nørre Broby",
        "country": "Denmark",
        "province": "South Denmark",
        "population": 1460,
        "latitude": 55.251644,
        "longitude": 10.229526
    },
    {
        "name": "Nørreballe",
        "country": "Denmark",
        "province": "Zealand",
        "population": 470,
        "latitude": 54.805868,
        "longitude": 11.430417
    },
    {
        "name": "Nørre Asmindrup",
        "country": "Denmark",
        "province": "Zealand",
        "population": -1,
        "latitude": 55.887206,
        "longitude": 11.623023
    },
    {
        "name": "Nødebo",
        "country": "Denmark",
        "province": "Capital Region",
        "population": 2093,
        "latitude": 55.978767,
        "longitude": 12.34685
    },
    {
        "name": "Neder Holluf",
        "country": "Denmark",
        "province": "South Denmark",
        "population": 5612,
        "latitude": 55.364514,
        "longitude": 10.448243
    },
    {
        "name": "Møldrup",
        "country": "Denmark",
        "province": "Central Jutland",
        "population": -1,
        "latitude": 56.616693,
        "longitude": 9.501123
    },
    {
        "name": "Martofte",
        "country": "Denmark",
        "province": "South Denmark",
        "population": -1,
        "latitude": 55.546361,
        "longitude": 10.657775
    },
    {
        "name": "Lundtoft",
        "country": "Denmark",
        "province": "South Denmark",
        "population": -1,
        "latitude": 54.917056,
        "longitude": 9.457236
    },
    {
        "name": "Lundby Stationsby",
        "country": "Denmark",
        "province": "Zealand",
        "population": 843,
        "latitude": 55.108883,
        "longitude": 11.874676
    },
    {
        "name": "Løgten",
        "country": "Denmark",
        "province": "Central Jutland",
        "population": 8659,
        "latitude": 56.274591,
        "longitude": 10.31181
    },
    {
        "name": "Lisbjerg",
        "country": "Denmark",
        "province": "Central Jutland",
        "population": 1063,
        "latitude": 56.220755,
        "longitude": 10.16861
    },
    {
        "name": "Lillerød",
        "country": "Denmark",
        "province": "Capital Region",
        "population": 16741,
        "latitude": 55.87496174189843,
        "longitude": 12.345789670944214
    },
    {
        "name": "Lem",
        "country": "Denmark",
        "province": "Central Jutland",
        "population": -1,
        "latitude": 56.025456,
        "longitude": 8.387868
    },
    {
        "name": "Lejre",
        "country": "Denmark",
        "province": "Zealand",
        "population": 3127,
        "latitude": 55.60461458723785,
        "longitude": 11.974765062332153
    },
    {
        "name": "Kongerslev",
        "country": "Denmark",
        "province": "North Denmark",
        "population": -1,
        "latitude": 56.886866,
        "longitude": 10.113142
    },
    {
        "name": "Kolt",
        "country": "Denmark",
        "province": "Central Jutland",
        "population": 5061,
        "latitude": 56.108448,
        "longitude": 10.069856
    },
    {
        "name": "Knebel",
        "country": "Denmark",
        "province": "Central Jutland",
        "population": 603,
        "latitude": 56.214115,
        "longitude": 10.488648
    },
    {
        "name": "Knabstrup",
        "country": "Denmark",
        "province": "Zealand",
        "population": 1052,
        "latitude": 55.664231,
        "longitude": 11.551288
    },
    {
        "name": "Klitmøller",
        "country": "Denmark",
        "province": "North Denmark",
        "population": 1114,
        "latitude": 57.04072,
        "longitude": 8.49144
    },
    {
        "name": "Klemensker",
        "country": "Denmark",
        "province": "Capital Region",
        "population": 633,
        "latitude": 55.172668,
        "longitude": 14.809903
    },
    {
        "name": "Klampenborg",
        "country": "Denmark",
        "province": "Capital Region",
        "population": -1,
        "latitude": 55.77632,
        "longitude": 12.590102
    },
    {
        "name": "Kirke Hvalsø",
        "country": "Denmark",
        "province": "Zealand",
        "population": 4294,
        "latitude": 55.5916970550482,
        "longitude": 11.862530708313
    },
    {
        "name": "Kirke-Esbønderup",
        "country": "Denmark",
        "province": "Capital Region",
        "population": 1190,
        "latitude": 56.04975255202629,
        "longitude": 12.346358299255371
    },
    {
        "name": "Kettinge",
        "country": "Denmark",
        "province": "Zealand",
        "population": 509,
        "latitude": 54.696685,
        "longitude": 11.728283
    },
    {
        "name": "Kerteminde",
        "country": "Denmark",
        "province": "South Denmark",
        "population": 5748,
        "latitude": 55.44902516283567,
        "longitude": 10.657693147659302
    },
    {
        "name": "Kastrup",
        "country": "Denmark",
        "province": "Capital Region",
        "population": -1,
        "latitude": 55.635239,
        "longitude": 12.648948
    },
    {
        "name": "Karlslunde",
        "country": "Denmark",
        "province": "Zealand",
        "population": -1,
        "latitude": 55.572584,
        "longitude": 12.225757
    },
    {
        "name": "Karby",
        "country": "Denmark",
        "province": "North Denmark",
        "population": -1,
        "latitude": 56.753575,
        "longitude": 8.561294
    },
    {
        "name": "Jystrup",
        "country": "Denmark",
        "province": "Zealand",
        "population": 781,
        "latitude": 55.516739,
        "longitude": 11.86437
    },
    {
        "name": "Jyderup",
        "country": "Denmark",
        "province": "Zealand",
        "population": 4325,
        "latitude": 55.83689169870044,
        "longitude": 11.553325653076172
    },
    {
        "name": "Jerup",
        "country": "Denmark",
        "province": "North Denmark",
        "population": 571,
        "latitude": 57.534345,
        "longitude": 10.416622
    },
    {
        "name": "Janderup",
        "country": "Denmark",
        "province": "South Denmark",
        "population": -1,
        "latitude": 55.625458,
        "longitude": 8.372833
    },
    {
        "name": "Humlebæk",
        "country": "Denmark",
        "province": "Capital Region",
        "population": 8965,
        "latitude": 55.96180124053477,
        "longitude": 12.534102201461792
    },
    {
        "name": "Humble",
        "country": "Denmark",
        "province": "South Denmark",
        "population": 604,
        "latitude": 54.829718,
        "longitude": 10.699612
    },
    {
        "name": "Horslunde",
        "country": "Denmark",
        "province": "Zealand",
        "population": 610,
        "latitude": 54.911758,
        "longitude": 11.216481
    },
    {
        "name": "Horbelev",
        "country": "Denmark",
        "province": "Zealand",
        "population": 572,
        "latitude": 54.823035,
        "longitude": 12.058384
    },
    {
        "name": "Høruphav",
        "country": "Denmark",
        "province": "South Denmark",
        "population": 2701,
        "latitude": 54.910167,
        "longitude": 9.89872
    },
    {
        "name": "Blovstrød",
        "country": "Denmark",
        "province": "Capital Region",
        "population": 2968,
        "latitude": 55.870377,
        "longitude": 12.386399
    },
    {
        "name": "Blommenslyst",
        "country": "Denmark",
        "province": "South Denmark",
        "population": 538,
        "latitude": 55.38952,
        "longitude": 10.262875
    },
    {
        "name": "Blokhus",
        "country": "Denmark",
        "province": "North Denmark",
        "population": 498,
        "latitude": 57.24797,
        "longitude": 9.589705
    },
    {
        "name": "Blåvand",
        "country": "Denmark",
        "province": "South Denmark",
        "population": -1,
        "latitude": 55.552868,
        "longitude": 8.119767
    },
    {
        "name": "Bjergsted",
        "country": "Denmark",
        "province": "Zealand",
        "population": -1,
        "latitude": 55.666652,
        "longitude": 11.350967
    },
    {
        "name": "Bellinge",
        "country": "Denmark",
        "province": "South Denmark",
        "population": 5483,
        "latitude": 55.33535,
        "longitude": 10.320446
    },
    {
        "name": "Bedsted Thy",
        "country": "Denmark",
        "province": "North Denmark",
        "population": -1,
        "latitude": 56.809361,
        "longitude": 8.406542
    },
    {
        "name": "Barrit",
        "country": "Denmark",
        "province": "Central Jutland",
        "population": -1,
        "latitude": 55.711832,
        "longitude": 9.890373
    },
    {
        "name": "Bandholm",
        "country": "Denmark",
        "province": "Zealand",
        "population": -1,
        "latitude": 54.836453,
        "longitude": 11.483058
    },
    {
        "name": "Bagsværd",
        "country": "Denmark",
        "province": "Capital Region",
        "population": -1,
        "latitude": 55.76095,
        "longitude": 12.45317
    },
    {
        "name": "Assentoft",
        "country": "Denmark",
        "province": "Central Jutland",
        "population": 3811,
        "latitude": 56.442095,
        "longitude": 10.151695
    },
    {
        "name": "Assens",
        "country": "Denmark",
        "province": "South Denmark",
        "population": 6050,
        "latitude": 55.270225961828736,
        "longitude": 9.900805950164795
    },
    {
        "name": "Aså",
        "country": "Denmark",
        "province": "North Denmark",
        "population": -1,
        "latitude": 57.148657,
        "longitude": 10.403732
    },
    {
        "name": "Årre",
        "country": "Denmark",
        "province": "South Denmark",
        "population": -1,
        "latitude": 55.572454,
        "longitude": 8.667458
    },
    {
        "name": "Allingåbro",
        "country": "Denmark",
        "province": "Central Jutland",
        "population": 1842,
        "latitude": 56.46432,
        "longitude": 10.31957
    },
    {
        "name": "Agedrup",
        "country": "Denmark",
        "province": "South Denmark",
        "population": -1,
        "latitude": 55.432358,
        "longitude": 10.488788
    },
    {
        "name": "Hørning",
        "country": "Denmark",
        "province": "Central Jutland",
        "population": 8395,
        "latitude": 56.411997,
        "longitude": 10.200182
    },
    {
        "name": "Højslev",
        "country": "Denmark",
        "province": "Central Jutland",
        "population": 224,
        "latitude": 56.585648,
        "longitude": 9.136366
    },
    {
        "name": "Højreby",
        "country": "Denmark",
        "province": "Zealand",
        "population": -1,
        "latitude": 54.799557,
        "longitude": 11.274101
    },
    {
        "name": "Højby",
        "country": "Denmark",
        "province": "Zealand",
        "population": 1422,
        "latitude": 55.911478,
        "longitude": 11.597559
    },
    {
        "name": "Hjordkær",
        "country": "Denmark",
        "province": "South Denmark",
        "population": 1607,
        "latitude": 55.026585,
        "longitude": 9.305093
    },
    {
        "name": "Hjerm",
        "country": "Denmark",
        "province": "Central Jutland",
        "population": -1,
        "latitude": 56.438442,
        "longitude": 8.634527
    },
    {
        "name": "Hinnerup",
        "country": "Denmark",
        "province": "Central Jutland",
        "population": 8164,
        "latitude": 56.734697,
        "longitude": 9.058742
    },
    {
        "name": "Herlufmagle",
        "country": "Denmark",
        "province": "Zealand",
        "population": -1,
        "latitude": 55.31322401619993,
        "longitude": 11.752281188964844
    },
    {
        "name": "Herfølge",
        "country": "Denmark",
        "province": "Zealand",
        "population": -1,
        "latitude": 55.413664,
        "longitude": 12.143274
    },
    {
        "name": "Hemmet",
        "country": "Denmark",
        "province": "Central Jutland",
        "population": 569,
        "latitude": 55.850156,
        "longitude": 8.375622
    },
    {
        "name": "Helsinge",
        "country": "Denmark",
        "province": "Capital Region",
        "population": 8616,
        "latitude": 56.02283415686461,
        "longitude": 12.197517156600952
    },
    {
        "name": "Hellerup",
        "country": "Denmark",
        "province": "Capital Region",
        "population": -1,
        "latitude": 55.73203986975658,
        "longitude": 12.570934295654297
    },
    {
        "name": "Hatting",
        "country": "Denmark",
        "province": "Central Jutland",
        "population": 1823,
        "latitude": 55.852948,
        "longitude": 9.769484
    },
    {
        "name": "Harndrup",
        "country": "Denmark",
        "province": "South Denmark",
        "population": 652,
        "latitude": 55.466582,
        "longitude": 10.021646
    },
    {
        "name": "Haarby",
        "country": "Denmark",
        "province": "South Denmark",
        "population": 2400,
        "latitude": 55.22357,
        "longitude": 10.12268
    },
    {
        "name": "Harboøre",
        "country": "Denmark",
        "province": "Central Jutland",
        "population": 1745,
        "latitude": 56.6175208445297,
        "longitude": 8.18069458007812
    },
    {
        "name": "Gundsømagle",
        "country": "Denmark",
        "province": "Zealand",
        "population": 2770,
        "latitude": 55.735649,
        "longitude": 12.151579
    },
    {
        "name": "Guldborg",
        "country": "Denmark",
        "province": "Zealand",
        "population": 536,
        "latitude": 54.86786,
        "longitude": 11.739212
    },
    {
        "name": "Gudhjem",
        "country": "Denmark",
        "province": "Capital Region",
        "population": 736,
        "latitude": 55.21046704839225,
        "longitude": 14.971275329589844
    },
    {
        "name": "Guderup",
        "country": "Denmark",
        "province": "South Denmark",
        "population": 2372,
        "latitude": 54.989785,
        "longitude": 9.871742
    },
    {
        "name": "Gudbjerg",
        "country": "Denmark",
        "province": "South Denmark",
        "population": -1,
        "latitude": 55.154044,
        "longitude": 10.669362
    },
    {
        "name": "Grindsted",
        "country": "Denmark",
        "province": "South Denmark",
        "population": 9750,
        "latitude": 55.75726,
        "longitude": 8.9275
    },
    {
        "name": "Grevinge",
        "country": "Denmark",
        "province": "Zealand",
        "population": -1,
        "latitude": 55.80083,
        "longitude": 11.55158
    },
    {
        "name": "Gjerlev",
        "country": "Denmark",
        "province": "Central Jutland",
        "population": -1,
        "latitude": 56.588254,
        "longitude": 10.131402
    },
    {
        "name": "Gevninge",
        "country": "Denmark",
        "province": "Zealand",
        "population": 1649,
        "latitude": 55.645436554966125,
        "longitude": 11.957244873046875
    },
    {
        "name": "Gedsted",
        "country": "Denmark",
        "province": "North Denmark",
        "population": 866,
        "latitude": 56.689153,
        "longitude": 9.336666
    },
    {
        "name": "Gedser",
        "country": "Denmark",
        "province": "Zealand",
        "population": 657,
        "latitude": 54.576439791073,
        "longitude": 11.9300365447998
    },
    {
        "name": "Frørup",
        "country": "Denmark",
        "province": "South Denmark",
        "population": 394,
        "latitude": 55.242421,
        "longitude": 10.715628
    },
    {
        "name": "Frejlev",
        "country": "Denmark",
        "province": "North Denmark",
        "population": 3056,
        "latitude": 57.006234,
        "longitude": 9.81711
    },
    {
        "name": "Ferritslev",
        "country": "Denmark",
        "province": "South Denmark",
        "population": -1,
        "latitude": 55.31018,
        "longitude": 10.58769
    },
    {
        "name": "Fårvang",
        "country": "Denmark",
        "province": "Central Jutland",
        "population": -1,
        "latitude": 56.267513,
        "longitude": 9.727817
    },
    {
        "name": "Fanø Vesterhavsbad",
        "country": "Denmark",
        "province": "South Denmark",
        "population": -1,
        "latitude": 55.435027,
        "longitude": 8.367884
    },
    {
        "name": "Eskebjerg",
        "country": "Denmark",
        "province": "Zealand",
        "population": -1,
        "latitude": 55.712955,
        "longitude": 11.304462
    },
    {
        "name": "Errindlev",
        "country": "Denmark",
        "province": "Zealand",
        "population": -1,
        "latitude": 54.66896,
        "longitude": 11.495051
    },
    {
        "name": "Elling",
        "country": "Denmark",
        "province": "North Denmark",
        "population": 1168,
        "latitude": 57.476893,
        "longitude": 10.479882
    },
    {
        "name": "Ejstrupholm",
        "country": "Denmark",
        "province": "Central Jutland",
        "population": -1,
        "latitude": 55.984066,
        "longitude": 9.281847
    },
    {
        "name": "Ejby",
        "country": "Denmark",
        "province": "Zealand",
        "population": 1978,
        "latitude": 55.68923,
        "longitude": 11.847246
    },
    {
        "name": "Ejby",
        "country": "Denmark",
        "province": "Zealand",
        "population": 3131,
        "latitude": 55.485797,
        "longitude": 12.08171
    },
    {
        "name": "Egå",
        "country": "Denmark",
        "province": "Central Jutland",
        "population": -1,
        "latitude": 56.213643,
        "longitude": 10.264395
    },
    {
        "name": "Dybvad",
        "country": "Denmark",
        "province": "North Denmark",
        "population": 585,
        "latitude": 57.272035,
        "longitude": 10.359461
    },
    {
        "name": "Dybbøl",
        "country": "Denmark",
        "province": "South Denmark",
        "population": 2339,
        "latitude": 54.910792,
        "longitude": 9.736011
    },
    {
        "name": "Dronningmølle",
        "country": "Denmark",
        "province": "Capital Region",
        "population": -1,
        "latitude": 56.094918,
        "longitude": 12.385225
    },
    {
        "name": "Daugård",
        "country": "Denmark",
        "province": "Central Jutland",
        "population": -1,
        "latitude": 55.735108,
        "longitude": 9.703048
    },
    {
        "name": "Dannemare",
        "country": "Denmark",
        "province": "Zealand",
        "population": 406,
        "latitude": 54.762447,
        "longitude": 11.187268
    },
    {
        "name": "Bullerup",
        "country": "Denmark",
        "province": "South Denmark",
        "population": 2982,
        "latitude": 55.426861,
        "longitude": 10.47137
    },
    {
        "name": "Brøndby Strand",
        "country": "Denmark",
        "province": "Capital Region",
        "population": -1,
        "latitude": 55.61782,
        "longitude": 12.42219
    },
    {
        "name": "Brabrand",
        "country": "Denmark",
        "province": "Central Jutland",
        "population": -1,
        "latitude": 56.15305572199134,
        "longitude": 10.105705261230469
    },
    {
        "name": "Borup",
        "country": "Denmark",
        "province": "Zealand",
        "population": 4728,
        "latitude": 55.693693,
        "longitude": 11.634236
    },
    {
        "name": "Borre",
        "country": "Denmark",
        "province": "Zealand",
        "population": 509,
        "latitude": 54.99593,
        "longitude": 12.446291
    },
    {
        "name": "Bording Kirkeby",
        "country": "Denmark",
        "province": "Central Jutland",
        "population": 2104,
        "latitude": 56.168713,
        "longitude": 9.243842
    },
    {
        "name": "Bogø By",
        "country": "Denmark",
        "province": "Zealand",
        "population": -1,
        "latitude": 54.923003,
        "longitude": 12.051004
    },
    {
        "name": "Bogense",
        "country": "Denmark",
        "province": "South Denmark",
        "population": 4059,
        "latitude": 55.56691392359594,
        "longitude": 10.088630318641663
    },
    {
        "name": "Boeslunde",
        "country": "Denmark",
        "province": "Zealand",
        "population": 765,
        "latitude": 55.300794,
        "longitude": 11.271209
    },
    {
        "name": "Bælum",
        "country": "Denmark",
        "province": "North Denmark",
        "population": 722,
        "latitude": 56.830024,
        "longitude": 10.119783
    },
    {
        "name": "Vrinners",
        "country": "Denmark",
        "province": "Central Jutland",
        "population": 389,
        "latitude": 56.244397,
        "longitude": 10.492771
    },
    {
        "name": "Vognsild",
        "country": "Denmark",
        "province": "North Denmark",
        "population": 240,
        "latitude": 56.756659,
        "longitude": 9.421197
    },
    {
        "name": "Voerså",
        "country": "Denmark",
        "province": "North Denmark",
        "population": 532,
        "latitude": 57.207883,
        "longitude": 10.486915
    },
    {
        "name": "Vivild",
        "country": "Denmark",
        "province": "Central Jutland",
        "population": 788,
        "latitude": 56.4837,
        "longitude": 10.445311
    },
    {
        "name": "Viuf",
        "country": "Denmark",
        "province": "South Denmark",
        "population": -1,
        "latitude": 55.585256,
        "longitude": 9.492383
    },
    {
        "name": "Visborg",
        "country": "Denmark",
        "province": "North Denmark",
        "population": 417,
        "latitude": 56.736817,
        "longitude": 10.14885
    },
    {
        "name": "Virket",
        "country": "Denmark",
        "province": "Zealand",
        "population": -1,
        "latitude": 54.834697,
        "longitude": 11.974868
    },
    {
        "name": "Vils",
        "country": "Denmark",
        "province": "North Denmark",
        "population": -1,
        "latitude": 56.763134,
        "longitude": 8.728552
    },
    {
        "name": "Vig",
        "country": "Denmark",
        "province": "Zealand",
        "population": -1,
        "latitude": 55.850762,
        "longitude": 11.585632
    },
    {
        "name": "Vester Nordlunde",
        "country": "Denmark",
        "province": "Zealand",
        "population": -1,
        "latitude": 54.87797,
        "longitude": 11.215513
    },
    {
        "name": "Vestermarie",
        "country": "Denmark",
        "province": "Capital Region",
        "population": 240,
        "latitude": 55.108209,
        "longitude": 14.824464
    },
    {
        "name": "Vester Hornum",
        "country": "Denmark",
        "province": "North Denmark",
        "population": 541,
        "latitude": 56.831603,
        "longitude": 9.359896
    },
    {
        "name": "Vesløs",
        "country": "Denmark",
        "province": "North Denmark",
        "population": -1,
        "latitude": 57.038325,
        "longitude": 8.97463
    },
    {
        "name": "Vemmelev",
        "country": "Denmark",
        "province": "Zealand",
        "population": -1,
        "latitude": 55.355255,
        "longitude": 11.247063
    },
    {
        "name": "Velling",
        "country": "Denmark",
        "province": "Central Jutland",
        "population": 259,
        "latitude": 56.051947,
        "longitude": 8.311324
    },
    {
        "name": "Vejstrup",
        "country": "Denmark",
        "province": "South Denmark",
        "population": -1,
        "latitude": 55.105851,
        "longitude": 10.712421
    },