[
    {
        "name": "Addis Ababa",
        "country": "Ethiopia",
        "province": "Addis Ababa",
        "population": 2757729,
        "latitude": 9.024966027535847,
        "longitude": 38.746891021728516
    },
    {
        "name": "Jijiga",
        "country": "Ethiopia",
        "province": "Somali",
        "population": 483000,
        "latitude": 9.35,
        "longitude": 42.8
    },
    {
        "name": "Harar",
        "country": "Ethiopia",
        "province": "Harari",
        "population": 153000,
        "latitude": 9.313866,
        "longitude": 42.118151
    },
    {
        "name": "Dire Dawa",
        "country": "Ethiopia",
        "province": "Dire Dawa",
        "population": 277000,
        "latitude": 9.593056,
        "longitude": 41.866111
    },
    {
        "name": "Mek'ele",
        "country": "Ethiopia",
        "province": "Tigray",
        "population": 436910,
        "latitude": 13.496667,
        "longitude": 39.475278
    },
    {
        "name": "Bahir Dar",
        "country": "Ethiopia",
        "province": "Amhara",
        "population": 332856,
        "latitude": 11.593639127571874,
        "longitude": 37.39076614379883
    },
    {
        "name": "Awasa",
        "country": "Ethiopia",
        "province": "SNNPR",
        "population": 403288,
        "latitude": 7.0620524318640125,
        "longitude": 38.47635269165039
    },
    {
        "name": "Kombolcha",
        "country": "Ethiopia",
        "province": "Amhara",
        "population": 125654,
        "latitude": 11.081553063143037,
        "longitude": 39.743385314941406
    },
    {
        "name": "Gonder",
        "country": "Ethiopia",
        "province": "Amhara",
        "population": 443156,
        "latitude": 12.6,
        "longitude": 37.466667
    },
    {
        "name": "Shashamane",
        "country": "Ethiopia",
        "province": "Oromiya",
        "population": 208368,
        "latitude": 7.2,
        "longitude": 38.6
    },
    {
        "name": "Jimma",
        "country": "Ethiopia",
        "province": "Oromiya",
        "population": 239022,
        "latitude": 7.67344,
        "longitude": 36.83441
    },
    {
        "name": "Hosa’ina",
        "country": "Ethiopia",
        "province": "SNNPR",
        "population": 179761,
        "latitude": 7.54978,
        "longitude": 37.85374
    },
    {
        "name": "Gambēla",
        "country": "Ethiopia",
        "province": "Gambela",
        "population": 42366,
        "latitude": 8.25,
        "longitude": 34.583333
    },
    {
        "name": "Dessie",
        "country": "Ethiopia",
        "province": "Amhara",
        "population": 257126,
        "latitude": 11.133333,
        "longitude": 39.633333
    },
    {
        "name": "Nazrēt",
        "country": "Ethiopia",
        "province": "Oromiya",
        "population": 435222,
        "latitude": 8.55,
        "longitude": 39.266667
    },
    {
        "name": "Bishoftu",
        "country": "Ethiopia",
        "province": "Oromiya",
        "population": 197557,
        "latitude": 8.75225,
        "longitude": 38.97846
    },
    {
        "name": "Debre Tabor",
        "country": "Ethiopia",
        "province": "Amhara",
        "population": 119176,
        "latitude": 11.85,
        "longitude": 38.016667
    },
    {
        "name": "Debre Mark’os",
        "country": "Ethiopia",
        "province": "Amhara",
        "population": 133810,
        "latitude": 10.35,
        "longitude": 37.733333
    },
    {
        "name": "Debre Birhan",
        "country": "Ethiopia",
        "province": "Amhara",
        "population": 139724,
        "latitude": 9.679544,
        "longitude": 39.532623
    },
    {
        "name": "Āsosa",
        "country": "Ethiopia",
        "province": "Bīnshangul Gumuz",
        "population": 30512,
        "latitude": 10.066667,
        "longitude": 34.533333
    },
    {
        "name": "Arba Minch",
        "country": "Ethiopia",
        "province": "SNNPR",
        "population": 192043,
        "latitude": 6.033333,
        "longitude": 37.55
    },
    {
        "name": "Aksum",
        "country": "Ethiopia",
        "province": "Tigray",
        "population": 41249,
        "latitude": 14.12109,
        "longitude": 38.72337
    },
    {
        "name": "Ādīgrat",
        "country": "Ethiopia",
        "province": "Tigray",
        "population": 116193,
        "latitude": 14.277,
        "longitude": 39.462
    },
    {
        "name": "Sodo",
        "country": "Ethiopia",
        "province": "SNNPR",
        "population": 194977,
        "latitude": 6.86,
        "longitude": 37.76159
    },
    {
        "name": "Korem",
        "country": "Ethiopia",
        "province": "Tigray",
        "population": 30633,
        "latitude": 12.505833,
        "longitude": 39.522778
    },
    {
        "name": "K’olīto",
        "country": "Ethiopia",
        "province": "SNNPR",
        "population": 25614,
        "latitude": 7.316667,
        "longitude": 38.083333
    },
    {
        "name": "Inda Silasē",
        "country": "Ethiopia",
        "province": "Tigray",
        "population": 50078,
        "latitude": 14.103069,
        "longitude": 38.282886
    },
    {
        "name": "Goba",
        "country": "Ethiopia",
        "province": "Oromiya",
        "population": 54630,
        "latitude": 7.016667,
        "longitude": 39.983333
    },
    {
        "name": "Waliso",
        "country": "Ethiopia",
        "province": "Oromiya",
        "population": 38394,
        "latitude": 8.53417,
        "longitude": 37.96515
    },
    {
        "name": "Gimbi",
        "country": "Ethiopia",
        "province": "Oromiya",
        "population": 31809,
        "latitude": 9.170313893126234,
        "longitude": 35.83491325378418
    },
    {
        "name": "Dembī Dolo",
        "country": "Ethiopia",
        "province": "Oromiya",
        "population": 26748,
        "latitude": 8.533333,
        "longitude": 34.8
    },
    {
        "name": "Yirga ‘Alem",
        "country": "Ethiopia",
        "province": "SNNPR",
        "population": 36292,
        "latitude": 6.75,
        "longitude": 38.416667
    },
    {
        "name": "Mojo",
        "country": "Ethiopia",
        "province": "Oromiya",
        "population": 34547,
        "latitude": 8.58679,
        "longitude": 39.12111
    },
    {
        "name": "Maych’ew",
        "country": "Ethiopia",
        "province": "Tigray",
        "population": 27186,
        "latitude": 12.7875,
        "longitude": 39.542222
    },
    {
        "name": "Lalibela",
        "country": "Ethiopia",
        "province": "Amhara",
        "population": 11152,
        "latitude": 12.03219,
        "longitude": 39.04756
    },
    {
        "name": "Āsbe Teferī",
        "country": "Ethiopia",
        "province": "Oromiya",
        "population": 30772,
        "latitude": 9.085686,
        "longitude": 40.867076
    },
    {
        "name": "Semera",
        "country": "Ethiopia",
        "province": "Āfar",
        "population": 833,
        "latitude": 11.79342,
        "longitude": 41.00578
    },
    {
        "name": "Lasoano",
        "country": "Ethiopia",
        "province": "Somali",
        "population": 38000,
        "latitude": 6.255315,
        "longitude": 45.385304
    },
    {
        "name": "Neefkuceliye",
        "country": "Ethiopia",
        "province": "Somali",
        "population": 34000,
        "latitude": 6.554586,
        "longitude": 45.389916
    },
    {
        "name": "Ziway",
        "country": "Ethiopia",
        "province": "Oromiya",
        "population": 49416,
        "latitude": 7.933333,
        "longitude": 38.716667
    },
    {
        "name": "Corof",
        "country": "Ethiopia",
        "province": "Somali",
        "population": 37080,
        "latitude": 6.582222,
        "longitude": 46.433333
    },
    {
        "name": "Fadhigaradle",
        "country": "Ethiopia",
        "province": "Somali",
        "population": 34000,
        "latitude": 6.175594,
        "longitude": 45.29866
    },
    {
        "name": "Kibre Mengist",
        "country": "Ethiopia",
        "province": "Oromiya",
        "population": 27854,
        "latitude": 5.883333,
        "longitude": 38.983333
    },
    {
        "name": "Kemisē",
        "country": "Ethiopia",
        "province": "Amhara",
        "population": 23861,
        "latitude": 10.716675,
        "longitude": 39.869971
    },
    {
        "name": "Jinka",
        "country": "Ethiopia",
        "province": "SNNPR",
        "population": 32115,
        "latitude": 5.65,
        "longitude": 36.65
    },
    {
        "name": "Huruta",
        "country": "Ethiopia",
        "province": "Oromiya",
        "population": 12442,
        "latitude": 8.15,
        "longitude": 39.35
    },
    {
        "name": "Hīrna",
        "country": "Ethiopia",
        "province": "Oromiya",
        "population": 12295,
        "latitude": 9.216667,
        "longitude": 41.1
    },
    {
        "name": "Hāgere Hiywet",
        "country": "Ethiopia",
        "province": "Oromiya",
        "population": 43920,
        "latitude": 8.983333,
        "longitude": 37.85
    },
    {
        "name": "El Bahay",
        "country": "Ethiopia",
        "province": "Somali",
        "population": 23000,
        "latitude": 6.346563,
        "longitude": 45.478113
    },
    {
        "name": "Gorē",
        "country": "Ethiopia",
        "province": "Oromiya",
        "population": 9352,
        "latitude": 8.15,
        "longitude": 35.533333
    },
    {
        "name": "Ginir",
        "country": "Ethiopia",
        "province": "Oromiya",
        "population": 16757,
        "latitude": 7.1395167128013695,
        "longitude": 40.71082592010498
    },
    {
        "name": "Raqo",
        "country": "Ethiopia",
        "province": "Somali",
        "population": 25090,
        "latitude": 6.419187,
        "longitude": 45.852514
    },
    {
        "name": "Gīdolē",
        "country": "Ethiopia",
        "province": "SNNPR",
        "population": 10736,
        "latitude": 5.65,
        "longitude": 37.366667
    },
    {
        "name": "Gewanē",
        "country": "Ethiopia",
        "province": "Āfar",
        "population": 11279,
        "latitude": 10.166578,
        "longitude": 40.646894
    },
    {
        "name": "Genet",
        "country": "Ethiopia",
        "province": "Oromiya",
        "population": 23753,
        "latitude": 9.066667,
        "longitude": 38.5
    },
    {
        "name": "Gelemso",
        "country": "Ethiopia",
        "province": "Oromiya",
        "population": 16065,
        "latitude": 8.816667,
        "longitude": 40.516667
    },
    {
        "name": "Gebre Guracha",
        "country": "Ethiopia",
        "province": "Oromiya",
        "population": 16583,
        "latitude": 9.8,
        "longitude": 38.4
    },
    {
        "name": "Finote Selam",
        "country": "Ethiopia",
        "province": "Amhara",
        "population": 23463,
        "latitude": 10.7,
        "longitude": 37.266667
    },
    {
        "name": "Fichē",
        "country": "Ethiopia",
        "province": "Oromiya",
        "population": 25758,
        "latitude": 9.8,
        "longitude": 38.733333
    },
    {
        "name": "Felege Neway",
        "country": "Ethiopia",
        "province": "SNNPR",
        "population": 33429,
        "latitude": 6.3,
        "longitude": 36.883333
    },
    {
        "name": "Golwane",
        "country": "Ethiopia",
        "province": "Somali",
        "population": 20000,
        "latitude": 6.507265,
        "longitude": 45.834933
    },
    {
        "name": "Dubti",
        "country": "Ethiopia",
        "province": "Āfar",
        "population": 26370,
        "latitude": 11.73292,
        "longitude": 41.082
    },
    {
        "name": "Dodola",
        "country": "Ethiopia",
        "province": "Oromiya",
        "population": 23116,
        "latitude": 6.983333,
        "longitude": 39.183333
    },
    {
        "name": "Dīla",
        "country": "Ethiopia",
        "province": "SNNPR",
        "population": 47021,
        "latitude": 6.416667,
        "longitude": 38.316667
    },
    {
        "name": "Yabēlo",
        "country": "Ethiopia",
        "province": "Oromiya",
        "population": 17819,
        "latitude": 4.883333,
        "longitude": 38.083333
    },
    {
        "name": "Werota",
        "country": "Ethiopia",
        "province": "Amhara",
        "population": 26813,
        "latitude": 11.916667,
        "longitude": 37.7
    },
    {
        "name": "Were Īlu",
        "country": "Ethiopia",
        "province": "Amhara",
        "population": 7636,
        "latitude": 10.58964,
        "longitude": 39.437667
    },
    {
        "name": "Wendo",
        "country": "Ethiopia",
        "province": "SNNPR",
        "population": 12945,
        "latitude": 6.6,
        "longitude": 38.416667
    },
    {
        "name": "Tulu Bolo",
        "country": "Ethiopia",
        "province": "Oromiya",
        "population": 10531,
        "latitude": 8.666667,
        "longitude": 38.216667
    },
    {
        "name": "Tēpī",
        "country": "Ethiopia",
        "province": "SNNPR",
        "population": 24169,
        "latitude": 7.2,
        "longitude": 35.45
    },
    {
        "name": "Sīrē",
        "country": "Ethiopia",
        "province": "Oromiya",
        "population": 10089,
        "latitude": 8.316667,
        "longitude": 39.483333
    },
    {
        "name": "Shoa Ghimirra",
        "country": "Ethiopia",
        "province": "SNNPR",
        "population": -1,
        "latitude": 6.962164,
        "longitude": 35.768729
    },
    {
        "name": "Shambu",
        "country": "Ethiopia",
        "province": "Oromiya",
        "population": 15354,
        "latitude": 9.566667,
        "longitude": 37.1
    },
    {
        "name": "Shakiso",
        "country": "Ethiopia",
        "province": "Oromiya",
        "population": 34078,
        "latitude": 5.76494,
        "longitude": 38.91006
    },
    {
        "name": "Sebeta",
        "country": "Ethiopia",
        "province": "Oromiya",
        "population": 19533,
        "latitude": 8.916667,
        "longitude": 38.616667
    },
    {
        "name": "Nek’emtē",
        "country": "Ethiopia",
        "province": "Oromiya",
        "population": -1,
        "latitude": 9.083333,
        "longitude": 36.55
    },
    {
        "name": "Nejo",
        "country": "Ethiopia",
        "province": "Oromiya",
        "population": 20166,
        "latitude": 9.5,
        "longitude": 35.5
    },
    {
        "name": "Mīzan Teferī",
        "country": "Ethiopia",
        "province": "SNNPR",
        "population": 14002,
        "latitude": 6.998648,
        "longitude": 35.588788
    },
    {
        "name": "Metu",
        "country": "Ethiopia",
        "province": "Oromiya",
        "population": 29648,
        "latitude": 8.3,
        "longitude": 35.583333
    },
    {
        "name": "Metahāra",
        "country": "Ethiopia",
        "province": "Oromiya",
        "population": 23403,
        "latitude": 8.9,
        "longitude": 39.916667
    },
    {
        "name": "Mendī",
        "country": "Ethiopia",
        "province": "Oromiya",
        "population": 25239,
        "latitude": 9.8,
        "longitude": 35.1
    },
    {
        "name": "Dejen",
        "country": "Ethiopia",
        "province": "Amhara",
        "population": 11739,
        "latitude": 10.166667,
        "longitude": 38.133333
    },
    {
        "name": "Debre Werk’",
        "country": "Ethiopia",
        "province": "Amhara",
        "population": 10579,
        "latitude": 10.666667,
        "longitude": 38.166667
    },
    {
        "name": "Debark’",
        "country": "Ethiopia",
        "province": "Amhara",
        "population": 24700,
        "latitude": 13.156111,
        "longitude": 37.898056
    },
    {
        "name": "Dabat",
        "country": "Ethiopia",
        "province": "Amhara",
        "population": 11544,
        "latitude": 12.984167,
        "longitude": 37.765
    },
    {
        "name": "Butajīra",
        "country": "Ethiopia",
        "province": "SNNPR",
        "population": 30502,
        "latitude": 8.116667,
        "longitude": 38.366667
    },
    {
        "name": "Burē",
        "country": "Ethiopia",
        "province": "Amhara",
        "population": 22038,
        "latitude": 10.7,
        "longitude": 37.066667
    },
    {
        "name": "Bonga",
        "country": "Ethiopia",
        "province": "SNNPR",
        "population": 18973,
        "latitude": 7.272349,
        "longitude": 36.241622
    },
    {
        "name": "Bodītī",
        "country": "Ethiopia",
        "province": "SNNPR",
        "population": 32997,
        "latitude": 6.966667,
        "longitude": 37.866667
    },
    {
        "name": "Bichena",
        "country": "Ethiopia",
        "province": "Amhara",
        "population": 16411,
        "latitude": 10.45,
        "longitude": 38.2
    },
    {
        "name": "Bedēsa",
        "country": "Ethiopia",
        "province": "Oromiya",
        "population": 17526,
        "latitude": 8.9,
        "longitude": 40.783333
    },
    {
        "name": "Bedelē",
        "country": "Ethiopia",
        "province": "Oromiya",
        "population": 20293,
        "latitude": 8.456003,
        "longitude": 36.353024
    },
    {
        "name": "Batī",
        "country": "Ethiopia",
        "province": "Amhara",
        "population": 19260,
        "latitude": 11.191521,
        "longitude": 40.016747
    },
    {
        "name": "Bako",
        "country": "Ethiopia",
        "province": "SNNPR",
        "population": 17872,
        "latitude": 5.783333,
        "longitude": 36.566667
    },
    {
        "name": "Āwash",
        "country": "Ethiopia",
        "province": "Āfar",
        "population": 11415,
        "latitude": 8.983333,
        "longitude": 40.166667
    },
    {
        "name": "Asaita",
        "country": "Ethiopia",
        "province": "Āfar",
        "population": 20342,
        "latitude": 11.56838,
        "longitude": 41.438686
    },
    {
        "name": "Āsasa",
        "country": "Ethiopia",
        "province": "Oromiya",
        "population": 23790,
        "latitude": 7.1,
        "longitude": 39.2
    },
    {
        "name": "Āreka",
        "country": "Ethiopia",
        "province": "SNNPR",
        "population": 33150,
        "latitude": 7.066667,
        "longitude": 37.7
    },
    {
        "name": "Hagere Maryam",
        "country": "Ethiopia",
        "province": "Oromiya",
        "population": 22105,
        "latitude": 5.6341797206123365,
        "longitude": 38.236026763916016
    },
    {
        "name": "Āgaro",
        "country": "Ethiopia",
        "province": "Oromiya",
        "population": 28268,
        "latitude": 7.85,
        "longitude": 36.65
    },
    {
        "name": "Adwa",
        "country": "Ethiopia",
        "province": "Tigray",
        "population": -1,
        "latitude": 14.163471,
        "longitude": 38.899237
    },
    {
        "name": "Ādīs Zemen",
        "country": "Ethiopia",
        "province": "Amhara",
        "population": 22522,
        "latitude": 12.116667,
        "longitude": 37.783333
    },
    {
        "name": "Ādēt",
        "country": "Ethiopia",
        "province": "Amhara",
        "population": 22946,
        "latitude": 11.266667,
        "longitude": 37.483333
    },
    {
        "name": "Yamarugley",
        "country": "Ethiopia",
        "province": "Somali",
        "population": 36000,
        "latitude": 6.8076806,
        "longitude": 46.0848157
    },
    {
        "name": "Konso",
        "country": "Ethiopia",
        "province": "SNNPR",
        "population": 4593,
        "latitude": 5.25,
        "longitude": 37.483333
    },
    {
        "name": "Kofelē",
        "country": "Ethiopia",
        "province": "Oromiya",
        "population": 9643,
        "latitude": 7.066667,
        "longitude": 38.783333
    },
    {
        "name": "Kombolcha",
        "country": "Ethiopia",
        "province": "Oromiya",
        "population": -1,
        "latitude": 9.4385,
        "longitude": 42.121313
    },
    {
        "name": "K’elafo",
        "country": "Ethiopia",
        "province": "Somali",
        "population": -1,
        "latitude": 5.587222,
        "longitude": 44.199722
    },
    {
        "name": "Kebri Dahar",
        "country": "Ethiopia",
        "province": "Somali",
        "population": -1,
        "latitude": 6.74,
        "longitude": 44.278056
    },
    {
        "name": "Jaranīyo",
        "country": "Ethiopia",
        "province": "Amhara",
        "population": -1,
        "latitude": 10.766667,
        "longitude": 39.833333
    },
    {
        "name": "Intich’o",
        "country": "Ethiopia",
        "province": "Tigray",
        "population": -1,
        "latitude": 14.278889,
        "longitude": 39.15
    },
    {
        "name": "Himora",
        "country": "Ethiopia",
        "province": "Tigray",
        "population": -1,
        "latitude": 14.2905932,
        "longitude": 36.6080759
    },
    {
        "name": "Hawzēn",
        "country": "Ethiopia",
        "province": "Tigray",
        "population": -1,
        "latitude": 13.978414,
        "longitude": 39.42974
    },
    {
        "name": "Hāgere Selam",
        "country": "Ethiopia",
        "province": "SNNPR",
        "population": 5169,
        "latitude": 6.483333,
        "longitude": 38.516667
    },
    {
        "name": "Gishe Ābay",
        "country": "Ethiopia",
        "province": "Amhara",
        "population": -1,
        "latitude": 10.983333,
        "longitude": 37.216667
    },
    {
        "name": "Funyan Bīra",
        "country": "Ethiopia",
        "province": "Oromiya",
        "population": -1,
        "latitude": 9.4025,
        "longitude": 42.3175
    },
    {
        "name": "Dib Bahir",
        "country": "Ethiopia",
        "province": "Amhara",
        "population": -1,
        "latitude": 13.233333,
        "longitude": 37.883333
    },
    {
        "name": "Warder",
        "country": "Ethiopia",
        "province": "Somali",
        "population": -1,
        "latitude": 6.974444,
        "longitude": 45.340833
    },
    {
        "name": "Wenjī",
        "country": "Ethiopia",
        "province": "Oromiya",
        "population": 17120,
        "latitude": 8.45,
        "longitude": 39.283333
    },
    {
        "name": "Weldiya",
        "country": "Ethiopia",
        "province": "Amhara",
        "population": -1,
        "latitude": 11.82770183911823,
        "longitude": 39.591636657714844
    },
    {
        "name": "Wehnī",
        "country": "Ethiopia",
        "province": "Amhara",
        "population": -1,
        "latitude": 12.664444,
        "longitude": 36.67
    },
    {
        "name": "Turmi",
        "country": "Ethiopia",
        "province": "SNNPR",
        "population": 1087,
        "latitude": 4.966667,
        "longitude": 36.483333
    },
    {
        "name": "Shēh Husēn",
        "country": "Ethiopia",
        "province": "Oromiya",
        "population": -1,
        "latitude": 7.75,
        "longitude": 40.7
    },
    {
        "name": "Sendafa",
        "country": "Ethiopia",
        "province": "Oromiya",
        "population": 7326,
        "latitude": 9.152025,
        "longitude": 39.023354
    },
    {
        "name": "Sela Dingay",
        "country": "Ethiopia",
        "province": "Amhara",
        "population": -1,
        "latitude": 9.954325,
        "longitude": 39.630792
    },
    {
        "name": "Sek’ot’a",
        "country": "Ethiopia",
        "province": "Amhara",
        "population": -1,
        "latitude": 12.630556,
        "longitude": 39.034722
    },
    {
        "name": "Negēlē",
        "country": "Ethiopia",
        "province": "Oromiya",
        "population": -1,
        "latitude": 5.316667,
        "longitude": 39.583333
    },
    {
        "name": "Nefas Mewch’a",
        "country": "Ethiopia",
        "province": "Amhara",
        "population": -1,
        "latitude": 11.733333,
        "longitude": 38.466667
    },
    {
        "name": "Metemma",
        "country": "Ethiopia",
        "province": "Amhara",
        "population": -1,
        "latitude": 12.95479,
        "longitude": 36.15549
    },
    {
        "name": "Mekane Selam",
        "country": "Ethiopia",
        "province": "Amhara",
        "population": -1,
        "latitude": 10.749167,
        "longitude": 38.760556
    },
    {
        "name": "Mēga",
        "country": "Ethiopia",
        "province": "Oromiya",
        "population": 6884,
        "latitude": 4.05,
        "longitude": 38.3
    },
    {
        "name": "Omorate",
        "country": "Ethiopia",
        "province": "SNNPR",
        "population": 3363,
        "latitude": 4.833333,
        "longitude": 36.1
    },
    {
        "name": "Lalo K’īlē",
        "country": "Ethiopia",
        "province": "Oromiya",
        "population": -1,
        "latitude": 8.916667,
        "longitude": 35.35
    },
    {
        "name": "Degeh Bur",
        "country": "Ethiopia",
        "province": "Somali",
        "population": -1,
        "latitude": 8.220556,
        "longitude": 43.557222
    },
    {
        "name": "Deder",
        "country": "Ethiopia",
        "province": "Oromiya",
        "population": 8884,
        "latitude": 9.311679,
        "longitude": 41.443006
    },
    {
        "name": "Debre Zeyit",
        "country": "Ethiopia",
        "province": "Bīnshangul Gumuz",
        "population": -1,
        "latitude": 10.583333,
        "longitude": 35.8
    },
    {
        "name": "Dangila",
        "country": "Ethiopia",
        "province": "Amhara",
        "population": -1,
        "latitude": 11.266667,
        "longitude": 36.833333
    },
    {
        "name": "Degah Medo",
        "country": "Ethiopia",
        "province": "Somali",
        "population": -1,
        "latitude": 7.98507,
        "longitude": 43.021196
    },
    {
        "name": "Ch’elenk’o",
        "country": "Ethiopia",
        "province": "Oromiya",
        "population": -1,
        "latitude": 9.401389,
        "longitude": 41.56
    },
    {
        "name": "Chagne",
        "country": "Ethiopia",
        "province": "Amhara",
        "population": -1,
        "latitude": 10.95,
        "longitude": 36.5
    },
    {
        "name": "Barahle",
        "country": "Ethiopia",
        "province": "Āfar",
        "population": -1,
        "latitude": 13.861672,
        "longitude": 40.021574
    },
    {
        "name": "Beigi",
        "country": "Ethiopia",
        "province": "Oromiya",
        "population": -1,
        "latitude": 9.333333,
        "longitude": 34.483333
    },
    {
        "name": "Āykel",
        "country": "Ethiopia",
        "province": "Amhara",
        "population": -1,
        "latitude": 12.55,
        "longitude": 37.066667
    },
    {
        "name": "Āmba Maryam",
        "country": "Ethiopia",
        "province": "Amhara",
        "population": -1,
        "latitude": 11.433333,
        "longitude": 39.283333
    },
    {
        "name": "Ādīs ‘Alem",
        "country": "Ethiopia",
        "province": "Oromiya",
        "population": 9859,
        "latitude": 9.033333,
        "longitude": 38.4
    },
    {
        "name": "Adi Remets",
        "country": "Ethiopia",
        "province": "Tigray",
        "population": -1,
        "latitude": 13.743889,
        "longitude": 37.324444
    },
    {
        "name": "Abomsa",
        "country": "Ethiopia",
        "province": "Amhara",
        "population": 15258,
        "latitude": 9.983333,
        "longitude": 39.983333
    },
    {
        "name": "Ābīy Ādī",
        "country": "Ethiopia",
        "province": "Tigray",
        "population": -1,
        "latitude": 13.560833,
        "longitude": 38.973889
    },
    {
        "name": "Kahandhale",
        "country": "Ethiopia",
        "province": "Somali",
        "population": 18000,
        "latitude": 5.75279038,
        "longitude": 45.64603083
    },
    {
        "name": "Weldeya",
        "country": "Ethiopia",
        "province": "Somali",
        "population": -1,
        "latitude": 4.332222,
        "longitude": 42.083333
    },
    {
        "name": "Ferfer",
        "country": "Ethiopia",
        "province": "Somali",
        "population": -1,
        "latitude": 5.083611,
        "longitude": 45.128056
    },
    {
        "name": "Kula",
        "country": "Ethiopia",
        "province": "Oromiya",
        "population": -1,
        "latitude": 7.966667,
        "longitude": 39.7
    },
    {
        "name": "Kosa",
        "country": "Ethiopia",
        "province": "Oromiya",
        "population": -1,
        "latitude": 7.85,
        "longitude": 36.8
    },
    {
        "name": "K’orbeta",
        "country": "Ethiopia",
        "province": "Tigray",
        "population": -1,
        "latitude": 12.804167,
        "longitude": 39.647222
    },
    {
        "name": "K’orahē",
        "country": "Ethiopia",
        "province": "Somali",
        "population": -1,
        "latitude": 6.615278,
        "longitude": 44.340556
    },
    {
        "name": "Kora",
        "country": "Ethiopia",
        "province": "Oromiya",
        "population": -1,
        "latitude": 8.816667,
        "longitude": 38.95
    },
    {
        "name": "Konteb",
        "country": "Ethiopia",
        "province": "SNNPR",
        "population": -1,
        "latitude": 7.683333,
        "longitude": 37.783333
    },
    {
        "name": "Kokosa",
        "country": "Ethiopia",
        "province": "Oromiya",
        "population": -1,
        "latitude": 6.733333,
        "longitude": 38.783333
    },
    {
        "name": "Kokīr",
        "country": "Ethiopia",
        "province": "SNNPR",
        "population": -1,
        "latitude": 8.4,
        "longitude": 38.233333
    },
    {
        "name": "K’it’ir",
        "country": "Ethiopia",
        "province": "Amhara",
        "population": -1,
        "latitude": 11.116667,
        "longitude": 38.75
    },
    {
        "name": "K’ersa",
        "country": "Ethiopia",
        "province": "Oromiya",
        "population": -1,
        "latitude": 9.455,
        "longitude": 41.866389
    },
    {
        "name": "K’eranyo",
        "country": "Ethiopia",
        "province": "Amhara",
        "population": -1,
        "latitude": 10.966667,
        "longitude": 37.966667
    },
    {
        "name": "Kemba",
        "country": "Ethiopia",
        "province": "SNNPR",
        "population": -1,
        "latitude": 6.066667,
        "longitude": 37.166667
    },
    {
        "name": "Kelem",
        "country": "Ethiopia",
        "province": "SNNPR",
        "population": -1,
        "latitude": 4.8,
        "longitude": 35.966667
    },
    {
        "name": "Kelela",
        "country": "Ethiopia",
        "province": "Amhara",
        "population": -1,
        "latitude": 10.466667,
        "longitude": 38.8
    },
    {
        "name": "Kele",
        "country": "Ethiopia",
        "province": "Oromiya",
        "population": -1,
        "latitude": 6.083333,
        "longitude": 38.033333
    },
    {
        "name": "Kefersa",
        "country": "Ethiopia",
        "province": "Oromiya",
        "population": -1,
        "latitude": 7.433333,
        "longitude": 37.333333
    },
    {
        "name": "Kara K’orē",
        "country": "Ethiopia",
        "province": "Amhara",
        "population": -1,
        "latitude": 10.421535,
        "longitude": 39.93512
    },
    {
        "name": "Kake",
        "country": "Ethiopia",
        "province": "Oromiya",
        "population": -1,
        "latitude": 8.933333,
        "longitude": 35.05
    },
    {
        "name": "Kachīsī",
        "country": "Ethiopia",
        "province": "Oromiya",
        "population": -1,
        "latitude": 9.6,
        "longitude": 37.833333
    },
    {
        "name": "Jīrēn",
        "country": "Ethiopia",
        "province": "Oromiya",
        "population": -1,
        "latitude": 7.816667,
        "longitude": 36.683333
    },
    {
        "name": "Jikawo",
        "country": "Ethiopia",
        "province": "Gambela",
        "population": -1,
        "latitude": 8.366667,
        "longitude": 33.766667
    },
    {
        "name": "Djamu",
        "country": "Ethiopia",
        "province": "SNNPR",
        "population": -1,
        "latitude": 6.639409,
        "longitude": 35.782347
    },
    {
        "name": "Jeldēsa",
        "country": "Ethiopia",
        "province": "Dire Dawa",
        "population": -1,
        "latitude": 9.713889,
        "longitude": 42.119722
    },
    {
        "name": "Jeju",
        "country": "Ethiopia",
        "province": "Oromiya",
        "population": -1,
        "latitude": 8.416667,
        "longitude": 39.633333
    },
    {
        "name": "Īteya",
        "country": "Ethiopia",
        "province": "Oromiya",
        "population": -1,
        "latitude": 8.133333,
        "longitude": 39.233333
    },
    {
        "name": "Ītang",
        "country": "Ethiopia",
        "province": "Gambela",
        "population": -1,
        "latitude": 8.2,
        "longitude": 34.266667
    },
    {
        "name": "Injibara",
        "country": "Ethiopia",
        "province": "Amhara",
        "population": -1,
        "latitude": 11,
        "longitude": 36.916667
    },
    {
        "name": "Indibir",
        "country": "Ethiopia",
        "province": "SNNPR",
        "population": -1,
        "latitude": 8.116667,
        "longitude": 37.933333
    },
    {
        "name": "Inda Silasē",
        "country": "Ethiopia",
        "province": "Tigray",
        "population": -1,
        "latitude": 13.875208,
        "longitude": 39.73785
    },
    {
        "name": "Indabaguna",
        "country": "Ethiopia",
        "province": "Tigray",
        "population": -1,
        "latitude": 13.949444,
        "longitude": 38.184167
    },
    {
        "name": "Īmī",
        "country": "Ethiopia",
        "province": "Somali",
        "population": -1,
        "latitude": 6.466667,
        "longitude": 42.177222
    },
    {
        "name": "Īmbabu",
        "country": "Ethiopia",
        "province": "Oromiya",
        "population": -1,
        "latitude": 9.733333,
        "longitude": 37.566667
    },
    {
        "name": "Ījajī",
        "country": "Ethiopia",
        "province": "Oromiya",
        "population": -1,
        "latitude": 9,
        "longitude": 37.316667
    },
    {
        "name": "Ihud Gebeya",
        "country": "Ethiopia",
        "province": "Oromiya",
        "population": -1,
        "latitude": 9.016667,
        "longitude": 34.533333
    },
    {
        "name": "Idaga Hamus",
        "country": "Ethiopia",
        "province": "Tigray",
        "population": -1,
        "latitude": 14.187222,
        "longitude": 39.563889
    },
    {
        "name": "Ibnat",
        "country": "Ethiopia",
        "province": "Amhara",
        "population": -1,
        "latitude": 12.133333,
        "longitude": 38.05
    },
    {
        "name": "Hurso",
        "country": "Ethiopia",
        "province": "Somali",
        "population": -1,
        "latitude": 9.601944,
        "longitude": 41.644167
    },
    {
        "name": "Hint’alo",
        "country": "Ethiopia",
        "province": "Tigray",
        "population": -1,
        "latitude": 13.317132,
        "longitude": 39.458496
    },
    {
        "name": "Hinde",
        "country": "Ethiopia",
        "province": "Oromiya",
        "population": -1,
        "latitude": 10.066667,
        "longitude": 36.4
    },
    {
        "name": "Hartīshēk",
        "country": "Ethiopia",
        "province": "Somali",
        "population": -1,
        "latitude": 9.157222,
        "longitude": 43.354167
    },
    {
        "name": "Harewa",
        "country": "Ethiopia",
        "province": "Somali",
        "population": -1,
        "latitude": 9.921111,
        "longitude": 41.982778
    },
    {
        "name": "Hāra Gebeya",
        "country": "Ethiopia",
        "province": "Amhara",
        "population": -1,
        "latitude": 11.833333,
        "longitude": 39.733333
    },
    {
        "name": "Hammero",
        "country": "Ethiopia",
        "province": "Somali",
        "population": -1,
        "latitude": 7.509453,
        "longitude": 42.227414
    },
    {
        "name": "Hamer Koke",
        "country": "Ethiopia",
        "province": "SNNPR",
        "population": -1,
        "latitude": 5.15,
        "longitude": 36.75
    },
    {
        "name": "Hāgere Selam",
        "country": "Ethiopia",
        "province": "Tigray",
        "population": -1,
        "latitude": 13.649475,
        "longitude": 39.174257
    },
    {
        "name": "Habru",
        "country": "Ethiopia",
        "province": "Amhara",
        "population": -1,
        "latitude": 11.6,
        "longitude": 39.766667
    },
    {
        "name": "Gundagundī",
        "country": "Ethiopia",
        "province": "Tigray",
        "population": -1,
        "latitude": 14.382701,
        "longitude": 39.735285
    },
    {
        "name": "Gulīso",
        "country": "Ethiopia",
        "province": "Oromiya",
        "population": -1,
        "latitude": 9.166667,
        "longitude": 35.466667
    },
    {
        "name": "Guba",
        "country": "Ethiopia",
        "province": "Bīnshangul Gumuz",
        "population": -1,
        "latitude": 11.266667,
        "longitude": 35.283333
    },
    {
        "name": "Goro",
        "country": "Ethiopia",
        "province": "Oromiya",
        "population": -1,
        "latitude": 9.181661,
        "longitude": 40.972731
    },
    {
        "name": "Goro",
        "country": "Ethiopia",
        "province": "Oromiya",
        "population": -1,
        "latitude": 8.383333,
        "longitude": 37.85
    },
    {
        "name": "Gorgora",
        "country": "Ethiopia",
        "province": "Amhara",
        "population": -1,
        "latitude": 12.240278,
        "longitude": 37.300833
    },
    {
        "name": "Gorē",
        "country": "Ethiopia",
        "province": "Oromiya",
        "population": -1,
        "latitude": 8.3443004,
        "longitude": 36.0865389
    },
    {
        "name": "Gololcha",
        "country": "Ethiopia",
        "province": "Oromiya",
        "population": -1,
        "latitude": 8.183333,
        "longitude": 40.066667
    },
    {
        "name": "Gojo",
        "country": "Ethiopia",
        "province": "Oromiya",
        "population": -1,
        "latitude": 9.266667,
        "longitude": 38.083333
    },
    {
        "name": "Gogti",
        "country": "Ethiopia",
        "province": "Somali",
        "population": -1,
        "latitude": 10.076277,
        "longitude": 42.859105
    },
    {
        "name": "Gog",
        "country": "Ethiopia",
        "province": "Gambela",
        "population": -1,
        "latitude": 7.583333,
        "longitude": 34.5
    },
    {
        "name": "Godeburk’a",
        "country": "Ethiopia",
        "province": "Amhara",
        "population": -1,
        "latitude": 8.916667,
        "longitude": 39.583333
    },
    {
        "name": "Gode",
        "country": "Ethiopia",
        "province": "Somali",
        "population": -1,
        "latitude": 5.95056,
        "longitude": 43.55186
    },
    {
        "name": "Godana Mīka’ēl",
        "country": "Ethiopia",
        "province": "Amhara",
        "population": -1,
        "latitude": 10.25,
        "longitude": 37.833333
    },
    {
        "name": "Gobiyē",
        "country": "Ethiopia",
        "province": "Amhara",
        "population": -1,
        "latitude": 11.883333,
        "longitude": 39.7
    },
    {
        "name": "Gobēsa",
        "country": "Ethiopia",
        "province": "Oromiya",
        "population": -1,
        "latitude": 7.616667,
        "longitude": 39.5
    },
    {
        "name": "Girawa",
        "country": "Ethiopia",
        "province": "Oromiya",
        "population": -1,
        "latitude": 9.133056,
        "longitude": 41.838889
    },
    {
        "name": "Gijet",
        "country": "Ethiopia",
        "province": "Tigray",
        "population": -1,
        "latitude": 13.3252324,
        "longitude": 39.1704349
    },
    {
        "name": "Gīdamī",
        "country": "Ethiopia",
        "province": "Oromiya",
        "population": -1,
        "latitude": 8.983333,
        "longitude": 34.616667
    },
    {
        "name": "Getema",
        "country": "Ethiopia",
        "province": "Oromiya",
        "population": -1,
        "latitude": 8.9,
        "longitude": 36.483333
    },
    {
        "name": "Gesīsen",
        "country": "Ethiopia",
        "province": "Āfar",
        "population": -1,
        "latitude": 11.624197,
        "longitude": 41.494459
    },
    {
        "name": "Gelīla",
        "country": "Ethiopia",
        "province": "Oromiya",
        "population": -1,
        "latitude": 9.85,
        "longitude": 36.483333
    },
    {
        "name": "Geladī",
        "country": "Ethiopia",
        "province": "Somali",
        "population": -1,
        "latitude": 6.975556,
        "longitude": 46.411111
    },
    {
        "name": "Geblilu",
        "country": "Ethiopia",
        "province": "Somali",
        "population": -1,
        "latitude": 10.63399,
        "longitude": 41.45656
    },
    {
        "name": "Gara Muleta",
        "country": "Ethiopia",
        "province": "Oromiya",
        "population": -1,
        "latitude": 9.083333,
        "longitude": 41.75
    },
    {
        "name": "Fursī",
        "country": "Ethiopia",
        "province": "Āfar",
        "population": -1,
        "latitude": 10.466667,
        "longitude": 40.216667
    },
    {
        "name": "Fogera",
        "country": "Ethiopia",
        "province": "Amhara",
        "population": -1,
        "latitude": 11.95,
        "longitude": 37.583333
    },
    {
        "name": "Fofa",
        "country": "Ethiopia",
        "province": "SNNPR",
        "population": -1,
        "latitude": 7.85,
        "longitude": 37.516667
    },
    {
        "name": "Fīnch’a’ā",
        "country": "Ethiopia",
        "province": "Oromiya",
        "population": -1,
        "latitude": 9.9,
        "longitude": 37.45
    },
    {
        "name": "Ferg Īnder",
        "country": "Ethiopia",
        "province": "Tigray",
        "population": -1,
        "latitude": 13.625772,
        "longitude": 39.637585
    },
    {
        "name": "Fentalē",
        "country": "Ethiopia",
        "province": "Oromiya",
        "population": -1,
        "latitude": 9.666667,
        "longitude": 38.883333
    },
    {
        "name": "Felege Selam",
        "country": "Ethiopia",
        "province": "SNNPR",
        "population": -1,
        "latitude": 7.133333,
        "longitude": 36.45
    },
    {
        "name": "Fedīs",
        "country": "Ethiopia",
        "province": "Harari",
        "population": -1,
        "latitude": 9.250385,
        "longitude": 42.09164
    },
    {
        "name": "Ērer",
        "country": "Ethiopia",
        "province": "Somali",
        "population": -1,
        "latitude": 9.558136,
        "longitude": 41.385511
    },
    {
        "name": "Elda ar",
        "country": "Ethiopia",
        "province": "Āfar",
        "population": -1,
        "latitude": 12.052459,
        "longitude": 41.923356
    },
    {
        "name": "Ējersa Goro",
        "country": "Ethiopia",
        "province": "Oromiya",
        "population": -1,
        "latitude": 9.491263,
        "longitude": 42.229652
    },
    {
        "name": "Durwalē",
        "country": "Ethiopia",
        "province": "Somali",
        "population": -1,
        "latitude": 8.99,
        "longitude": 43.115
    },
    {
        "name": "Duramē",
        "country": "Ethiopia",
        "province": "SNNPR",
        "population": -1,
        "latitude": 7.233333,
        "longitude": 37.883333
    },
    {
        "name": "Dukem",
        "country": "Ethiopia",
        "province": "Oromiya",
        "population": -1,
        "latitude": 8.8,
        "longitude": 38.9
    },
    {
        "name": "Dollo Addo",
        "country": "Ethiopia",
        "province": "Somali",
        "population": -1,
        "latitude": 4.1786111,
        "longitude": 42.0588889
    },
    {
        "name": "Doba",
        "country": "Ethiopia",
        "province": "Oromiya",
        "population": -1,
        "latitude": 9.285717,
        "longitude": 41.093967
    },
    {
        "name": "Dīnsho",
        "country": "Ethiopia",
        "province": "Oromiya",
        "population": -1,
        "latitude": 7.1,
        "longitude": 39.783333
    },
    {
        "name": "Dima",
        "country": "Ethiopia",
        "province": "Tigray",
        "population": -1,
        "latitude": 13.483333,
        "longitude": 37.333333
    },
    {
        "name": "Dihun",
        "country": "Ethiopia",
        "province": "Somali",
        "population": -1,
        "latitude": 7.223971,
        "longitude": 42.695026
    },
    {
        "name": "Dīgelu",
        "country": "Ethiopia",
        "province": "Oromiya",
        "population": -1,
        "latitude": 7.766667,
        "longitude": 39.25
    },
    {
        "name": "Dibate",
        "country": "Ethiopia",
        "province": "Bīnshangul Gumuz",
        "population": -1,
        "latitude": 10.65,
        "longitude": 36.216667
    },
    {
        "name": "Dewelē",
        "country": "Ethiopia",
        "province": "Somali",
        "population": -1,
        "latitude": 11.034722,
        "longitude": 42.631389
    },
    {
        "name": "Dērwērnachē",
        "country": "Ethiopia",
        "province": "Somali",
        "population": -1,
        "latitude": 9.84,
        "longitude": 43.044167
    },
    {
        "name": "Deresgē",
        "country": "Ethiopia",
        "province": "Amhara",
        "population": -1,
        "latitude": 13.033333,
        "longitude": 38.183333
    },
    {
        "name": "Denk’ez",
        "country": "Ethiopia",
        "province": "Amhara",
        "population": -1,
        "latitude": 12.466667,
        "longitude": 37.616667
    },
    {
        "name": "Dengel Ber",
        "country": "Ethiopia",
        "province": "Amhara",
        "population": -1,
        "latitude": 11.95,
        "longitude": 37
    },
    {
        "name": "Denan",
        "country": "Ethiopia",
        "province": "Somali",
        "population": -1,
        "latitude": 6.506111,
        "longitude": 43.492222
    },
    {
        "name": "Dembīya",
        "country": "Ethiopia",
        "province": "Amhara",
        "population": -1,
        "latitude": 12.283333,
        "longitude": 37.45
    },
    {
        "name": "Dembel",
        "country": "Ethiopia",
        "province": "Oromiya",
        "population": -1,
        "latitude": 9.7,
        "longitude": 38.55
    },
    {
        "name": "Dembech’a",
        "country": "Ethiopia",
        "province": "Amhara",
        "population": -1,
        "latitude": 10.55,
        "longitude": 37.483333
    },
    {
        "name": "Delgī",
        "country": "Ethiopia",
        "province": "Amhara",
        "population": -1,
        "latitude": 12.2,
        "longitude": 37.05
    },
    {
        "name": "Yubdo",
        "country": "Ethiopia",
        "province": "Oromiya",
        "population": -1,
        "latitude": 8.95,
        "longitude": 35.45
    },
    {
        "name": "Yismala Gīyorgīs",
        "country": "Ethiopia",
        "province": "Amhara",
        "population": -1,
        "latitude": 11.6,
        "longitude": 36.95
    },
    {
        "name": "Yewish",
        "country": "Ethiopia",
        "province": "Amhara",
        "population": -1,
        "latitude": 10.166667,
        "longitude": 37.816667
    },
    {
        "name": "Yetman",
        "country": "Ethiopia",
        "province": "Amhara",
        "population": -1,
        "latitude": 10.333333,
        "longitude": 38.133333
    },
    {
        "name": "Yerer Sata",
        "country": "Ethiopia",
        "province": "Somali",
        "population": -1,
        "latitude": 9.532095,
        "longitude": 41.404173
    },
    {
        "name": "Yekī",
        "country": "Ethiopia",
        "province": "SNNPR",
        "population": -1,
        "latitude": 7.2,
        "longitude": 35.35
    },
    {
        "name": "Yejubē",
        "country": "Ethiopia",
        "province": "Amhara",
        "population": -1,
        "latitude": 10.15,
        "longitude": 37.75
    },
    {
        "name": "Yech’ilay",
        "country": "Ethiopia",
        "province": "Tigray",
        "population": -1,
        "latitude": 13.286667,
        "longitude": 38.995
    },
    {
        "name": "Yayu",
        "country": "Ethiopia",
        "province": "Oromiya",
        "population": -1,
        "latitude": 8.35,
        "longitude": 35.85
    },
    {
        "name": "Yaha",
        "country": "Ethiopia",
        "province": "Tigray",
        "population": -1,
        "latitude": 14.2844056,
        "longitude": 39.0174485
    },
    {
        "name": "Wik’ro",
        "country": "Ethiopia",
        "province": "Tigray",
        "population": -1,
        "latitude": 14.12313,
        "longitude": 38.594767
    },
    {
        "name": "Wik’ro",
        "country": "Ethiopia",
        "province": "Tigray",
        "population": -1,
        "latitude": 13.795252,
        "longitude": 39.603026
    },
    {
        "name": "Wich’alē",
        "country": "Ethiopia",
        "province": "Amhara",
        "population": -1,
        "latitude": 11.5,
        "longitude": 39.6
    },
    {
        "name": "Wenago",
        "country": "Ethiopia",
        "province": "SNNPR",
        "population": -1,
        "latitude": 6.316667,
        "longitude": 38.266667
    },
    {
        "name": "Welk’īt’ē",
        "country": "Ethiopia",
        "province": "SNNPR",
        "population": -1,
        "latitude": 8.283333,
        "longitude": 37.783333
    },
    {
        "name": "Welench’ītī",
        "country": "Ethiopia",
        "province": "Oromiya",
        "population": -1,
        "latitude": 8.666667,
        "longitude": 39.433333
    },
    {
        "name": "Welde Āb",
        "country": "Ethiopia",
        "province": "Amhara",
        "population": -1,
        "latitude": 9.065616,
        "longitude": 39.573899
    },
    {
        "name": "Waka",
        "country": "Ethiopia",
        "province": "SNNPR",
        "population": -1,
        "latitude": 7.066667,
        "longitude": 37.166667
    },
    {
        "name": "Waja",
        "country": "Ethiopia",
        "province": "Amhara",
        "population": -1,
        "latitude": 12.285,
        "longitude": 39.602222
    },
    {
        "name": "Uolchefit",
        "country": "Ethiopia",
        "province": "Amhara",
        "population": -1,
        "latitude": 13.2,
        "longitude": 37.916667
    },
    {
        "name": "Uadel",
        "country": "Ethiopia",
        "province": "Somali",
        "population": -1,
        "latitude": 7.885278,
        "longitude": 44.403889
    },
    {
        "name": "Tulu Mīlkī",
        "country": "Ethiopia",
        "province": "Oromiya",
        "population": -1,
        "latitude": 9.9,
        "longitude": 38.35
    },
    {
        "name": "Tukayel",
        "country": "Ethiopia",
        "province": "Somali",
        "population": -1,
        "latitude": 8.120278,
        "longitude": 45.345833
    },
    {
        "name": "Ts’igēreda",
        "country": "Ethiopia",
        "province": "Tigray",
        "population": -1,
        "latitude": 13.85713,
        "longitude": 39.334762
    },
    {
        "name": "Tolē",
        "country": "Ethiopia",
        "province": "Oromiya",
        "population": -1,
        "latitude": 8.516667,
        "longitude": 38.266667
    },
    {
        "name": "T’īs Isat",
        "country": "Ethiopia",
        "province": "Amhara",
        "population": -1,
        "latitude": 11.483333,
        "longitude": 37.583333
    },
    {
        "name": "Tirgol",
        "country": "Ethiopia",
        "province": "Gambela",
        "population": -1,
        "latitude": 7.816667,
        "longitude": 33.033333
    },
    {
        "name": "T’ījo",
        "country": "Ethiopia",
        "province": "Oromiya",
        "population": -1,
        "latitude": 7.783333,
        "longitude": 39.15
    },
    {
        "name": "Tenta",
        "country": "Ethiopia",
        "province": "Amhara",
        "population": -1,
        "latitude": 11.316667,
        "longitude": 39.25
    },
    {
        "name": "Temenja Yazhi",
        "country": "Ethiopia",
        "province": "SNNPR",
        "population": -1,
        "latitude": 7.1,
        "longitude": 35.75
    },
    {
        "name": "Teltelē",
        "country": "Ethiopia",
        "province": "Oromiya",
        "population": -1,
        "latitude": 5.066667,
        "longitude": 37.383333
    },
    {
        "name": "Tehulederē",
        "country": "Ethiopia",
        "province": "Amhara",
        "population": -1,
        "latitude": 11.316667,
        "longitude": 39.75
    },
    {
        "name": "Suntu",
        "country": "Ethiopia",
        "province": "Oromiya",
        "population": -1,
        "latitude": 8.1,
        "longitude": 36.95
    },
    {
        "name": "Sudē",
        "country": "Ethiopia",
        "province": "Oromiya",
        "population": -1,
        "latitude": 7.9,
        "longitude": 39.733333
    },
    {
        "name": "Soyema",
        "country": "Ethiopia",
        "province": "SNNPR",
        "population": -1,
        "latitude": 5.7,
        "longitude": 37.883333
    },
    {
        "name": "Sodo",
        "country": "Ethiopia",
        "province": "Oromiya",
        "population": -1,
        "latitude": 8.583333,
        "longitude": 35.816667
    },
    {
        "name": "Soderē",
        "country": "Ethiopia",
        "province": "Oromiya",
        "population": -1,
        "latitude": 8.4,
        "longitude": 39.383333
    },
    {
        "name": "Shola Gebeya",
        "country": "Ethiopia",
        "province": "Amhara",
        "population": -1,
        "latitude": 9.211516,
        "longitude": 39.405522
    },
    {
        "name": "Shirē",
        "country": "Ethiopia",
        "province": "Tigray",
        "population": -1,
        "latitude": 14.138333,
        "longitude": 38.402778
    },
    {
        "name": "Shīnīlē",
        "country": "Ethiopia",
        "province": "Somali",
        "population": -1,
        "latitude": 9.688056,
        "longitude": 41.844722
    },
    {
        "name": "Shilabo",
        "country": "Ethiopia",
        "province": "Somali",
        "population": -1,
        "latitude": 6.091667,
        "longitude": 44.763611
    },
    {
        "name": "Sheraro",
        "country": "Ethiopia",
        "province": "Tigray",
        "population": -1,
        "latitude": 14.4007641741178,
        "longitude": 37.93398857116699
    },
    {
        "name": "Shememēl",
        "country": "Ethiopia",
        "province": "Amhara",
        "population": -1,
        "latitude": 10.75,
        "longitude": 37.4
    },
    {
        "name": "Sheko",
        "country": "Ethiopia",
        "province": "SNNPR",
        "population": -1,
        "latitude": 7.066667,
        "longitude": 35.65
    },
    {
        "name": "Sheder",
        "country": "Ethiopia",
        "province": "Somali",
        "population": -1,
        "latitude": 9.690833,
        "longitude": 43.124444
    },
    {
        "name": "Shēbēlē",
        "country": "Ethiopia",
        "province": "Somali",
        "population": -1,
        "latitude": 9.785833,
        "longitude": 42.775278
    },
    {
        "name": "Sēru",
        "country": "Ethiopia",
        "province": "Oromiya",
        "population": -1,
        "latitude": 7.666667,
        "longitude": 40.2
    },
    {
        "name": "Selekleka",
        "country": "Ethiopia",
        "province": "Tigray",
        "population": -1,
        "latitude": 14.113889,
        "longitude": 38.475556
    },
    {
        "name": "Segeg",
        "country": "Ethiopia",
        "province": "Somali",
        "population": -1,
        "latitude": 7.661019,
        "longitude": 42.834297
    },
    {
        "name": "Sedīk’a",
        "country": "Ethiopia",
        "province": "Oromiya",
        "population": -1,
        "latitude": 7.733333,
        "longitude": 40
    },
    {
        "name": "Sasīt",
        "country": "Ethiopia",
        "province": "Amhara",
        "population": -1,
        "latitude": 9.922918,
        "longitude": 39.491236
    },
    {
        "name": "Sasabeneh",
        "country": "Ethiopia",
        "province": "Somali",
        "population": -1,
        "latitude": 7.867778,
        "longitude": 43.668611
    },
    {
        "name": "Samrē",
        "country": "Ethiopia",
        "province": "Tigray",
        "population": -1,
        "latitude": 13.212449,
        "longitude": 39.152041
    },
    {
        "name": "Sagurē",
        "country": "Ethiopia",
        "province": "Oromiya",
        "population": -1,
        "latitude": 7.75,
        "longitude": 39.15
    },
    {
        "name": "Robit",
        "country": "Ethiopia",
        "province": "Amhara",
        "population": -1,
        "latitude": 9.994613,
        "longitude": 39.896931
    },
    {
        "name": "Robi",
        "country": "Ethiopia",
        "province": "Oromiya",
        "population": -1,
        "latitude": 7.866667,
        "longitude": 39.633333
    },
    {
        "name": "Bale Robe",
        "country": "Ethiopia",
        "province": "Oromiya",
        "population": -1,
        "latitude": 7.12294,
        "longitude": 40.00412
    },
    {
        "name": "Rēma",
        "country": "Ethiopia",
        "province": "Amhara",
        "population": -1,
        "latitude": 10.266667,
        "longitude": 38.9
    },
    {
        "name": "Rama",
        "country": "Ethiopia",
        "province": "Tigray",
        "population": -1,
        "latitude": 14.413333,
        "longitude": 38.784722
    },
    {
        "name": "Omo Nada",
        "country": "Ethiopia",
        "province": "Oromiya",
        "population": -1,
        "latitude": 7.633333,
        "longitude": 37.25
    },
    {
        "name": "Ogolcho",
        "country": "Ethiopia",
        "province": "Oromiya",
        "population": -1,
        "latitude": 8.05,
        "longitude": 39
    },
    {
        "name": "Negash",
        "country": "Ethiopia",
        "province": "Tigray",
        "population": -1,
        "latitude": 13.8783333,
        "longitude": 39.5977778
    },
    {
        "name": "Mustahīl",
        "country": "Ethiopia",
        "province": "Somali",
        "population": -1,
        "latitude": 5.243611,
        "longitude": 44.731944
    },
    {
        "name": "Mugī",
        "country": "Ethiopia",
        "province": "Oromiya",
        "population": -1,
        "latitude": 8.483333,
        "longitude": 34.583333
    },
    {
        "name": "Mot’a",
        "country": "Ethiopia",
        "province": "Amhara",
        "population": -1,
        "latitude": 11.083333,
        "longitude": 37.866667
    },
    {
        "name": "Mīlē",
        "country": "Ethiopia",
        "province": "Āfar",
        "population": -1,
        "latitude": 11.421724,
        "longitude": 40.762817
    },
    {
        "name": "Mī’ēso",
        "country": "Ethiopia",
        "province": "Oromiya",
        "population": -1,
        "latitude": 9.234776,
        "longitude": 40.755928
    },
    {
        "name": "Midega",
        "country": "Ethiopia",
        "province": "Oromiya",
        "population": -1,
        "latitude": 8.86897,
        "longitude": 42.123264
    },
    {
        "name": "Mataka",
        "country": "Ethiopia",
        "province": "Āfar",
        "population": -1,
        "latitude": 9.873906,
        "longitude": 40.506333
    },
    {
        "name": "Mēta",
        "country": "Ethiopia",
        "province": "Oromiya",
        "population": -1,
        "latitude": 9.345556,
        "longitude": 41.5075
    },
    {
        "name": "Mertule Maryam",
        "country": "Ethiopia",
        "province": "Amhara",
        "population": -1,
        "latitude": 10.833333,
        "longitude": 38.266667
    },
    {
        "name": "Mertī",
        "country": "Ethiopia",
        "province": "Oromiya",
        "population": -1,
        "latitude": 9.5,
        "longitude": 36.983333
    },
    {
        "name": "Mersa",
        "country": "Ethiopia",
        "province": "Amhara",
        "population": -1,
        "latitude": 11.666667,
        "longitude": 39.65
    },
    {
        "name": "Meraro",
        "country": "Ethiopia",
        "province": "Oromiya",
        "population": -1,
        "latitude": 7.416667,
        "longitude": 39.25
    },
    {
        "name": "Mengē",
        "country": "Ethiopia",
        "province": "Bīnshangul Gumuz",
        "population": -1,
        "latitude": 10.383333,
        "longitude": 34.766667
    },
    {
        "name": "Mena",
        "country": "Ethiopia",
        "province": "Oromiya",
        "population": -1,
        "latitude": 6.416667,
        "longitude": 39.85
    },
    {
        "name": "Melka Kunture",
        "country": "Ethiopia",
        "province": "Oromiya",
        "population": -1,
        "latitude": 8.683333,
        "longitude": 37.633333
    },
    {
        "name": "Melka Chireti",
        "country": "Ethiopia",
        "province": "Somali",
        "population": -1,
        "latitude": 5.333333,
        "longitude": 41.833333
    },
    {
        "name": "Mek’ī",
        "country": "Ethiopia",
        "province": "Oromiya",
        "population": -1,
        "latitude": 8.15,
        "longitude": 38.816667
    },
    {
        "name": "Mek’et’ewa",
        "country": "Ethiopia",
        "province": "Amhara",
        "population": -1,
        "latitude": 12.183333,
        "longitude": 38.35
    },
    {
        "name": "Mekane Īyesus",
        "country": "Ethiopia",
        "province": "Amhara",
        "population": -1,
        "latitude": 11.633333,
        "longitude": 38.066667
    },
    {
        "name": "Mekane Birhan",
        "country": "Ethiopia",
        "province": "Amhara",
        "population": -1,
        "latitude": 13.019167,
        "longitude": 38.136944
    },
    {
        "name": "Meda Welabu",
        "country": "Ethiopia",
        "province": "Oromiya",
        "population": -1,
        "latitude": 5.783333,
        "longitude": 39.683333
    },
    {
        "name": "May Ts’emrē",
        "country": "Ethiopia",
        "province": "Tigray",
        "population": -1,
        "latitude": 13.561389,
        "longitude": 38.1325
    },
    {
        "name": "May Mekden",
        "country": "Ethiopia",
        "province": "Tigray",
        "population": -1,
        "latitude": 13.5827778,
        "longitude": 39.5683333
    },
    {
        "name": "Masha",
        "country": "Ethiopia",
        "province": "SNNPR",
        "population": -1,
        "latitude": 7.733333,
        "longitude": 35.483333
    },
    {
        "name": "Mana",
        "country": "Ethiopia",
        "province": "Oromiya",
        "population": -1,
        "latitude": 6.933333,
        "longitude": 40.65
    },
    {
        "name": "Mambuk",
        "country": "Ethiopia",
        "province": "Bīnshangul Gumuz",
        "population": -1,
        "latitude": 11.283333,
        "longitude": 36.216667
    },
    {
        "name": "Majī",
        "country": "Ethiopia",
        "province": "SNNPR",
        "population": -1,
        "latitude": 6.176577,
        "longitude": 35.582408
    },
    {
        "name": "Majetē",
        "country": "Ethiopia",
        "province": "Amhara",
        "population": -1,
        "latitude": 10.492142,
        "longitude": 39.864105
    },
    {
        "name": "Mahdere Maryam",
        "country": "Ethiopia",
        "province": "Amhara",
        "population": -1,
        "latitude": 11.716667,
        "longitude": 37.916667
    },
    {
        "name": "Lomē",
        "country": "Ethiopia",
        "province": "Oromiya",
        "population": -1,
        "latitude": 9.716667,
        "longitude": 38.3
    },
    {
        "name": "Leku",
        "country": "Ethiopia",
        "province": "SNNPR",
        "population": 11398,
        "latitude": 6.873085958710427,
        "longitude": 38.444252014160156
    },
    {
        "name": "Lefe Īsa",
        "country": "Ethiopia",
        "province": "Somali",
        "population": -1,
        "latitude": 9.821944,
        "longitude": 43.167778
    },
    {
        "name": "Lasarat",
        "country": "Ethiopia",
        "province": "Somali",
        "population": -1,
        "latitude": 10.664933,
        "longitude": 42.455275
    },
    {
        "name": "Kwīhā",
        "country": "Ethiopia",
        "province": "Tigray",
        "population": -1,
        "latitude": 13.4793,
        "longitude": 39.53937
    },
    {
        "name": "Kuyu",
        "country": "Ethiopia",
        "province": "Oromiya",
        "population": -1,
        "latitude": 9.866667,
        "longitude": 38.35
    },
    {
        "name": "Fantaweina",
        "country": "Ethiopia",
        "province": "Somali",
        "population": -1,
        "latitude": 8.025,
        "longitude": 46.3158333
    },
    {
        "name": "K’unī",
        "country": "Ethiopia",
        "province": "Oromiya",
        "population": -1,
        "latitude": 9.020954,
        "longitude": 40.903283
    },
    {
        "name": "K’ulubī",
        "country": "Ethiopia",
        "province": "Oromiya",
        "population": -1,
        "latitude": 9.426944,
        "longitude": 41.683056
    },
    {
        "name": "Dehana",
        "country": "Ethiopia",
        "province": "Amhara",
        "population": -1,
        "latitude": 9.974684,
        "longitude": 39.683934
    },
    {
        "name": "Dēdo",
        "country": "Ethiopia",
        "province": "Oromiya",
        "population": -1,
        "latitude": 7.516667,
        "longitude": 36.866667
    },
    {
        "name": "Dedecha",
        "country": "Ethiopia",
        "province": "Āfar",
        "population": -1,
        "latitude": 9.141269,
        "longitude": 39.824142
    },
    {
        "name": "Debre Zebīt",
        "country": "Ethiopia",
        "province": "Amhara",
        "population": -1,
        "latitude": 11.816667,
        "longitude": 38.583333
    },
    {
        "name": "Debre Selam",
        "country": "Ethiopia",
        "province": "Oromiya",
        "population": -1,
        "latitude": 8.25,
        "longitude": 40.133333
    },
    {
        "name": "Debre Lībanos",
        "country": "Ethiopia",
        "province": "Oromiya",
        "population": -1,
        "latitude": 9.716667,
        "longitude": 38.866667
    },
    {
        "name": "Darīmu",
        "country": "Ethiopia",
        "province": "Oromiya",
        "population": -1,
        "latitude": 8.6097507,
        "longitude": 36.1865781
    },
    {
        "name": "Dara",
        "country": "Ethiopia",
        "province": "SNNPR",
        "population": -1,
        "latitude": 6.366667,
        "longitude": 37.416667
    },
    {
        "name": "Danot",
        "country": "Ethiopia",
        "province": "Somali",
        "population": -1,
        "latitude": 7.555833,
        "longitude": 45.289167
    },
    {
        "name": "Dalocha",
        "country": "Ethiopia",
        "province": "SNNPR",
        "population": -1,
        "latitude": 7.783333,
        "longitude": 38.25
    },
    {
        "name": "Dalē",
        "country": "Ethiopia",
        "province": "Oromiya",
        "population": -1,
        "latitude": 9.366667,
        "longitude": 36.866667
    },
    {
        "name": "Dala",
        "country": "Ethiopia",
        "province": "Tigray",
        "population": -1,
        "latitude": 12.998333,
        "longitude": 39.353611
    },
    {
        "name": "Ciro",
        "country": "Ethiopia",
        "province": "SNNPR",
        "population": -1,
        "latitude": 7.833333,
        "longitude": 38.233333
    },
    {
        "name": "Ch’īna Hasen",
        "country": "Ethiopia",
        "province": "Somali",
        "population": -1,
        "latitude": 9.505278,
        "longitude": 42.611111
    },
    {
        "name": "Cherari",
        "country": "Ethiopia",
        "province": "Bīnshangul Gumuz",
        "population": -1,
        "latitude": 9.983333,
        "longitude": 35.883333
    },
    {
        "name": "Chenker",
        "country": "Ethiopia",
        "province": "Amhara",
        "population": -1,
        "latitude": 12.316667,
        "longitude": 37.266667
    },
    {
        "name": "Ch’ench’a",
        "country": "Ethiopia",
        "province": "SNNPR",
        "population": -1,
        "latitude": 6.25,
        "longitude": 37.566667
    },
    {
        "name": "Ch’elek’ot",
        "country": "Ethiopia",
        "province": "Tigray",
        "population": -1,
        "latitude": 13.374188,
        "longitude": 39.47878
    },
    {
        "name": "Cheha",
        "country": "Ethiopia",
        "province": "SNNPR",
        "population": -1,
        "latitude": 8.133333,
        "longitude": 37.766667
    },
    {
        "name": "Ch’efē Donsa",
        "country": "Ethiopia",
        "province": "Oromiya",
        "population": -1,
        "latitude": 8.966667,
        "longitude": 39.116667
    },
    {
        "name": "Bulk’ī",
        "country": "Ethiopia",
        "province": "SNNPR",
        "population": -1,
        "latitude": 6.166667,
        "longitude": 36.616667
    },
    {
        "name": "Boreda",
        "country": "Ethiopia",
        "province": "Oromiya",
        "population": -1,
        "latitude": 9.335403,
        "longitude": 41.285685
    },
    {
        "name": "Borē",
        "country": "Ethiopia",
        "province": "Oromiya",
        "population": -1,
        "latitude": 6.366667,
        "longitude": 38.616667
    },
    {
        "name": "Borciota",
        "country": "Ethiopia",
        "province": "Oromiya",
        "population": -1,
        "latitude": 8.766667,
        "longitude": 39.716667
    },
    {
        "name": "Bonkē",
        "country": "Ethiopia",
        "province": "SNNPR",
        "population": -1,
        "latitude": 6.05,
        "longitude": 37.333333
    },
    {
        "name": "Bolo",
        "country": "Ethiopia",
        "province": "Amhara",
        "population": -1,
        "latitude": 8.833333,
        "longitude": 39.366667
    },
    {
        "name": "Bojī",
        "country": "Ethiopia",
        "province": "Oromiya",
        "population": -1,
        "latitude": 9.383333,
        "longitude": 35.666667
    },
    {
        "name": "Boh",
        "country": "Ethiopia",
        "province": "Somali",
        "population": -1,
        "latitude": 7.355833,
        "longitude": 46.606944
    },
    {
        "name": "Bogol Manyo",
        "country": "Ethiopia",
        "province": "Somali",
        "population": -1,
        "latitude": 4.5175,
        "longitude": 41.5363889
    },
    {
        "name": "Bīye Ānod",
        "country": "Ethiopia",
        "province": "Somali",
        "population": -1,
        "latitude": 10.600589,
        "longitude": 42.673728
    },
    {
        "name": "Bīlo",
        "country": "Ethiopia",
        "province": "Oromiya",
        "population": -1,
        "latitude": 8.666667,
        "longitude": 37.583333
    },
    {
        "name": "Bīlo",
        "country": "Ethiopia",
        "province": "Oromiya",
        "population": -1,
        "latitude": 8.9,
        "longitude": 37
    },
    {
        "name": "Bīkē",
        "country": "Ethiopia",
        "province": "Somali",
        "population": -1,
        "latitude": 9.52935,
        "longitude": 41.196018
    },
    {
        "name": "Berberē",
        "country": "Ethiopia",
        "province": "Oromiya",
        "population": -1,
        "latitude": 7.083333,
        "longitude": 40.8
    },
    {
        "name": "Benja",
        "country": "Ethiopia",
        "province": "Amhara",
        "population": -1,
        "latitude": 11.1,
        "longitude": 36.933333
    },
    {
        "name": "Bek’ojī",
        "country": "Ethiopia",
        "province": "Oromiya",
        "population": -1,
        "latitude": 7.533333,
        "longitude": 39.25
    },
    {
        "name": "Bedeno",
        "country": "Ethiopia",
        "province": "Oromiya",
        "population": -1,
        "latitude": 9.109722,
        "longitude": 41.631944
    },
    {
        "name": "Bedadī",
        "country": "Ethiopia",
        "province": "Oromiya",
        "population": -1,
        "latitude": 7.45,
        "longitude": 36.466667
    },
    {
        "name": "Bambesi",
        "country": "Ethiopia",
        "province": "Bīnshangul Gumuz",
        "population": -1,
        "latitude": 9.75,
        "longitude": 34.733333
    },
    {
        "name": "Balch’",
        "country": "Ethiopia",
        "province": "Amhara",
        "population": -1,
        "latitude": 8.916667,
        "longitude": 39.366667
    },
    {
        "name": "Boku",
        "country": "Ethiopia",
        "province": "Oromiya",
        "population": -1,
        "latitude": 9.133056,
        "longitude": 42.078333
    },
    {
        "name": "Bako",
        "country": "Ethiopia",
        "province": "Oromiya",
        "population": -1,
        "latitude": 9.133333,
        "longitude": 37.05
    },
    {
        "name": "Bachuma",
        "country": "Ethiopia",
        "province": "SNNPR",
        "population": -1,
        "latitude": 6.79637,
        "longitude": 35.920907
    },
    {
        "name": "Babīlē",
        "country": "Ethiopia",
        "province": "Oromiya",
        "population": -1,
        "latitude": 9.225556,
        "longitude": 42.332222
    },
    {
        "name": "Azezo",
        "country": "Ethiopia",
        "province": "Amhara",
        "population": -1,
        "latitude": 12.55,
        "longitude": 37.425556
    },
    {
        "name": "Aysha",
        "country": "Ethiopia",
        "province": "Somali",
        "population": -1,
        "latitude": 10.755418,
        "longitude": 42.573678
    },
    {
        "name": "Āydora",
        "country": "Ethiopia",
        "province": "Somali",
        "population": -1,
        "latitude": 9.857939,
        "longitude": 41.367935
    },
    {
        "name": "Āybga",
        "country": "Ethiopia",
        "province": "Amhara",
        "population": -1,
        "latitude": 12.166667,
        "longitude": 37.016667
    },
    {
        "name": "Āwu Berē",
        "country": "Ethiopia",
        "province": "Somali",
        "population": -1,
        "latitude": 9.443056,
        "longitude": 43.293611
    },
    {
        "name": "Āwarē",
        "country": "Ethiopia",
        "province": "Somali",
        "population": -1,
        "latitude": 8.256111,
        "longitude": 44.156667
    },
    {
        "name": "Āshebo",
        "country": "Ethiopia",
        "province": "Oromiya",
        "population": -1,
        "latitude": 4.7,
        "longitude": 38.133333
    },
    {
        "name": "Āsela",
        "country": "Ethiopia",
        "province": "Oromiya",
        "population": -1,
        "latitude": 7.95,
        "longitude": 39.133333
    },
    {
        "name": "Asegela",
        "country": "Ethiopia",
        "province": "Āfar",
        "population": -1,
        "latitude": 13.9135013,
        "longitude": 40.736546
    },
    {
        "name": "Āsebot",
        "country": "Ethiopia",
        "province": "Oromiya",
        "population": -1,
        "latitude": 9.175669,
        "longitude": 40.666417
    },
    {
        "name": "Asale",
        "country": "Ethiopia",
        "province": "Āfar",
        "population": -1,
        "latitude": 14.241852,
        "longitude": 40.288522
    },
    {
        "name": "Ārjo",
        "country": "Ethiopia",
        "province": "Oromiya",
        "population": -1,
        "latitude": 8.75,
        "longitude": 36.5
    },
    {
        "name": "Ankober",
        "country": "Ethiopia",
        "province": "Amhara",
        "population": -1,
        "latitude": 9.596238,
        "longitude": 39.732432
    },
    {
        "name": "Āngach’a",
        "country": "Ethiopia",
        "province": "SNNPR",
        "population": -1,
        "latitude": 7.333333,
        "longitude": 37.85
    },
    {
        "name": "Āndracha",
        "country": "Ethiopia",
        "province": "SNNPR",
        "population": -1,
        "latitude": 7.2,
        "longitude": 36.266667
    },
    {
        "name": "Āncharo",
        "country": "Ethiopia",
        "province": "Amhara",
        "population": -1,
        "latitude": 11.05,
        "longitude": 39.783333
    },
    {
        "name": "Amde Werk",
        "country": "Ethiopia",
        "province": "Amhara",
        "population": -1,
        "latitude": 12.349722,
        "longitude": 38.7525
    },
    {
        "name": "Amba Giorgis",
        "country": "Ethiopia",
        "province": "Amhara",
        "population": -1,
        "latitude": 12.768889,
        "longitude": 37.623889
    },
    {
        "name": "Ambalage",
        "country": "Ethiopia",
        "province": "Tigray",
        "population": -1,
        "latitude": 12.936944,
        "longitude": 39.516111
    },
    {
        "name": "Aliyu Amba",
        "country": "Ethiopia",
        "province": "Amhara",
        "population": -1,
        "latitude": 9.544078,
        "longitude": 39.802311
    },
    {
        "name": "‘Alem T’ēna",
        "country": "Ethiopia",
        "province": "Oromiya",
        "population": -1,
        "latitude": 8.3,
        "longitude": 38.95
    },
    {
        "name": "‘Alem Gena",
        "country": "Ethiopia",
        "province": "Oromiya",
        "population": -1,
        "latitude": 8.916667,
        "longitude": 38.65
    },
    {
        "name": "‘Alemaya",
        "country": "Ethiopia",
        "province": "Oromiya",
        "population": -1,
        "latitude": 9.393344,
        "longitude": 42.009673
    },
    {
        "name": "Ālē",
        "country": "Ethiopia",
        "province": "Oromiya",
        "population": -1,
        "latitude": 9.283333,
        "longitude": 35.633333
    },
    {
        "name": "Alamata",
        "country": "Ethiopia",
        "province": "Tigray",
        "population": -1,
        "latitude": 12.415998731190138,
        "longitude": 39.55970764160156
    },
    {
        "name": "Casta",
        "country": "Ethiopia",
        "province": "Amhara",
        "population": -1,
        "latitude": 10.85,
        "longitude": 39.183333
    },
    {
        "name": "Āk’ak’ī Besek’a",
        "country": "Ethiopia",
        "province": "Addis Ababa",
        "population": -1,
        "latitude": 8.866667,
        "longitude": 38.783333
    },
    {
        "name": "Āgula-e",
        "country": "Ethiopia",
        "province": "Tigray",
        "population": -1,
        "latitude": 13.69392,
        "longitude": 39.58449
    },
    {
        "name": "Afder",
        "country": "Ethiopia",
        "province": "Somali",
        "population": -1,
        "latitude": 5.216667,
        "longitude": 42.183333
    },
    {
        "name": "Āfdem",
        "country": "Ethiopia",
        "province": "Somali",
        "population": -1,
        "latitude": 9.466667,
        "longitude": 41
    },
    {
        "name": "Āfambo",
        "country": "Ethiopia",
        "province": "Āfar",
        "population": -1,
        "latitude": 11.477041,
        "longitude": 41.684029
    },
    {
        "name": "Ādī Shah",
        "country": "Ethiopia",
        "province": "Tigray",
        "population": -1,
        "latitude": 12.861389,
        "longitude": 39.567222
    },
    {
        "name": "Ādī Gudom",
        "country": "Ethiopia",
        "province": "Tigray",
        "population": -1,
        "latitude": 13.24696,
        "longitude": 39.51645
    },
    {
        "name": "Ādīgala",
        "country": "Ethiopia",
        "province": "Somali",
        "population": -1,
        "latitude": 10.42425,
        "longitude": 42.237378
    },
    {
        "name": "Ādī Da‘iro",
        "country": "Ethiopia",
        "province": "Tigray",
        "population": -1,
        "latitude": 14.31557,
        "longitude": 38.170892
    },
    {
        "name": "Ādī Āwi’āla",
        "country": "Ethiopia",
        "province": "Tigray",
        "population": -1,
        "latitude": 14.534722,
        "longitude": 38.061389
    },
    {
        "name": "Ādī Ādemay",
        "country": "Ethiopia",
        "province": "Tigray",
        "population": -1,
        "latitude": 14.129017,
        "longitude": 38.25246
    },
    {
        "name": "Ādī Ābayo",
        "country": "Ethiopia",
        "province": "Tigray",
        "population": -1,
        "latitude": 14.222095,
        "longitude": 38.294198
    },
    {
        "name": "Ādamī Tulu",
        "country": "Ethiopia",
        "province": "Oromiya",
        "population": -1,
        "latitude": 7.866667,
        "longitude": 38.7
    },
    {
        "name": "Ābomsa",
        "country": "Ethiopia",
        "province": "Oromiya",
        "population": -1,
        "latitude": 8.583333,
        "longitude": 39.85
    },
    {
        "name": "Ābolē",
        "country": "Ethiopia",
        "province": "Amhara",
        "population": -1,
        "latitude": 10.950927,
        "longitude": 39.509387
    },
    {
        "name": "Abobo",
        "country": "Ethiopia",
        "province": "Gambela",
        "population": -1,
        "latitude": 7.85,
        "longitude": 34.55
    },
    {
        "name": "Ābergelē",
        "country": "Ethiopia",
        "province": "Amhara",
        "population": -1,
        "latitude": 13.1,
        "longitude": 38.95
    },
    {
        "name": "Tiya",
        "country": "Ethiopia",
        "province": "Mirab Shewa",
        "population": -1,
        "latitude": 8.433333,
        "longitude": 38.616667
    },
    {
        "name": "Larre",
        "country": "Ethiopia",
        "province": "Gambela",
        "population": -1,
        "latitude": 8.302362,
        "longitude": 33.891335
    },
    {
        "name": "Aseko",
        "country": "Ethiopia",
        "province": "Oromiya",
        "population": -1,
        "latitude": 8.31,
        "longitude": 40.02
    },
    {
        "name": "Erebti",
        "country": "Ethiopia",
        "province": "Tigray",
        "population": -1,
        "latitude": 13.25,
        "longitude": 40.333333
    },
    {
        "name": "Amibara",
        "country": "Ethiopia",
        "province": "Mirab Harerge",
        "population": -1,
        "latitude": 9.666667,
        "longitude": 40.333333
    },
    {
        "name": "Filtu",
        "country": "Ethiopia",
        "province": "Sidamo",
        "population": -1,
        "latitude": 4.96666666666667,
        "longitude": 40.3833333333333
    },
    {
        "name": "Kobo",
        "country": "Ethiopia",
        "province": "Amhara",
        "population": -1,
        "latitude": 10.027979,
        "longitude": 39.852805
    },
    {
        "name": "Zalambessa",
        "country": "Ethiopia",
        "province": "Tigray",
        "population": -1,
        "latitude": 14.4167,
        "longitude": 39.3333
    },
    {
        "name": "Tsorona-Zalambessa",
        "country": "Ethiopia",
        "province": "Tigray",
        "population": -1,
        "latitude": 14.4167,
        "longitude": 39.3333
    },
    {
        "name": "Kebri Mangest",
        "country": "Ethiopia",
        "province": "Sidamo",
        "population": -1,
        "latitude": 5.883333,
        "longitude": 38.983333
    },
    {
        "name": "Emfraz",
        "country": "Ethiopia",
        "province": "Debub Gonder",
        "population": -1,
        "latitude": 12.258333,
        "longitude": 37.629167
    },
    {
        "name": "Selamago",
        "country": "Ethiopia",
        "province": "Gamo Gofa",
        "population": -1,
        "latitude": 5.916667,
        "longitude": 36.083333
    },
    {
        "name": "Bondara",
        "country": "Ethiopia",
        "province": "Somali",
        "population": -1,
        "latitude": 11.00816,
        "longitude": 42.34311
    },
    {
        "name": "Sankal",
        "country": "Ethiopia",
        "province": "Somali",
        "population": -1,
        "latitude": 10.99506,
        "longitude": 42.31756
    },
    {
        "name": "Harewe",
        "country": "Ethiopia",
        "province": "Harari",
        "population": -1,
        "latitude": 9.26942,
        "longitude": 42.176012
    },
    {
        "name": "Bahara",
        "country": "Ethiopia",
        "province": "Tigray",
        "population": -1,
        "latitude": 14.0407684,
        "longitude": 38.3893114
    },
    {
        "name": "Bur Hoos",
        "country": "Ethiopia",
        "province": "Somali",
        "population": -1,
        "latitude": 4.6352733,
        "longitude": 42.9686322
    },
    {
        "name": "Bargheile",
        "country": "Ethiopia",
        "province": "Somali",
        "population": -1,
        "latitude": 4.6328547,
        "longitude": 42.6316564
    },
    {
        "name": "Duuban",
        "country": "Ethiopia",
        "province": "Somali",
        "population": 15000,
        "latitude": 6.67985,
        "longitude": 46.06619
    },
    {
        "name": "El Dibir",
        "country": "Ethiopia",
        "province": "Somali",
        "population": -1,
        "latitude": 6.417411,
        "longitude": 45.574549
    },
    {
        "name": "Zobil",
        "country": "Ethiopia",
        "province": "Amhara",
        "population": -1,
        "latitude": 12.2,
        "longitude": 39.766667
    },
    {
        "name": "Ziwad",
        "country": "Ethiopia",
        "province": "Amhara",
        "population": -1,
        "latitude": 10.266667,
        "longitude": 37.666667
    },
    {
        "name": "Zera Biruk",
        "country": "Ethiopia",
        "province": "Amhara",
        "population": -1,
        "latitude": 11.233333,
        "longitude": 37.483333
    },
    {
        "name": "Zehārano",
        "country": "Ethiopia",
        "province": "Tigray",
        "population": -1,
        "latitude": 13.888138,
        "longitude": 39.753702
    },
    {
        "name": "Zegē",
        "country": "Ethiopia",
        "province": "Amhara",
        "population": -1,
        "latitude": 11.683333,
        "longitude": 37.316667
    },
    {
        "name": "Daba Gorayale",
        "country": "Ethiopia",
        "province": "Somali",
        "population": -1,
        "latitude": 8.724722,
        "longitude": 44.82
    },
    {
        "name": "Waal",
        "country": "Ethiopia",
        "province": "Somali",
        "population": 24000,
        "latitude": 6.886577,
        "longitude": 46.215083
    },
    {
        "name": "Gumer",
        "country": "Ethiopia",
        "province": "Ethiopia",
        "population": -1,
        "latitude": 9.0997222,
        "longitude": 43.8966667
    },
    {
        "name": "Aran Areh",
        "country": "Ethiopia",
        "province": "Somali",
        "population": -1,
        "latitude": 8.998333,
        "longitude": 43.9975
    },
    {
        "name": "Alaybede",
        "country": "Ethiopia",
        "province": "Ethiopia",
        "population": -1,
        "latitude": 9.3827778,
        "longitude": 43.5138889
    },
    {
        "name": "Kufē",
        "country": "Ethiopia",
        "province": "SNNPR",
        "population": -1,
        "latitude": 7.066667,
        "longitude": 35.616667
    },
    {
        "name": "K’oyets’a",
        "country": "Ethiopia",
        "province": "Tigray",
        "population": -1,
        "latitude": 14.146389,
        "longitude": 38.421667
    },
    {
        "name": "K’oyē",
        "country": "Ethiopia",
        "province": "Oromiya",
        "population": -1,
        "latitude": 8.583333,
        "longitude": 36.816667
    },
    {
        "name": "Kormargefīya",
        "country": "Ethiopia",
        "province": "Amhara",
        "population": -1,
        "latitude": 9.587354,
        "longitude": 39.533778
    },
    {
        "name": "Kork",
        "country": "Ethiopia",
        "province": "Amhara",
        "population": -1,
        "latitude": 10.033333,
        "longitude": 37.816667
    },
    {
        "name": "Koremash",
        "country": "Ethiopia",
        "province": "Amhara",
        "population": -1,
        "latitude": 9.224932,
        "longitude": 39.289388
    },
    {
        "name": "K’orē",
        "country": "Ethiopia",
        "province": "Oromiya",
        "population": -1,
        "latitude": 7.216667,
        "longitude": 38.916667
    },
    {
        "name": "K’ore",
        "country": "Ethiopia",
        "province": "Oromiya",
        "population": -1,
        "latitude": 8.083333,
        "longitude": 40.783333
    },
    {
        "name": "Kora",
        "country": "Ethiopia",
        "province": "Oromiya",
        "population": -1,
        "latitude": 8.816667,
        "longitude": 38.9
    },
    {
        "name": "Kono",
        "country": "Ethiopia",
        "province": "Gambela",
        "population": -1,
        "latitude": 8.262346,
        "longitude": 33.913552
    },
    {
        "name": "Kombolshī",
        "country": "Ethiopia",
        "province": "Oromiya",
        "population": -1,
        "latitude": 9.45,
        "longitude": 35.2
    },
    {
        "name": "Koma",
        "country": "Ethiopia",
        "province": "Oromiya",
        "population": -1,
        "latitude": 8.45,
        "longitude": 36.866667
    },
    {
        "name": "Kolu",
        "country": "Ethiopia",
        "province": "Oromiya",
        "population": -1,
        "latitude": 9.316667,
        "longitude": 38.1
    },
    {
        "name": "Kolu",
        "country": "Ethiopia",
        "province": "SNNPR",
        "population": -1,
        "latitude": 5.976885,
        "longitude": 35.566027
    },
    {
        "name": "Kololo",
        "country": "Ethiopia",
        "province": "Somali",
        "population": -1,
        "latitude": 7.399908,
        "longitude": 41.980716
    },
    {
        "name": "K’ola Diba",
        "country": "Ethiopia",
        "province": "Amhara",
        "population": -1,
        "latitude": 12.424167,
        "longitude": 37.325
    },
    {
        "name": "Kistana",
        "country": "Ethiopia",
        "province": "Oromiya",
        "population": -1,
        "latitude": 9.6,
        "longitude": 37.183333
    },
    {
        "name": "K’idamē Gebeya",
        "country": "Ethiopia",
        "province": "Oromiya",
        "population": -1,
        "latitude": 8.3,
        "longitude": 35.466667
    },
    {
        "name": "Kerteta",
        "country": "Ethiopia",
        "province": "Āfar",
        "population": -1,
        "latitude": 9.377216,
        "longitude": 39.94611
    },
    {
        "name": "Kerseraw",
        "country": "Ethiopia",
        "province": "Tigray",
        "population": -1,
        "latitude": 14.339444,
        "longitude": 39.378056
    },
    {
        "name": "K’erē Kora",
        "country": "Ethiopia",
        "province": "Oromiya",
        "population": -1,
        "latitude": 9.833333,
        "longitude": 38.383333
    },
    {
        "name": "Keranyu",
        "country": "Ethiopia",
        "province": "Oromiya",
        "population": -1,
        "latitude": 5.05,
        "longitude": 38.3
    },
    {
        "name": "Kembolcha",
        "country": "Ethiopia",
        "province": "Oromiya",
        "population": -1,
        "latitude": 9.533333,
        "longitude": 37.5
    },
    {
        "name": "Kembolcha",
        "country": "Ethiopia",
        "province": "Oromiya",
        "population": -1,
        "latitude": 7.766667,
        "longitude": 35.166667
    },
    {
        "name": "Kembolcha",
        "country": "Ethiopia",
        "province": "Oromiya",
        "population": -1,
        "latitude": 7.519519,
        "longitude": 41.269227
    },
    {
        "name": "Kella Soiama",
        "country": "Ethiopia",
        "province": "Oromiya",
        "population": -1,
        "latitude": 8.616667,
        "longitude": 34.916667
    },
    {
        "name": "K’eladī",
        "country": "Ethiopia",
        "province": "Oromiya",
        "population": -1,
        "latitude": 8.483333,
        "longitude": 38.183333
    },
    {
        "name": "Kegha",
        "country": "Ethiopia",
        "province": "SNNPR",
        "population": -1,
        "latitude": 5.133333,
        "longitude": 36.766667
    },
    {
        "name": "K’eftya",
        "country": "Ethiopia",
        "province": "Tigray",
        "population": -1,
        "latitude": 13.9,
        "longitude": 37.116667
    },
    {
        "name": "K’ech’emē",
        "country": "Ethiopia",
        "province": "Oromiya",
        "population": -1,
        "latitude": 9.883333,
        "longitude": 38.183333
    },
    {
        "name": "K’ebrī Beyah",
        "country": "Ethiopia",
        "province": "Somali",
        "population": -1,
        "latitude": 9.103611,
        "longitude": 43.174722
    },
    {
        "name": "K’arsa",
        "country": "Ethiopia",
        "province": "Oromiya",
        "population": -1,
        "latitude": 8.383333,
        "longitude": 39.733333
    },
    {
        "name": "K’aha",
        "country": "Ethiopia",
        "province": "Somali",
        "population": -1,
        "latitude": 8.972778,
        "longitude": 43.011667
    },
    {
        "name": "Kabī",
        "country": "Ethiopia",
        "province": "Amhara",
        "population": -1,
        "latitude": 10.827844,
        "longitude": 39.468686
    },
    {
        "name": "Jīrīyelē",
        "country": "Ethiopia",
        "province": "Somali",
        "population": -1,
        "latitude": 9.055,
        "longitude": 43.318333
    },
    {
        "name": "Jirhul",
        "country": "Ethiopia",
        "province": "Somali",
        "population": -1,
        "latitude": 9.300556,
        "longitude": 42.91
    },
    {
        "name": "Jījīra",
        "country": "Ethiopia",
        "province": "Tigray",
        "population": -1,
        "latitude": 12.683333,
        "longitude": 39.65
    },
    {
        "name": "Jihur",
        "country": "Ethiopia",
        "province": "Amhara",
        "population": -1,
        "latitude": 10.019679,
        "longitude": 39.248588
    },
    {
        "name": "Jiga",
        "country": "Ethiopia",
        "province": "Amhara",
        "population": -1,
        "latitude": 10.666667,
        "longitude": 37.366667
    },
    {
        "name": "Jība",
        "country": "Ethiopia",
        "province": "Tigray",
        "population": -1,
        "latitude": 13.040014,
        "longitude": 39.099941
    },
    {
        "name": "Jejeba",
        "country": "Ethiopia",
        "province": "Oromiya",
        "population": -1,
        "latitude": 8.85,
        "longitude": 41.383333
    },
    {
        "name": "Jedo",
        "country": "Ethiopia",
        "province": "Amhara",
        "population": -1,
        "latitude": 11.333333,
        "longitude": 38.316667
    },
    {
        "name": "Jarso",
        "country": "Ethiopia",
        "province": "Oromiya",
        "population": -1,
        "latitude": 9.466667,
        "longitude": 35.266667
    },
    {
        "name": "Jara",
        "country": "Ethiopia",
        "province": "Amhara",
        "population": -1,
        "latitude": 10.509219,
        "longitude": 39.947363
    },
    {
        "name": "Jan Genet",
        "country": "Ethiopia",
        "province": "Amhara",
        "population": -1,
        "latitude": 11.316667,
        "longitude": 37.65
    },
    {
        "name": "Jamuda",
        "country": "Ethiopia",
        "province": "Oromiya",
        "population": -1,
        "latitude": 4.916667,
        "longitude": 38.716667
    },
    {
        "name": "Jama",
        "country": "Ethiopia",
        "province": "Amhara",
        "population": -1,
        "latitude": 10.634114,
        "longitude": 39.331502
    },
    {
        "name": "Jaba",
        "country": "Ethiopia",
        "province": "SNNPR",
        "population": -1,
        "latitude": 6.222708,
        "longitude": 35.286406
    },
    {
        "name": "Iualo",
        "country": "Ethiopia",
        "province": "Amhara",
        "population": -1,
        "latitude": 9.916667,
        "longitude": 39.016667
    },
    {
        "name": "Int’ot’o",
        "country": "Ethiopia",
        "province": "Addis Ababa",
        "population": -1,
        "latitude": 9.1,
        "longitude": 38.7
    },
    {
        "name": "Ineguha",
        "country": "Ethiopia",
        "province": "Somali",
        "population": -1,
        "latitude": 8.920833,
        "longitude": 44.224722
    },
    {
        "name": "Inmeda",
        "country": "Ethiopia",
        "province": "Gambela",
        "population": -1,
        "latitude": 8.233333,
        "longitude": 34.083333
    },
    {
        "name": "Inewarī",
        "country": "Ethiopia",
        "province": "Amhara",
        "population": -1,
        "latitude": 9.892401,
        "longitude": 39.146486
    },
    {
        "name": "Inda Tekle Haymanot",
        "country": "Ethiopia",
        "province": "Tigray",
        "population": -1,
        "latitude": 14.111728,
        "longitude": 39.5969497
    },
    {
        "name": "Inda Silasē",
        "country": "Ethiopia",
        "province": "Tigray",
        "population": -1,
        "latitude": 13.507995,
        "longitude": 39.188245
    },
    {
        "name": "Inda Medhanī ‘Alem",
        "country": "Ethiopia",
        "province": "Tigray",
        "population": -1,
        "latitude": 13.06384,
        "longitude": 39.522205
    },
    {
        "name": "Inda Āba Ts’ahma",
        "country": "Ethiopia",
        "province": "Tigray",
        "population": -1,
        "latitude": 14.037668,
        "longitude": 39.093415
    },
    {
        "name": "Inda Āba Ts’ahma",
        "country": "Ethiopia",
        "province": "Tigray",
        "population": -1,
        "latitude": 14.038267,
        "longitude": 39.071173
    },
    {
        "name": "Inango",
        "country": "Ethiopia",
        "province": "Oromiya",
        "population": -1,
        "latitude": 9.166667,
        "longitude": 35.683333
    },
    {
        "name": "Ime Beholē",
        "country": "Ethiopia",
        "province": "Tigray",
        "population": -1,
        "latitude": 13.803151,
        "longitude": 39.756616
    },
    {
        "name": "Imba Iwir",
        "country": "Ethiopia",
        "province": "Tigray",
        "population": -1,
        "latitude": 14.337222,
        "longitude": 39.468333
    },
    {
        "name": "Īlo Un",
        "country": "Ethiopia",
        "province": "Somali",
        "population": -1,
        "latitude": 5.641111,
        "longitude": 44.066389
    },