[
    {
        "name": "Suva",
        "country": "Fiji",
        "province": "Central",
        "population": 77366,
        "latitude": -18.13683,
        "longitude": 178.42531
    },
    {
        "name": "Lautoka",
        "country": "Fiji",
        "province": "Western",
        "population": 52500,
        "latitude": -17.61686,
        "longitude": 177.45049
    },
    {
        "name": "Labasa",
        "country": "Fiji",
        "province": "Northern",
        "population": 27949,
        "latitude": -16.4332,
        "longitude": 179.36451
    },
    {
        "name": "Nadi",
        "country": "Fiji",
        "province": "Western",
        "population": 42284,
        "latitude": -17.803089,
        "longitude": 177.416166
    },
    {
        "name": "Ba",
        "country": "Fiji",
        "province": "Western",
        "population": 14596,
        "latitude": -17.534304219352475,
        "longitude": 177.67407417297363
    },
    {
        "name": "Levuka",
        "country": "Fiji",
        "province": "Eastern",
        "population": 8360,
        "latitude": -18.0666667,
        "longitude": 179.3166667
    },
    {
        "name": "Nasinu",
        "country": "Fiji",
        "province": "Central",
        "population": 92043,
        "latitude": -18.07051,
        "longitude": 178.51313
    },
    {
        "name": "Levuka",
        "country": "Fiji",
        "province": "Eastern",
        "population": -1,
        "latitude": -17.68177,
        "longitude": 178.83349
    },
    {
        "name": "Sigatoka",
        "country": "Fiji",
        "province": "Western",
        "population": 17622,
        "latitude": -18.14307,
        "longitude": 177.506912
    },
    {
        "name": "Motusa",
        "country": "Fiji",
        "province": "Rotuma",
        "population": -1,
        "latitude": -12.508056,
        "longitude": 177.039343
    },
    {
        "name": "Lovoni",
        "country": "Fiji",
        "province": "Fiji",
        "population": -1,
        "latitude": -17.690496,
        "longitude": 178.792035
    },
    {
        "name": "Lomanikoro",
        "country": "Fiji",
        "province": "Central",
        "population": -1,
        "latitude": -18.104466,
        "longitude": 178.558222
    },
    {
        "name": "Lauwaki",
        "country": "Fiji",
        "province": "Western",
        "population": -1,
        "latitude": -17.648511,
        "longitude": 177.405576
    },
    {
        "name": "Lami",
        "country": "Fiji",
        "province": "Central",
        "population": -1,
        "latitude": -18.11094,
        "longitude": 178.40943
    },
    {
        "name": "Ahau",
        "country": "Fiji",
        "province": "Rotuma",
        "population": -1,
        "latitude": -12.5,
        "longitude": 177.05
    },
    {
        "name": "Viseisei",
        "country": "Fiji",
        "province": "Western",
        "population": -1,
        "latitude": -17.68763,
        "longitude": 177.409144
    },
    {
        "name": "Vatukoula",
        "country": "Fiji",
        "province": "Western",
        "population": -1,
        "latitude": -17.50136,
        "longitude": 177.849833
    },
    {
        "name": "Vagadaci",
        "country": "Fiji",
        "province": "Eastern",
        "population": -1,
        "latitude": -17.671921,
        "longitude": 178.830766
    },
    {
        "name": "Vaileka",
        "country": "Fiji",
        "province": "Western",
        "population": -1,
        "latitude": -17.378936,
        "longitude": 178.153294
    },
    {
        "name": "Tavua",
        "country": "Fiji",
        "province": "Western",
        "population": -1,
        "latitude": -17.442209,
        "longitude": 177.862211
    },
    {
        "name": "Sorokoba",
        "country": "Fiji",
        "province": "Western",
        "population": -1,
        "latitude": -17.489906,
        "longitude": 177.703989
    },
    {
        "name": "Savusavu",
        "country": "Fiji",
        "province": "Northern",
        "population": -1,
        "latitude": -16.77942,
        "longitude": 179.33564
    },
    {
        "name": "Navua",
        "country": "Fiji",
        "province": "Central",
        "population": -1,
        "latitude": -18.222706,
        "longitude": 178.170024
    },
    {
        "name": "Navidamu",
        "country": "Fiji",
        "province": "Northern",
        "population": -1,
        "latitude": -16.523488,
        "longitude": 178.909985
    },
    {
        "name": "Navala",
        "country": "Fiji",
        "province": "Western",
        "population": -1,
        "latitude": -17.658297,
        "longitude": 177.813183
    },
    {
        "name": "Nausori",
        "country": "Fiji",
        "province": "Central",
        "population": -1,
        "latitude": -18.031336,
        "longitude": 178.530631
    },
    {
        "name": "Namuana",
        "country": "Fiji",
        "province": "Fiji",
        "population": -1,
        "latitude": -19.05774,
        "longitude": 178.15511
    },
    {
        "name": "Nabuna",
        "country": "Fiji",
        "province": "Eastern",
        "population": -1,
        "latitude": -17.249701,
        "longitude": 179.38374
    },
    {
        "name": "Nabukelevu",
        "country": "Fiji",
        "province": "Eastern",
        "population": -1,
        "latitude": -19.127247,
        "longitude": 177.955512
    },
    {
        "name": "Nabua",
        "country": "Fiji",
        "province": "Central",
        "population": -1,
        "latitude": -18.107848,
        "longitude": 178.560902
    },
    {
        "name": "Vatoa",
        "country": "Fiji",
        "province": "Eastern",
        "population": -1,
        "latitude": -19.822111,
        "longitude": -178.251372
    },
    {
        "name": "Somosomo",
        "country": "Fiji",
        "province": "Northern",
        "population": -1,
        "latitude": -16.77228840751432,
        "longitude": -179.97053861618042
    },
    {
        "name": "Mbouma",
        "country": "Fiji",
        "province": "Northern",
        "population": -1,
        "latitude": -16.8226166084774,
        "longitude": -179.870910644531
    },
    {
        "name": "Lomaloma",
        "country": "Fiji",
        "province": "Eastern",
        "population": -1,
        "latitude": -17.289423,
        "longitude": -178.987171
    },
    {
        "name": "Nakodu",
        "country": "Fiji",
        "province": "Eastern",
        "population": -1,
        "latitude": -17.368509,
        "longitude": 179.417023
    },
    {
        "name": "Nakelo Landing",
        "country": "Fiji",
        "province": "Central",
        "population": -1,
        "latitude": -18.0617,
        "longitude": 178.598951
    },
    {
        "name": "Nakalawaca",
        "country": "Fiji",
        "province": "Central",
        "population": -1,
        "latitude": -17.833139,
        "longitude": 178.553205
    },
    {
        "name": "Naivuvuni",
        "country": "Fiji",
        "province": "Western",
        "population": -1,
        "latitude": -17.375548,
        "longitude": 178.0906
    },
    {
        "name": "Naivuruvuru",
        "country": "Fiji",
        "province": "Central",
        "population": -1,
        "latitude": -17.872488,
        "longitude": 178.609076
    },
    {
        "name": "Naivaka",
        "country": "Fiji",
        "province": "Northern",
        "population": -1,
        "latitude": -16.648437,
        "longitude": 178.523273
    },
    {
        "name": "Naicabecabe",
        "country": "Fiji",
        "province": "Eastern",
        "population": -1,
        "latitude": -17.768319,
        "longitude": 178.765687
    },
    {
        "name": "Naiserelangi",
        "country": "Fiji",
        "province": "Western",
        "population": -1,
        "latitude": -17.4583382949912,
        "longitude": 178.226737976074
    },
    {
        "name": "Naisaumua",
        "country": "Fiji",
        "province": "Central",
        "population": -1,
        "latitude": -17.893361,
        "longitude": 178.567403
    },
    {
        "name": "Naevuevu",
        "country": "Fiji",
        "province": "Western",
        "population": -1,
        "latitude": -18.152002,
        "longitude": 177.44218
    },
    {
        "name": "Mudu",
        "country": "Fiji",
        "province": "Eastern",
        "population": -1,
        "latitude": -17.376422,
        "longitude": 179.409465
    },
    {
        "name": "Muainuku",
        "country": "Fiji",
        "province": "Eastern",
        "population": -1,
        "latitude": -19.151873,
        "longitude": 178.046021
    },
    {
        "name": "Muanaicake",
        "country": "Fiji",
        "province": "Central",
        "population": -1,
        "latitude": -18.127566,
        "longitude": 178.539078
    },
    {
        "name": "Buretu",
        "country": "Fiji",
        "province": "Central",
        "population": -1,
        "latitude": -18.050265,
        "longitude": 178.618265
    },
    {
        "name": "Burelevu Settlement",
        "country": "Fiji",
        "province": "Eastern",
        "population": -1,
        "latitude": -19.1543,
        "longitude": 178.089882
    },
    {
        "name": "Buiduna Settlement",
        "country": "Fiji",
        "province": "Central",
        "population": -1,
        "latitude": -18.000251,
        "longitude": 178.537358
    },
    {
        "name": "Bulia",
        "country": "Fiji",
        "province": "Eastern",
        "population": -1,
        "latitude": -18.843731,
        "longitude": 178.530834
    },
    {
        "name": "Bouwaqa",
        "country": "Fiji",
        "province": "Western",
        "population": -1,
        "latitude": -18.570791,
        "longitude": 177.646099
    },
    {
        "name": "Biaugunu",
        "country": "Fiji",
        "province": "Northern",
        "population": -1,
        "latitude": -16.443307,
        "longitude": 179.741067
    },
    {
        "name": "Beqa Settlement",
        "country": "Fiji",
        "province": "Central",
        "population": -1,
        "latitude": -18.094125,
        "longitude": 178.055381
    },
    {
        "name": "Banikea",
        "country": "Fiji",
        "province": "Northern",
        "population": -1,
        "latitude": -16.760317,
        "longitude": 178.741882
    },
    {
        "name": "Mathuata-i-Wai",
        "country": "Fiji",
        "province": "Northern",
        "population": -1,
        "latitude": -16.417854,
        "longitude": 179.073305
    },
    {
        "name": "Namatalylevu",
        "country": "Fiji",
        "province": "Western",
        "population": -1,
        "latitude": -16.997201,
        "longitude": 177.339438
    },
    {
        "name": "Matacaucau",
        "country": "Fiji",
        "province": "Central",
        "population": -1,
        "latitude": -17.787199,
        "longitude": 178.578644
    },
    {
        "name": "Matainoco",
        "country": "Fiji",
        "province": "Central",
        "population": -1,
        "latitude": -18.054445,
        "longitude": 178.616151
    },
    {
        "name": "Matailobau",
        "country": "Fiji",
        "province": "Central",
        "population": -1,
        "latitude": -17.819069,
        "longitude": 178.309115
    },
    {
        "name": "Manuka",
        "country": "Fiji",
        "province": "Eastern",
        "population": -1,
        "latitude": -18.889452,
        "longitude": 178.470124
    },
    {
        "name": "Malau Settlement",
        "country": "Fiji",
        "province": "Northern",
        "population": -1,
        "latitude": -16.369394,
        "longitude": 179.361956
    },
    {
        "name": "Malabi Settlement",
        "country": "Fiji",
        "province": "Central",
        "population": -1,
        "latitude": -17.741082,
        "longitude": 178.388732
    },
    {
        "name": "Luvunavuaka",
        "country": "Fiji",
        "province": "Central",
        "population": -1,
        "latitude": -17.621282,
        "longitude": 178.520843
    },
    {
        "name": "Logani",
        "country": "Fiji",
        "province": "Central",
        "population": -1,
        "latitude": -17.953311,
        "longitude": 178.548312
    },
    {
        "name": "Lomati",
        "country": "Fiji",
        "province": "Eastern",
        "population": -1,
        "latitude": -19.164227,
        "longitude": 179.754153
    },
    {
        "name": "Lomanikoro",
        "country": "Fiji",
        "province": "Eastern",
        "population": -1,
        "latitude": -18.9546,
        "longitude": 178.374976
    },
    {
        "name": "Ligaulevu",
        "country": "Fiji",
        "province": "Northern",
        "population": -1,
        "latitude": -16.3439,
        "longitude": 179.349786
    },
    {
        "name": "Lawai",
        "country": "Fiji",
        "province": "Western",
        "population": -1,
        "latitude": -18.125983,
        "longitude": 177.518692
    },
    {
        "name": "Lamiti",
        "country": "Fiji",
        "province": "Eastern",
        "population": -1,
        "latitude": -18.009259,
        "longitude": 179.342352
    },
    {
        "name": "Nakorovou",
        "country": "Fiji",
        "province": "Central",
        "population": -1,
        "latitude": -18.242296,
        "longitude": 177.972508
    },
    {
        "name": "Korolevu",
        "country": "Fiji",
        "province": "Central",
        "population": -1,
        "latitude": -17.944221,
        "longitude": 178.58918
    },
    {
        "name": "Koroiyaca",
        "country": "Fiji",
        "province": "Western",
        "population": -1,
        "latitude": -17.728525,
        "longitude": 177.460132
    },
    {
        "name": "Koroivonu",
        "country": "Fiji",
        "province": "Northern",
        "population": -1,
        "latitude": -16.5666667,
        "longitude": 179.8833333
    },
    {
        "name": "Keiyasi",
        "country": "Fiji",
        "province": "Western",
        "population": -1,
        "latitude": -17.886434,
        "longitude": 177.751809
    },
    {
        "name": "Kade",
        "country": "Fiji",
        "province": "Eastern",
        "population": -1,
        "latitude": -17.355391,
        "longitude": 179.377086
    },
    {
        "name": "Kadavu",
        "country": "Fiji",
        "province": "Eastern",
        "population": -1,
        "latitude": -19.036816,
        "longitude": 178.38075
    },
    {
        "name": "Kabariki",
        "country": "Fiji",
        "province": "Eastern",
        "population": -1,
        "latitude": -19.142454,
        "longitude": 178.029391
    },
    {
        "name": "Kalokolevu",
        "country": "Fiji",
        "province": "Central",
        "population": -1,
        "latitude": -18.133904,
        "longitude": 178.313809
    },
    {
        "name": "Ekubo",
        "country": "Fiji",
        "province": "Western",
        "population": -1,
        "latitude": -18.51518,
        "longitude": 177.64579
    },
    {
        "name": "Abaca",
        "country": "Fiji",
        "province": "Western",
        "population": -1,
        "latitude": -17.668522,
        "longitude": 177.547413
    },
    {
        "name": "Yadua",
        "country": "Fiji",
        "province": "Western",
        "population": -1,
        "latitude": -18.168752,
        "longitude": 177.464904
    },
    {
        "name": "Waitoga",
        "country": "Fiji",
        "province": "Eastern",
        "population": -1,
        "latitude": -17.79469,
        "longitude": 179.426257
    },
    {
        "name": "Waicoka",
        "country": "Fiji",
        "province": "Central",
        "population": -1,
        "latitude": -18.021279,
        "longitude": 178.638854
    },
    {
        "name": "Waimaqera Settlement",
        "country": "Fiji",
        "province": "Northern",
        "population": -1,
        "latitude": -16.935687,
        "longitude": 179.900738
    },
    {
        "name": "Wailevu",
        "country": "Fiji",
        "province": "Northern",
        "population": -1,
        "latitude": -16.5166667,
        "longitude": 179.8166667
    },
    {
        "name": "Vatuni Settlement",
        "country": "Fiji",
        "province": "Eastern",
        "population": -1,
        "latitude": -17.815285,
        "longitude": 179.434495
    },
    {
        "name": "Vusama Settlement",
        "country": "Fiji",
        "province": "Western",
        "population": -1,
        "latitude": -18.080645,
        "longitude": 177.319711
    },
    {
        "name": "Vunisea",
        "country": "Fiji",
        "province": "Fiji",
        "population": -1,
        "latitude": -19.04784,
        "longitude": 178.16288
    },
    {
        "name": "Vunitogoloa",
        "country": "Fiji",
        "province": "Western",
        "population": -1,
        "latitude": -17.369617,
        "longitude": 178.058341
    },
    {
        "name": "Vunaniu",
        "country": "Fiji",
        "province": "Central",
        "population": -1,
        "latitude": -18.248496,
        "longitude": 177.864345
    },
    {
        "name": "Vuadomo",
        "country": "Fiji",
        "province": "Northern",
        "population": -1,
        "latitude": -16.711999,
        "longitude": 179.308639
    },
    {
        "name": "Votualailai",
        "country": "Fiji",
        "province": "Western",
        "population": -1,
        "latitude": -18.203176,
        "longitude": 177.691483
    },
    {
        "name": "Visoqo",
        "country": "Fiji",
        "province": "Northern",
        "population": -1,
        "latitude": -16.217402,
        "longitude": 179.662735
    },
    {
        "name": "Veinuqa",
        "country": "Fiji",
        "province": "Central",
        "population": -1,
        "latitude": -17.84269,
        "longitude": 178.547046
    },
    {
        "name": "Veidrala",
        "country": "Fiji",
        "province": "Western",
        "population": -1,
        "latitude": -17.48184,
        "longitude": 178.337074
    },
    {
        "name": "Vatulele",
        "country": "Fiji",
        "province": "Eastern",
        "population": -1,
        "latitude": -17.247919,
        "longitude": 179.395028
    },
    {
        "name": "Vacaleya",
        "country": "Fiji",
        "province": "Eastern",
        "population": -1,
        "latitude": -19.024367,
        "longitude": 178.429545
    },
    {
        "name": "Vabea",
        "country": "Fiji",
        "province": "Eastern",
        "population": -1,
        "latitude": -18.921329,
        "longitude": 178.47594
    },
    {
        "name": "Uluibau",
        "country": "Fiji",
        "province": "Eastern",
        "population": -1,
        "latitude": -17.785992,
        "longitude": 178.761798
    },
    {
        "name": "Togovere",
        "country": "Fiji",
        "province": "Western",
        "population": -1,
        "latitude": -17.404679,
        "longitude": 178.011158
    },
    {
        "name": "Natokalau",
        "country": "Fiji",
        "province": "Eastern",
        "population": -1,
        "latitude": -19.119434,
        "longitude": 179.761806
    },
    {
        "name": "Jioma",
        "country": "Fiji",
        "province": "Eastern",
        "population": -1,
        "latitude": -19.024842,
        "longitude": 178.338129
    },
    {
        "name": "Cevai",
        "country": "Fiji",
        "province": "Eastern",
        "population": -1,
        "latitude": -19.136098,
        "longitude": 178.109
    },
    {
        "name": "Cawaro",
        "country": "Fiji",
        "province": "Northern",
        "population": -1,
        "latitude": -16.225352,
        "longitude": 179.849146
    },
    {
        "name": "Nacavaga",
        "country": "Fiji",
        "province": "Northern",
        "population": -1,
        "latitude": -16.995861,
        "longitude": 178.787394
    },
    {
        "name": "Tavua",
        "country": "Fiji",
        "province": "Eastern",
        "population": -1,
        "latitude": -17.295744,
        "longitude": 179.363125
    },
    {
        "name": "Tacilevu",
        "country": "Fiji",
        "province": "Northern",
        "population": -1,
        "latitude": -16.772849,
        "longitude": 179.618196
    },
    {
        "name": "Tagaqe",
        "country": "Fiji",
        "province": "Western",
        "population": -1,
        "latitude": -18.196014,
        "longitude": 177.65755
    },
    {
        "name": "Tabalei",
        "country": "Fiji",
        "province": "Western",
        "population": -1,
        "latitude": -17.751461,
        "longitude": 177.761241
    },
    {
        "name": "Tamavua Heights",
        "country": "Fiji",
        "province": "Central",
        "population": -1,
        "latitude": -18.1,
        "longitude": 178.45
    },
    {
        "name": "Soliyaga",
        "country": "Fiji",
        "province": "Central",
        "population": -1,
        "latitude": -18.383651,
        "longitude": 178.165864
    },
    {
        "name": "Raranibulubulu",
        "country": "Fiji",
        "province": "Northern",
        "population": -1,
        "latitude": -16.36907,
        "longitude": 179.447659
    },
    {
        "name": "Raiwaqa",
        "country": "Fiji",
        "province": "Western",
        "population": -1,
        "latitude": -18.052001,
        "longitude": 177.564252
    },
    {
        "name": "Nubuyanitu",
        "country": "Fiji",
        "province": "Western",
        "population": -1,
        "latitude": -17.900516,
        "longitude": 177.884559
    },
    {
        "name": "Nabutubutu",
        "country": "Fiji",
        "province": "Northern",
        "population": -1,
        "latitude": -16.305367,
        "longitude": 179.63798
    },
    {
        "name": "Nubunikavula",
        "country": "Fiji",
        "province": "Northern",
        "population": -1,
        "latitude": -16.511796,
        "longitude": 179.43288
    },
    {
        "name": "Qilai",
        "country": "Fiji",
        "province": "Central",
        "population": -1,
        "latitude": -18.173809,
        "longitude": 178.242524
    },
    {
        "name": "Qacavula Settlement",
        "country": "Fiji",
        "province": "Northern",
        "population": -1,
        "latitude": -16.870764,
        "longitude": 179.961089
    },
    {
        "name": "Qarani",
        "country": "Fiji",
        "province": "Eastern",
        "population": -1,
        "latitude": -17.946973,
        "longitude": 179.269825
    },
    {
        "name": "Qalikarua",
        "country": "Fiji",
        "province": "Eastern",
        "population": -1,
        "latitude": -19.167937,
        "longitude": 179.784625
    },
    {
        "name": "Qaliira",
        "country": "Fiji",
        "province": "Eastern",
        "population": -1,
        "latitude": -19.141081,
        "longitude": 177.975282
    },
    {
        "name": "Gasele",
        "country": "Fiji",
        "province": "Eastern",
        "population": -1,
        "latitude": -18.952748,
        "longitude": 178.302682
    },
    {
        "name": "Ngasauva",
        "country": "Fiji",
        "province": "Northern",
        "population": -1,
        "latitude": -16.1666667,
        "longitude": 179.9833333
    },
    {
        "name": "Dromuninuku",
        "country": "Fiji",
        "province": "Northern",
        "population": -1,
        "latitude": -16.793166,
        "longitude": 179.557085
    },
    {
        "name": "Dravuwalu",
        "country": "Fiji",
        "province": "Eastern",
        "population": -1,
        "latitude": -18.99725,
        "longitude": 178.297003
    },
    {
        "name": "Dravuni",
        "country": "Fiji",
        "province": "Central",
        "population": -1,
        "latitude": -17.911432,
        "longitude": 178.576475
    },
    {
        "name": "Draubuta",
        "country": "Fiji",
        "province": "Western",
        "population": -1,
        "latitude": -17.923128,
        "longitude": 177.900317
    },
    {
        "name": "Draiba",
        "country": "Fiji",
        "province": "Eastern",
        "population": -1,
        "latitude": -17.695241,
        "longitude": 178.835556
    },
    {
        "name": "Dogowale Settlement",
        "country": "Fiji",
        "province": "Central",
        "population": -1,
        "latitude": -18.266869,
        "longitude": 177.923875
    },
    {
        "name": "Dogotuki Settlement",
        "country": "Fiji",
        "province": "Northern",
        "population": -1,
        "latitude": -16.234558,
        "longitude": 179.76739
    },
    {
        "name": "Dogoloa",
        "country": "Fiji",
        "province": "Western",
        "population": -1,
        "latitude": -17.562105,
        "longitude": 178.431171
    },
    {
        "name": "Deladamanu",
        "country": "Fiji",
        "province": "Central",
        "population": -1,
        "latitude": -17.947425,
        "longitude": 178.451863
    },
    {
        "name": "Delaiyadua",
        "country": "Fiji",
        "province": "Western",
        "population": -1,
        "latitude": -17.565037,
        "longitude": 178.437866
    },
    {
        "name": "Delailasakau",
        "country": "Fiji",
        "province": "Central",
        "population": -1,
        "latitude": -18.001773,
        "longitude": 178.203607
    },
    {
        "name": "Dama",
        "country": "Fiji",
        "province": "Northern",
        "population": -1,
        "latitude": -16.871894,
        "longitude": 178.641604
    },
    {
        "name": "Dalice Settlement",
        "country": "Fiji",
        "province": "Eastern",
        "population": -1,
        "latitude": -17.799806,
        "longitude": 179.399375
    },
    {
        "name": "Nawaqarua Set",
        "country": "Fiji",
        "province": "Western",
        "population": -1,
        "latitude": -17.480019,
        "longitude": 177.663132
    },
    {
        "name": "Nawaqabena",
        "country": "Fiji",
        "province": "Central",
        "population": -1,
        "latitude": -17.936418,
        "longitude": 178.371319
    },
    {
        "name": "Nawamagi",
        "country": "Fiji",
        "province": "Western",
        "population": -1,
        "latitude": -18.096901,
        "longitude": 177.5446
    },
    {
        "name": "Nawaido",
        "country": "Fiji",
        "province": "Northern",
        "population": -1,
        "latitude": -16.994667,
        "longitude": 178.768701
    },
    {
        "name": "Navunievu",
        "country": "Fiji",
        "province": "Northern",
        "population": -1,
        "latitude": -16.808221,
        "longitude": 178.54581
    },
    {
        "name": "Navukebuli",
        "country": "Fiji",
        "province": "Northern",
        "population": -1,
        "latitude": -16.277813,
        "longitude": 179.598219
    },
    {
        "name": "Navukailagi",
        "country": "Fiji",
        "province": "Eastern",
        "population": -1,
        "latitude": -17.956829,
        "longitude": 179.260822
    },
    {
        "name": "Naviago",
        "country": "Fiji",
        "province": "Western",
        "population": -1,
        "latitude": -17.589203,
        "longitude": 177.497303
    },
    {
        "name": "Navatuyaba",
        "country": "Fiji",
        "province": "Central",
        "population": -1,
        "latitude": -18.065688,
        "longitude": 178.554365
    },
    {
        "name": "Navata",
        "country": "Fiji",
        "province": "Northern",
        "population": -1,
        "latitude": -16.4833333,
        "longitude": 179.0166667
    },
    {
        "name": "Navaga",
        "country": "Fiji",
        "province": "Eastern",
        "population": -1,
        "latitude": -17.306616,
        "longitude": 179.366036
    },
    {
        "name": "Natuvu",
        "country": "Fiji",
        "province": "Northern",
        "population": -1,
        "latitude": -16.744441,
        "longitude": 179.153345
    },
    {
        "name": "Natunuku Settlement",
        "country": "Fiji",
        "province": "Western",
        "population": -1,
        "latitude": -17.452782,
        "longitude": 177.74102
    },
    {
        "name": "Natuatuathoko",
        "country": "Fiji",
        "province": "Western",
        "population": -1,
        "latitude": -17.88564,
        "longitude": 177.78291
    },
    {
        "name": "Natogadravo",
        "country": "Fiji",
        "province": "Central",
        "population": -1,
        "latitude": -18.061814,
        "longitude": 178.573051
    },
    {
        "name": "Nacomoto",
        "country": "Fiji",
        "province": "Eastern",
        "population": -1,
        "latitude": -19.048315,
        "longitude": 178.350603
    },
    {
        "name": "Nacokaika",
        "country": "Fiji",
        "province": "Central",
        "population": -1,
        "latitude": -17.970559,
        "longitude": 178.424548
    },
    {
        "name": "Nacekoro",
        "country": "Fiji",
        "province": "Northern",
        "population": -1,
        "latitude": -16.802869,
        "longitude": 179.336786
    },
    {
        "name": "Nacamaki",
        "country": "Fiji",
        "province": "Eastern",
        "population": -1,
        "latitude": -17.245186,
        "longitude": 179.429486
    },
    {
        "name": "Natabua Settlement",
        "country": "Fiji",
        "province": "Western",
        "population": -1,
        "latitude": -17.644823,
        "longitude": 177.439372
    },
    {
        "name": "Nasilai",
        "country": "Fiji",
        "province": "Central",
        "population": -1,
        "latitude": -18.082962,
        "longitude": 178.653874
    },
    {
        "name": "Naseva Settlement",
        "country": "Fiji",
        "province": "Central",
        "population": -1,
        "latitude": -17.809337,
        "longitude": 178.378957
    },
    {
        "name": "Nasesara",
        "country": "Fiji",
        "province": "Eastern",
        "population": -1,
        "latitude": -17.756614,
        "longitude": 178.748785
    },
    {
        "name": "Nasau",
        "country": "Fiji",
        "province": "Western",
        "population": -1,
        "latitude": -17.45,
        "longitude": 178.3166667
    },
    {
        "name": "Nasarowaqa",
        "country": "Fiji",
        "province": "Northern",
        "population": -1,
        "latitude": -16.644799,
        "longitude": 178.822574
    },
    {
        "name": "Nanuca",
        "country": "Fiji",
        "province": "Northern",
        "population": -1,
        "latitude": -16.740565,
        "longitude": 179.692573
    },
    {
        "name": "Naqumu",
        "country": "Fiji",
        "province": "Northern",
        "population": -1,
        "latitude": -16.476624,
        "longitude": 179.01853
    },
    {
        "name": "Nanggaravutu",
        "country": "Fiji",
        "province": "Northern",
        "population": -1,
        "latitude": -16.5333333,
        "longitude": 179.8
    },
    {
        "name": "Naqara",
        "country": "Fiji",
        "province": "Eastern",
        "population": -1,
        "latitude": -18.879134,
        "longitude": 178.493306
    },
    {
        "name": "Naqaidamu",
        "country": "Fiji",
        "province": "Eastern",
        "population": -1,
        "latitude": -17.32224,
        "longitude": 179.434654
    },
    {
        "name": "Nagadoa",
        "country": "Fiji",
        "province": "Northern",
        "population": -1,
        "latitude": -16.877805,
        "longitude": 178.672445
    },
    {
        "name": "Nadrugu",
        "country": "Fiji",
        "province": "Western",
        "population": -1,
        "latitude": -17.710796,
        "longitude": 177.746011
    },
    {
        "name": "Nadroumai",
        "country": "Fiji",
        "province": "Western",
        "population": -1,
        "latitude": -18.109563,
        "longitude": 177.449205
    },
    {
        "name": "Nadelei",
        "country": "Fiji",
        "province": "Western",
        "population": -1,
        "latitude": -17.54469,
        "longitude": 177.899123
    },
    {
        "name": "Nadarivatu",
        "country": "Fiji",
        "province": "Western",
        "population": -1,
        "latitude": -17.566555,
        "longitude": 177.963373
    },
    {
        "name": "Nadali",
        "country": "Fiji",
        "province": "Central",
        "population": -1,
        "latitude": -18.036717,
        "longitude": 178.546054
    },
    {
        "name": "Nadakuni",
        "country": "Fiji",
        "province": "Central",
        "population": -1,
        "latitude": -17.973234,
        "longitude": 178.294907
    },
    {
        "name": "Namuriwai Settlement",
        "country": "Fiji",
        "province": "Western",
        "population": -1,
        "latitude": -17.471673,
        "longitude": 178.333098
    },
    {
        "name": "Navoci Namotomoto",
        "country": "Fiji",
        "province": "Western",
        "population": -1,
        "latitude": -17.796359,
        "longitude": 177.418926
    },
    {
        "name": "Nabuyasa Settlement",
        "country": "Fiji",
        "province": "Western",
        "population": -1,
        "latitude": -17.631198,
        "longitude": 177.981058
    },
    {
        "name": "Nabuna Set",
        "country": "Fiji",
        "province": "Western",
        "population": -1,
        "latitude": -17.437321,
        "longitude": 177.871087
    },
    {
        "name": "Nabukelevu",
        "country": "Fiji",
        "province": "Central",
        "population": -1,
        "latitude": -18.128299,
        "longitude": 177.866344
    },
    {
        "name": "Nabukadra",
        "country": "Fiji",
        "province": "Western",
        "population": -1,
        "latitude": -17.542122,
        "longitude": 178.392077
    },
    {
        "name": "Nabukaluka",
        "country": "Fiji",
        "province": "Central",
        "population": -1,
        "latitude": -17.976323,
        "longitude": 178.322766
    },
    {
        "name": "Nabouwaqa",
        "country": "Fiji",
        "province": "Western",
        "population": -1,
        "latitude": -17.708343,
        "longitude": 177.947244
    },
    {
        "name": "Nabouwalu",
        "country": "Fiji",
        "province": "Central",
        "population": -1,
        "latitude": -18.004575,
        "longitude": 178.685672
    },
    {
        "name": "Nabouwalu",
        "country": "Fiji",
        "province": "Northern",
        "population": -1,
        "latitude": -16.997448,
        "longitude": 178.690784
    },
    {
        "name": "Naboutini",
        "country": "Fiji",
        "province": "Central",
        "population": -1,
        "latitude": -18.236956,
        "longitude": 177.823911
    },
    {
        "name": "Boutini Settlement",
        "country": "Fiji",
        "province": "Western",
        "population": -1,
        "latitude": -17.728525,
        "longitude": 177.506627
    },
    {
        "name": "Naboutini",
        "country": "Fiji",
        "province": "Northern",
        "population": -1,
        "latitude": -16.33157,
        "longitude": 179.81218
    },
    {
        "name": "Nabouciwa",
        "country": "Fiji",
        "province": "Central",
        "population": -1,
        "latitude": -18.060115,
        "longitude": 178.621436
    },
    {
        "name": "Nambouono",
        "country": "Fiji",
        "province": "Northern",
        "population": -1,
        "latitude": -16.451809,
        "longitude": 179.092609
    },
    {
        "name": "Nabekavu",
        "country": "Fiji",
        "province": "Northern",
        "population": -1,
        "latitude": -16.538643,
        "longitude": 178.888619
    },
    {
        "name": "Nabaci",
        "country": "Fiji",
        "province": "Northern",
        "population": -1,
        "latitude": -16.735241,
        "longitude": 179.359502
    },
    {
        "name": "Namaqumaqua",
        "country": "Fiji",
        "province": "Central",
        "population": -1,
        "latitude": -18.252597,
        "longitude": 177.832171
    },
    {
        "name": "Namada",
        "country": "Fiji",
        "province": "Western",
        "population": -1,
        "latitude": -18.18898,
        "longitude": 177.621433
    },
    {
        "name": "Yasawa",
        "country": "Fiji",
        "province": "Northern",
        "population": -1,
        "latitude": -16.162932,
        "longitude": -179.996111
    },
    {
        "name": "Yadrana",
        "country": "Fiji",
        "province": "Eastern",
        "population": -1,
        "latitude": -18.190389,
        "longitude": -178.77568
    },
    {
        "name": "Welagi",
        "country": "Fiji",
        "province": "Northern",
        "population": -1,
        "latitude": -16.733038,
        "longitude": -179.94172
    },
    {
        "name": "Waitabu",
        "country": "Fiji",
        "province": "Northern",
        "population": -1,
        "latitude": -16.812194,
        "longitude": -179.859964
    },
    {
        "name": "Udu",
        "country": "Fiji",
        "province": "Eastern",
        "population": -1,
        "latitude": -18.983836,
        "longitude": -178.94416
    },
    {
        "name": "Tubou",
        "country": "Fiji",
        "province": "Eastern",
        "population": -1,
        "latitude": -18.236515,
        "longitude": -178.81232
    },
    {
        "name": "Togo",
        "country": "Fiji",
        "province": "Northern",
        "population": -1,
        "latitude": -16.758408,
        "longitude": -179.751041
    },
    {
        "name": "Natokalau",
        "country": "Fiji",
        "province": "Eastern",
        "population": -1,
        "latitude": -17.740707,
        "longitude": -179.281632
    },
    {
        "name": "Tarakua",
        "country": "Fiji",
        "province": "Eastern",
        "population": -1,
        "latitude": -17.724316,
        "longitude": -179.329242
    },
    {
        "name": "Olosara Settlement",
        "country": "Fiji",
        "province": "Northern",
        "population": -1,
        "latitude": -16.7611,
        "longitude": -179.737999
    },
    {
        "name": "Qeleni",
        "country": "Fiji",
        "province": "Northern",
        "population": -1,
        "latitude": -16.75769,
        "longitude": -179.859732
    },
    {
        "name": "Naividamu",
        "country": "Fiji",
        "province": "Eastern",
        "population": -1,
        "latitude": -19.123033,
        "longitude": -178.600945
    },
    {
        "name": "Narocivo",
        "country": "Fiji",
        "province": "Eastern",
        "population": -1,
        "latitude": -17.96431,
        "longitude": -179.042668
    },
    {
        "name": "Nadilo",
        "country": "Fiji",
        "province": "Northern",
        "population": -1,
        "latitude": -16.789025,
        "longitude": -179.77923
    },
    {
        "name": "Muanaicake",
        "country": "Fiji",
        "province": "Eastern",
        "population": -1,
        "latitude": -19.15194,
        "longitude": -178.583983
    },
    {
        "name": "Muanaira",
        "country": "Fiji",
        "province": "Eastern",
        "population": -1,
        "latitude": -19.153214,
        "longitude": -178.592265
    },
    {
        "name": "Nakobo",
        "country": "Fiji",
        "province": "Northern",
        "population": -1,
        "latitude": -16.728589,
        "longitude": 179.755886
    },
    {
        "name": "Naikelikoso",
        "country": "Fiji",
        "province": "Northern",
        "population": -1,
        "latitude": -16.328389,
        "longitude": 179.588067
    },
    {
        "name": "Nakawaga",
        "country": "Fiji",
        "province": "Northern",
        "population": -1,
        "latitude": -16.663011,
        "longitude": 179.342539
    },
    {
        "name": "Nakawaga",
        "country": "Fiji",
        "province": "Northern",
        "population": -1,
        "latitude": -16.34483,
        "longitude": 179.32649
    },
    {
        "name": "Nakawakawa",
        "country": "Fiji",
        "province": "Northern",
        "population": -1,
        "latitude": -16.859384,
        "longitude": 178.86298
    },
    {
        "name": "Nakavu",
        "country": "Fiji",
        "province": "Central",
        "population": -1,
        "latitude": -18.190691,
        "longitude": 178.105243
    },
    {
        "name": "Nakaugasele",
        "country": "Fiji",
        "province": "Eastern",
        "population": -1,
        "latitude": -18.95235,
        "longitude": 178.378625
    },
    {
        "name": "Nakasa",
        "country": "Fiji",
        "province": "Northern",
        "population": -1,
        "latitude": -16.698119,
        "longitude": 179.197475
    },
    {
        "name": "Nakarambo",
        "country": "Fiji",
        "province": "Northern",
        "population": -1,
        "latitude": -16.55,
        "longitude": 179.5666667
    },
    {
        "name": "Nakanacagi",
        "country": "Fiji",
        "province": "Northern",
        "population": -1,
        "latitude": -16.592511,
        "longitude": 178.991207
    },
    {
        "name": "Nakanakana",
        "country": "Fiji",
        "province": "Northern",
        "population": -1,
        "latitude": -16.6166667,
        "longitude": 179.8666667
    },
    {
        "name": "Nakabuta",
        "country": "Fiji",
        "province": "Western",
        "population": -1,
        "latitude": -18.110523,
        "longitude": 177.521794
    },
    {
        "name": "Nakalawaca",
        "country": "Fiji",
        "province": "Central",
        "population": -1,
        "latitude": -17.930904,
        "longitude": 178.60063
    },
    {
        "name": "Nakalavo",
        "country": "Fiji",
        "province": "Western",
        "population": -1,
        "latitude": -18.080013,
        "longitude": 177.537743
    },
    {
        "name": "Naivucini",
        "country": "Fiji",
        "province": "Central",
        "population": -1,
        "latitude": -17.840626,
        "longitude": 178.264863
    },
    {
        "name": "Navicula",
        "country": "Fiji",
        "province": "Central",
        "population": -1,
        "latitude": -17.760076,
        "longitude": 178.49207
    },
    {
        "name": "Naivimagimagi Settlement",
        "country": "Fiji",
        "province": "Eastern",
        "population": -1,
        "latitude": -19.034516,
        "longitude": 178.405197
    },
    {
        "name": "Naivilacalaca Settlement",
        "country": "Fiji",
        "province": "Northern",
        "population": -1,
        "latitude": -16.758985,
        "longitude": 179.519581
    },
    {
        "name": "Navilaca",
        "country": "Fiji",
        "province": "Central",
        "population": -1,
        "latitude": -18.103509,
        "longitude": 178.607994
    },
    {
        "name": "Naivikasara",
        "country": "Fiji",
        "province": "Central",
        "population": -1,
        "latitude": -18.096234,
        "longitude": 178.58432
    },
    {
        "name": "Naivakacau",
        "country": "Fiji",
        "province": "Central",
        "population": -1,
        "latitude": -18.040272,
        "longitude": 178.624847
    },
    {
        "name": "Naivakarauniniu",
        "country": "Fiji",
        "province": "Eastern",
        "population": -1,
        "latitude": -18.966608,
        "longitude": 178.255079
    },
    {
        "name": "Naisogovau",
        "country": "Fiji",
        "province": "Central",
        "population": -1,
        "latitude": -18.01894,
        "longitude": 178.621148
    },
    {
        "name": "Naioti",
        "country": "Fiji",
        "province": "Fiji",
        "population": -1,
        "latitude": -18.8333333,
        "longitude": 178.35
    },
    {
        "name": "Naiqaqi",
        "country": "Fiji",
        "province": "Northern",
        "population": -1,
        "latitude": -16.74894,
        "longitude": 179.118057
    },
    {
        "name": "Naigani",
        "country": "Fiji",
        "province": "Eastern",
        "population": -1,
        "latitude": -17.779416,
        "longitude": 179.166563
    },
    {
        "name": "Naigani",
        "country": "Fiji",
        "province": "Central",
        "population": -1,
        "latitude": -17.583183,
        "longitude": 178.672108
    },
    {
        "name": "Naindiri",
        "country": "Fiji",
        "province": "Western",
        "population": -1,
        "latitude": -18.1333333,
        "longitude": 177.3666667
    },
    {
        "name": "Naidiri Settlement",
        "country": "Fiji",
        "province": "Eastern",
        "population": -1,
        "latitude": -18.967374,
        "longitude": 178.426695
    },
    {
        "name": "Naidi",
        "country": "Fiji",
        "province": "Northern",
        "population": -1,
        "latitude": -16.799838,
        "longitude": 179.364709
    },
    {
        "name": "Naiborebore",
        "country": "Fiji",
        "province": "Central",
        "population": -1,
        "latitude": -17.893399,
        "longitude": 178.56261
    },
    {
        "name": "Naibita",
        "country": "Fiji",
        "province": "Central",
        "population": -1,
        "latitude": -17.662815,
        "longitude": 178.302685
    },
    {
        "name": "Naibalebale",
        "country": "Fiji",
        "province": "Western",
        "population": -1,
        "latitude": -17.149402,
        "longitude": 176.912805
    },
    {
        "name": "Nabalebale",
        "country": "Fiji",
        "province": "Northern",
        "population": -1,
        "latitude": -16.775085,
        "longitude": 179.551015
    },
    {
        "name": "Naimalavau",
        "country": "Fiji",
        "province": "Central",
        "population": -1,
        "latitude": -18.066187,
        "longitude": 178.603791
    },
    {
        "name": "Nailega",
        "country": "Fiji",
        "province": "Central",
        "population": -1,
        "latitude": -17.820711,
        "longitude": 178.552836
    },
    {
        "name": "Nailega",
        "country": "Fiji",
        "province": "Central",
        "population": -1,
        "latitude": -17.664069,
        "longitude": 178.307331
    },
    {
        "name": "Nailaga",
        "country": "Fiji",
        "province": "Western",
        "population": -1,
        "latitude": -17.508942,
        "longitude": 177.66111
    },
    {
        "name": "Naikorokoro",
        "country": "Fiji",
        "province": "Eastern",
        "population": -1,
        "latitude": -18.979777,
        "longitude": 178.199709
    },
    {
        "name": "Naikawaga",
        "country": "Fiji",
        "province": "Central",
        "population": -1,
        "latitude": -17.923491,
        "longitude": 178.581085
    },
    {
        "name": "Muanisolo Settlement",
        "country": "Fiji",
        "province": "Eastern",
        "population": -1,
        "latitude": -19.010745,
        "longitude": 178.259397
    },
    {
        "name": "Namuamua",
        "country": "Fiji",
        "province": "Central",
        "population": -1,
        "latitude": -17.926294,
        "longitude": 178.430252
    },
    {
        "name": "Muaivuso",
        "country": "Fiji",
        "province": "Central",
        "population": -1,
        "latitude": -18.140452,
        "longitude": 178.360818
    },
    {
        "name": "Momi",
        "country": "Fiji",
        "province": "Western",
        "population": -1,
        "latitude": -17.911951,
        "longitude": 177.284183
    },
    {
        "name": "Namelimeli",
        "country": "Fiji",
        "province": "Central",
        "population": -1,
        "latitude": -18.197616,
        "longitude": 178.189066
    },
    {
        "name": "Bucalevu",
        "country": "Fiji",
        "province": "Northern",
        "population": -1,
        "latitude": -16.715316,
        "longitude": 179.443841
    },
    {
        "name": "Busa Settlement",
        "country": "Fiji",
        "province": "Eastern",
        "population": -1,
        "latitude": -19.076718,
        "longitude": 178.072512
    },
    {
        "name": "Burerua",
        "country": "Fiji",
        "province": "Central",
        "population": -1,
        "latitude": -17.767307,
        "longitude": 178.53189
    },
    {
        "name": "Naburenivalu",
        "country": "Fiji",
        "province": "Central",
        "population": -1,
        "latitude": -17.704237,
        "longitude": 178.563576
    },
    {
        "name": "Burenitu",
        "country": "Fiji",
        "province": "Western",
        "population": -1,
        "latitude": -17.528502,
        "longitude": 178.231303
    },
    {
        "name": "Burebasaga",
        "country": "Fiji",
        "province": "Central",
        "population": -1,
        "latitude": -18.08679,
        "longitude": 178.567666
    },
    {
        "name": "Burelevu",
        "country": "Fiji",
        "province": "Central",
        "population": -1,
        "latitude": -17.666877,
        "longitude": 178.584917
    },
    {
        "name": "Burelevu",
        "country": "Fiji",
        "province": "Western",
        "population": -1,
        "latitude": -17.546814,
        "longitude": 178.147624
    },
    {
        "name": "Burelevu Settlement",
        "country": "Fiji",
        "province": "Eastern",
        "population": -1,
        "latitude": -19.042715,
        "longitude": 178.391449
    },
    {
        "name": "Bulileka",
        "country": "Fiji",
        "province": "Northern",
        "population": -1,
        "latitude": -16.444262,
        "longitude": 179.433205
    },
    {
        "name": "Bukuya",
        "country": "Fiji",
        "province": "Western",
        "population": -1,
        "latitude": -17.773192,
        "longitude": 177.757618
    },
    {
        "name": "Bukama",
        "country": "Fiji",
        "province": "Western",
        "population": -1,
        "latitude": -16.759755638998165,
        "longitude": 177.55337476730347
    },
    {
        "name": "Bua",
        "country": "Fiji",
        "province": "Northern",
        "population": -1,
        "latitude": -16.790323,
        "longitude": 178.609094
    },
    {
        "name": "Botenaulu",
        "country": "Fiji",
        "province": "Central",
        "population": -1,
        "latitude": -17.815454,
        "longitude": 178.108206
    },
    {
        "name": "Biausevu",
        "country": "Fiji",
        "province": "Western",
        "population": -1,
        "latitude": -18.192251,
        "longitude": 177.734797
    },
    {
        "name": "Biaugunu",
        "country": "Fiji",
        "province": "Northern",
        "population": -1,
        "latitude": -16.662718,
        "longitude": 179.352377
    },
    {
        "name": "Bemana",
        "country": "Fiji",
        "province": "Western",
        "population": -1,
        "latitude": -17.954401,
        "longitude": 177.702248
    },
    {
        "name": "Baulevu Settlement",
        "country": "Fiji",
        "province": "Central",
        "population": -1,
        "latitude": -17.968637,
        "longitude": 178.43507
    },
    {
        "name": "Batiri",
        "country": "Fiji",
        "province": "Western",
        "population": -1,
        "latitude": -18.074967,
        "longitude": 177.321219
    },
    {
        "name": "Batiri",
        "country": "Fiji",
        "province": "Northern",
        "population": -1,
        "latitude": -16.605909,
        "longitude": 179.035443
    },
    {
        "name": "Batinikama",
        "country": "Fiji",
        "province": "Northern",
        "population": -1,
        "latitude": -16.477428,
        "longitude": 179.425733
    },
    {
        "name": "Barotu",
        "country": "Fiji",
        "province": "Western",
        "population": -1,
        "latitude": -17.487445,
        "longitude": 178.238471
    },
    {
        "name": "Bagata",
        "country": "Fiji",
        "province": "Northern",
        "population": -1,
        "latitude": -16.664465,
        "longitude": 179.296808
    },
    {
        "name": "Bagasau",
        "country": "Fiji",
        "province": "Northern",
        "population": -1,
        "latitude": -16.716665,
        "longitude": 179.726142
    },
    {
        "name": "Balevuto",
        "country": "Fiji",
        "province": "Western",
        "population": -1,
        "latitude": -17.647809,
        "longitude": 177.721716
    },
    {
        "name": "Balesere",
        "country": "Fiji",
        "province": "Western",
        "population": -1,
        "latitude": -17.592525,
        "longitude": 178.097533
    },
    {
        "name": "Balenabelo",
        "country": "Fiji",
        "province": "Western",
        "population": -1,
        "latitude": -18.164588,
        "longitude": 177.621906
    },
    {
        "name": "Balekinaga",
        "country": "Fiji",
        "province": "Western",
        "population": -1,
        "latitude": -17.673434,
        "longitude": 178.329822
    },
    {
        "name": "Baidamudamu",
        "country": "Fiji",
        "province": "Eastern",
        "population": -1,
        "latitude": -19.085386,
        "longitude": 178.10899
    },
    {
        "name": "Mavua",
        "country": "Fiji",
        "province": "Western",
        "population": -1,
        "latitude": -18.018477,
        "longitude": 177.549784
    },
    {
        "name": "Maumi Settlement",
        "country": "Fiji",
        "province": "Central",
        "population": -1,
        "latitude": -17.998569,
        "longitude": 178.577331
    },
    {
        "name": "Matokana",
        "country": "Fiji",
        "province": "Western",
        "population": -1,
        "latitude": -17.988834,
        "longitude": 177.847201
    },
    {
        "name": "Mataveikai",
        "country": "Fiji",
        "province": "Western",
        "population": -1,
        "latitude": -17.488943,
        "longitude": 178.194482
    },
    {
        "name": "Matacawa Levu",
        "country": "Fiji",
        "province": "Western",
        "population": -1,
        "latitude": -16.949574,
        "longitude": 177.359565
    },
    {
        "name": "Mataso Settlement",
        "country": "Fiji",
        "province": "Eastern",
        "population": -1,
        "latitude": -19.011865,
        "longitude": 178.248949
    },
    {
        "name": "Matasawalevu",
        "country": "Fiji",
        "province": "Eastern",
        "population": -1,
        "latitude": -18.99757,
        "longitude": 178.464691
    },
    {
        "name": "Matanagata Set",
        "country": "Fiji",
        "province": "Western",
        "population": -1,
        "latitude": -17.4925,
        "longitude": 177.863129
    },
    {
        "name": "Matamaivere",
        "country": "Fiji",
        "province": "Central",
        "population": -1,
        "latitude": -17.95062,
        "longitude": 178.586476
    },
    {
        "name": "Matileka Settlement",
        "country": "Fiji",
        "province": "Central",
        "population": -1,
        "latitude": -17.897045,
        "longitude": 178.382573
    },
    {
        "name": "Matailabasa",
        "country": "Fiji",
        "province": "Northern",
        "population": -1,
        "latitude": -16.364047,
        "longitude": 179.417516
    },
    {
        "name": "Malake",
        "country": "Fiji",
        "province": "Northern",
        "population": -1,
        "latitude": -16.5,
        "longitude": 179.65
    },
    {
        "name": "Makomako Settlement",
        "country": "Fiji",
        "province": "Northern",
        "population": -1,
        "latitude": -16.491376,
        "longitude": 179.226268
    },
    {
        "name": "Makolei",
        "country": "Fiji",
        "province": "Northern",
        "population": -1,
        "latitude": -16.991501,
        "longitude": 178.757511
    },
    {
        "name": "Luvuluvu Settlement",
        "country": "Fiji",
        "province": "Northern",
        "population": -1,
        "latitude": -16.783954,
        "longitude": 178.592439
    },
    {
        "name": "Lovu",
        "country": "Fiji",
        "province": "Fiji",
        "population": -1,
        "latitude": -18.11359,
        "longitude": 179.32709
    },
    {
        "name": "Lodoni",
        "country": "Fiji",
        "province": "Central",
        "population": -1,
        "latitude": -17.740995,
        "longitude": 178.551373
    },
    {
        "name": "Lobau",
        "country": "Fiji",
        "province": "Central",
        "population": -1,
        "latitude": -18.17335,
        "longitude": 178.20059
    },
    {
        "name": "Lomaji",
        "country": "Fiji",
        "province": "Eastern",
        "population": -1,
        "latitude": -19.10782,
        "longitude": 178.000399
    },
    {
        "name": "Loa",
        "country": "Fiji",
        "province": "Northern",
        "population": -1,
        "latitude": -16.67439,
        "longitude": 179.821805
    },
    {
        "name": "Lidiasiga",
        "country": "Fiji",
        "province": "Northern",
        "population": -1,
        "latitude": -16.353206,
        "longitude": 179.349985
    },
    {
        "name": "Levukaidaku",
        "country": "Fiji",
        "province": "Eastern",
        "population": -1,
        "latitude": -19.18964,
        "longitude": 179.761588
    },
    {
        "name": "Lekutulevu",
        "country": "Fiji",
        "province": "Northern",
        "population": -1,
        "latitude": -16.48908,
        "longitude": 179.489549
    },
    {
        "name": "Lawaqa",
        "country": "Fiji",
        "province": "Western",
        "population": -1,
        "latitude": -18.140346,
        "longitude": 177.502523
    },
    {
        "name": "Lawaki",
        "country": "Fiji",
        "province": "Eastern",
        "population": -1,
        "latitude": -18.983222,
        "longitude": 178.407947
    },
    {
        "name": "Lawaki",
        "country": "Fiji",
        "province": "Eastern",
        "population": -1,
        "latitude": -17.830807,
        "longitude": 179.41932
    },
    {
        "name": "Laucala",
        "country": "Fiji",
        "province": "Central",
        "population": -1,
        "latitude": -18.146518,
        "longitude": 178.514447
    },
    {
        "name": "Laucala",
        "country": "Fiji",
        "province": "Northern",
        "population": -1,
        "latitude": -16.747563,
        "longitude": 179.123092
    },
    {
        "name": "Laselevu",
        "country": "Fiji",
        "province": "Central",
        "population": -1,
        "latitude": -17.75,
        "longitude": 178.1333333
    },
    {
        "name": "Lasakau",
        "country": "Fiji",
        "province": "Central",
        "population": -1,
        "latitude": -17.973297,
        "longitude": 178.615863
    },
    {
        "name": "Lagi",
        "country": "Fiji",
        "province": "Northern",
        "population": -1,
        "latitude": -16.24237,
        "longitude": 179.837955
    },
    {
        "name": "Laqere",
        "country": "Fiji",
        "province": "Central",
        "population": -1,
        "latitude": -18.083664,
        "longitude": 178.498622
    },
    {
        "name": "Lambasa River",
        "country": "Fiji",
        "province": "Northern",
        "population": -1,
        "latitude": -16.4166667,
        "longitude": 179.3666667
    },
    {
        "name": "Lakeba",
        "country": "Fiji",
        "province": "Northern",
        "population": -1,
        "latitude": -16.412847,
        "longitude": 179.757381
    },
    {
        "name": "Lakeba",
        "country": "Fiji",
        "province": "Northern",
        "population": -1,
        "latitude": -16.2049,
        "longitude": 179.699186
    },
    {
        "name": "Kubuna",
        "country": "Fiji",
        "province": "Western",
        "population": -1,
        "latitude": -18.02697,
        "longitude": 177.296931
    },
    {
        "name": "Korowiri",
        "country": "Fiji",
        "province": "Northern",
        "population": -1,
        "latitude": -16.476429,
        "longitude": 179.392206
    },
    {
        "name": "Korovuto",
        "country": "Fiji",
        "province": "Western",
        "population": -1,
        "latitude": -17.829512,
        "longitude": 177.376056
    },
    {
        "name": "Korovou Settlement",
        "country": "Fiji",
        "province": "Western",
        "population": -1,
        "latitude": -17.918089,
        "longitude": 177.798517
    },
    {
        "name": "Nakorovou",
        "country": "Fiji",
        "province": "Central",
        "population": -1,
        "latitude": -17.848258,
        "longitude": 178.103787
    },
    {
        "name": "Nakorovou",
        "country": "Fiji",
        "province": "Western",
        "population": -1,
        "latitude": -17.497155,
        "longitude": 178.283895
    },
    {
        "name": "Nakorovou",
        "country": "Fiji",
        "province": "Northern",
        "population": -1,
        "latitude": -16.971045,
        "longitude": 179.894718
    },
    {
        "name": "Nakorovou",
        "country": "Fiji",
        "province": "Northern",
        "population": -1,
        "latitude": -16.827833,
        "longitude": 179.025604
    },
    {
        "name": "Korotubu",
        "country": "Fiji",
        "province": "Northern",
        "population": -1,
        "latitude": -16.414178,
        "longitude": 179.194394
    },
    {
        "name": "Korotogo, Nadroga-Navosa",
        "country": "Fiji",
        "province": "Western",
        "population": -1,
        "latitude": -18.17676,
        "longitude": 177.54735
    },
    {
        "name": "Nakorosule",
        "country": "Fiji",
        "province": "Central",
        "population": -1,
        "latitude": -17.77424,
        "longitude": 178.251213
    },
    {
        "name": "Koronisagana",
        "country": "Fiji",
        "province": "Western",
        "population": -1,
        "latitude": -17.972481,
        "longitude": 177.627905
    },
    {
        "name": "Koroqaqa",
        "country": "Fiji",
        "province": "Western",
        "population": -1,
        "latitude": -17.48589,
        "longitude": 177.646342
    },
    {
        "name": "Koromathi",
        "country": "Fiji",
        "province": "Fiji",
        "population": -1,
        "latitude": -19.1333333,
        "longitude": 179.7666667
    },
    {
        "name": "Korolevu Settlement",
        "country": "Fiji",
        "province": "Eastern",
        "population": -1,
        "latitude": -19.016667,
        "longitude": 178.4
    },
    {
        "name": "Korokula Settlement",
        "country": "Fiji",
        "province": "Western",
        "population": -1,
        "latitude": -17.98081,
        "longitude": 177.272644
    },
    {
        "name": "Komave",
        "country": "Fiji",
        "province": "Western",
        "population": -1,
        "latitude": -18.220316,
        "longitude": 177.758352
    },
    {
        "name": "Kiuva",
        "country": "Fiji",
        "province": "Central",
        "population": -1,
        "latitude": -18.055093,
        "longitude": 178.679057
    },
    {
        "name": "Kiobo",
        "country": "Fiji",
        "province": "Northern",
        "population": -1,
        "latitude": -16.916633,
        "longitude": 179.024986
    },
    {
        "name": "Keteira",
        "country": "Fiji",
        "province": "Fiji",
        "population": -1,
        "latitude": -18.6166667,
        "longitude": 179.9
    },
    {
        "name": "Kedra",
        "country": "Fiji",
        "province": "Northern",
        "population": -1,
        "latitude": -16.244313,
        "longitude": 179.805903
    },
    {
        "name": "Kavala",
        "country": "Fiji",
        "province": "Eastern",
        "population": -1,
        "latitude": -18.969623,
        "longitude": 178.413746
    },
    {
        "name": "Kanacea",
        "country": "Fiji",
        "province": "Northern",
        "population": -1,
        "latitude": -16.969292,
        "longitude": 179.895404
    },
    {
        "name": "Kabisi Settlement",
        "country": "Fiji",
        "province": "Western",
        "population": -1,
        "latitude": -18.058028,
        "longitude": 177.370618
    },
    {
        "name": "Kalabu",
        "country": "Fiji",
        "province": "Central",
        "population": -1,
        "latitude": -18.085769,
        "longitude": 178.482159
    },
    {
        "name": "Hafea",
        "country": "Fiji",
        "province": "Fiji",
        "population": -1,
        "latitude": -12.48171,
        "longitude": 177.068811
    },
    {
        "name": "Feavairere",
        "country": "Fiji",
        "province": "Rotuma",
        "population": -1,
        "latitude": -12.514814,
        "longitude": 177.055591
    },
    {
        "name": "Avave",
        "country": "Fiji",
        "province": "Rotuma",
        "population": -1,
        "latitude": -12.522001,
        "longitude": 177.09936
    },
    {
        "name": "Elsee",
        "country": "Fiji",
        "province": "Rotuma",
        "population": -1,
        "latitude": -12.48463,
        "longitude": 177.086956
    },
    {
        "name": "Raviravi",
        "country": "Fiji",
        "province": "Eastern",
        "population": -1,
        "latitude": -19.170383,
        "longitude": 179.741097
    },
    {
        "name": "Yasawairara",
        "country": "Fiji",
        "province": "Western",
        "population": -1,
        "latitude": -16.707649,
        "longitude": 177.579827
    },
    {
        "name": "Arovudi",
        "country": "Fiji",
        "province": "Eastern",
        "population": -1,
        "latitude": -17.623926,
        "longitude": 178.774455
    },
    {
        "name": "Yaro Settlement",
        "country": "Fiji",
        "province": "Eastern",
        "population": -1,
        "latitude": -18.943551,
        "longitude": 178.373276
    },
    {
        "name": "Yarawa Settlement",
        "country": "Fiji",
        "province": "Central",
        "population": -1,
        "latitude": -18.246613,
        "longitude": 177.940348
    },
    {
        "name": "Yanuca",
        "country": "Fiji",
        "province": "Central",
        "population": -1,
        "latitude": -18.384094,
        "longitude": 177.994803
    },
    {
        "name": "Yanuca",
        "country": "Fiji",
        "province": "Eastern",
        "population": -1,
        "latitude": -17.765336,
        "longitude": 178.781776
    },
    {
        "name": "Yaqaga",
        "country": "Fiji",
        "province": "Northern",
        "population": -1,
        "latitude": -16.595772,
        "longitude": 178.595078
    },
    {
        "name": "Yadua",
        "country": "Fiji",
        "province": "Eastern",
        "population": -1,
        "latitude": -18.075962,
        "longitude": 179.360081
    },
    {
        "name": "Yalobi",
        "country": "Fiji",
        "province": "Western",
        "population": -1,
        "latitude": -17.306701,
        "longitude": 177.120133
    },
    {
        "name": "Yaloku Settlement",
        "country": "Fiji",
        "province": "Western",
        "population": -1,
        "latitude": -17.663634,
        "longitude": 177.622596
    },
    {
        "name": "Yalava",
        "country": "Fiji",
        "province": "Northern",
        "population": -1,
        "latitude": -16.427413595645216,
        "longitude": 179.21825408935547
    },
    {
        "name": "Yakita",
        "country": "Fiji",
        "province": "Eastern",
        "population": -1,
        "latitude": -19.072401,
        "longitude": 178.044599
    },
    {
        "name": "Werekaba Settlement",
        "country": "Fiji",
        "province": "Northern",
        "population": -1,
        "latitude": -16.643153,
        "longitude": 179.516985
    },
    {
        "name": "Wouosi Settlement",
        "country": "Fiji",
        "province": "Western",
        "population": -1,
        "latitude": -17.840292,
        "longitude": 177.713941
    },
    {
        "name": "Waiyanitu Settlement",
        "country": "Fiji",
        "province": "Central",
        "population": -1,
        "latitude": -18.182547,
        "longitude": 178.114329
    },
    {
        "name": "Waivunu",
        "country": "Fiji",
        "province": "Central",
        "population": -1,
        "latitude": -18.25,
        "longitude": 177.9833333
    },
    {
        "name": "Waica Settlement",
        "country": "Fiji",
        "province": "Northern",
        "population": -1,
        "latitude": -16.828624,
        "longitude": 179.974348
    },
    {
        "name": "Nawairuku",
        "country": "Fiji",
        "province": "Western",
        "population": -1,
        "latitude": -17.637227,
        "longitude": 178.211835
    },
    {
        "name": "Wairiki",
        "country": "Fiji",
        "province": "Northern",
        "population": -1,
        "latitude": -16.927398,
        "longitude": 178.666139
    },
    {
        "name": "Waioba Estate Settlement",
        "country": "Fiji",
        "province": "Northern",
        "population": -1,
        "latitude": -16.929218,
        "longitude": 179.911692
    },
    {
        "name": "Wainiyabia Settlement",
        "country": "Fiji",
        "province": "Central",
        "population": -1,
        "latitude": -18.264294,
        "longitude": 178.026269
    },
    {
        "name": "Wainigadru",
        "country": "Fiji",
        "province": "Northern",
        "population": -1,
        "latitude": -16.319202,
        "longitude": 179.818865
    },
    {
        "name": "Wainimakutu",
        "country": "Fiji",
        "province": "Central",
        "population": -1,
        "latitude": -17.971106,
        "longitude": 178.075603
    },
    {
        "name": "Wainika",
        "country": "Fiji",
        "province": "Northern",
        "population": -1,
        "latitude": -16.209521,
        "longitude": 179.924786
    },
    {
        "name": "Waiqanake",
        "country": "Fiji",
        "province": "Central",
        "population": -1,
        "latitude": -18.13446,
        "longitude": 178.369281
    },
    {
        "name": "Waidracia",
        "country": "Fiji",
        "province": "Central",
        "population": -1,
        "latitude": -17.834199,
        "longitude": 178.308646
    },
    {
        "name": "Waidau Settlement",
        "country": "Fiji",
        "province": "Eastern",
        "population": -1,
        "latitude": -17.690464,
        "longitude": 178.748328
    },
    {
        "name": "Wainawaqa",
        "country": "Fiji",
        "province": "Central",
        "population": -1,
        "latitude": -17.989542,
        "longitude": 178.288482
    },
    {
        "name": "Waibogi",
        "country": "Fiji",
        "province": "Central",
        "population": -1,
        "latitude": -18.116799,
        "longitude": 178.009289
    },
    {
        "name": "Waibasaga",
        "country": "Fiji",
        "province": "Central",
        "population": -1,
        "latitude": -17.806686,
        "longitude": 178.108965
    },
    {
        "name": "Waibalavu",
        "country": "Fiji",
        "province": "Central",
        "population": -1,
        "latitude": -17.766054,
        "longitude": 178.235654
    },
    {
        "name": "Waikubukubu",
        "country": "Fiji",
        "province": "Western",
        "population": -1,
        "latitude": -17.544353,
        "longitude": 177.938761
    },
    {
        "name": "Nawaikama",
        "country": "Fiji",
        "province": "Eastern",
        "population": -1,
        "latitude": -18.021597,
        "longitude": 179.265516
    },
    {
        "name": "Waikama",
        "country": "Fiji",
        "province": "Northern",
        "population": -1,
        "latitude": -16.7833333,
        "longitude": 179.35
    },
    {
        "name": "Vuci",
        "country": "Fiji",
        "province": "Central",
        "population": -1,
        "latitude": -18.085259,
        "longitude": 178.591276
    },
    {
        "name": "Vusasivo",
        "country": "Fiji",
        "province": "Northern",
        "population": -1,
        "latitude": -16.5666667,
        "longitude": 179.7666667
    },
    {
        "name": "Vusaratu",
        "country": "Fiji",
        "province": "Northern",
        "population": -1,
        "latitude": -16.6,
        "longitude": 179.7333333
    },
    {
        "name": "Vunuku",
        "country": "Fiji",
        "province": "Fiji",
        "population": -1,
        "latitude": -18.5833333,
        "longitude": 179.9166667
    },
    {
        "name": "Vunivutu",
        "country": "Fiji",
        "province": "Northern",
        "population": -1,
        "latitude": -16.294257,
        "longitude": 179.513714
    },
    {
        "name": "Vunivau",
        "country": "Fiji",
        "province": "Northern",
        "population": -1,
        "latitude": -16.418882,
        "longitude": 179.403652
    },
    {
        "name": "Vunisinu",
        "country": "Fiji",
        "province": "Central",
        "population": -1,
        "latitude": -18.112762,
        "longitude": 178.577174
    },
    {
        "name": "Vuisiga",
        "country": "Fiji",
        "province": "Central",
        "population": -1,
        "latitude": -17.810521,
        "longitude": 178.332108
    },
    {
        "name": "Vunisei",
        "country": "Fiji",
        "province": "Central",
        "population": -1,
        "latitude": -18.054253,
        "longitude": 178.554317
    },
    {
        "name": "Vuniniudrovu Settlement",
        "country": "Fiji",
        "province": "Central",
        "population": -1,
        "latitude": -18.019901,
        "longitude": 178.492868
    },
    {
        "name": "Vuniduba Creek",
        "country": "Fiji",
        "province": "Central",
        "population": -1,
        "latitude": -17.833061,
        "longitude": 178.280662
    },
    {
        "name": "Vunidogoloa",
        "country": "Fiji",
        "province": "Northern",
        "population": -1,
        "latitude": -16.670044,
        "longitude": 179.502326
    },
    {
        "name": "Vunidawa",
        "country": "Fiji",
        "province": "Central",
        "population": -1,
        "latitude": -17.824492,
        "longitude": 178.321098
    },
    {
        "name": "Vunindamoli",
        "country": "Fiji",
        "province": "Northern",
        "population": -1,
        "latitude": -16.735613,
        "longitude": 179.160601
    },
    {
        "name": "Vunimono",
        "country": "Fiji",
        "province": "Central",
        "population": -1,
        "latitude": -18.0333333,
        "longitude": 178.5333333
    },
    {
        "name": "Vunibau",
        "country": "Fiji",
        "province": "Central",
        "population": -1,
        "latitude": -18.257339,
        "longitude": 178.146573
    },
    {
        "name": "Vunimaqo Settlement",
        "country": "Fiji",
        "province": "Central",
        "population": -1,
        "latitude": -18.266151,
        "longitude": 178.015007
    },
    {
        "name": "Vunilagi Settlement",
        "country": "Fiji",
        "province": "Northern",
        "population": -1,
        "latitude": -16.757835,
        "longitude": 179.640622
    },
    {
        "name": "Vunaqoru",
        "country": "Fiji",
        "province": "Western",
        "population": -1,
        "latitude": -17.974677,
        "longitude": 177.645928
    },
    {
        "name": "Vunambua",
        "country": "Fiji",
        "province": "Western",
        "population": -1,
        "latitude": -18.11286,
        "longitude": 177.32642
    },
    {
        "name": "Vuiraqilai",
        "country": "Fiji",
        "province": "Northern",
        "population": -1,
        "latitude": -16.554007,
        "longitude": 179.233775
    },
    {
        "name": "Vuinaqalutu",
        "country": "Fiji",
        "province": "Northern",
        "population": -1,
        "latitude": -16.638924,
        "longitude": 178.979671
    },
    {
        "name": "Vunikawakawa Settlement",
        "country": "Fiji",
        "province": "Northern",
        "population": -1,
        "latitude": -16.514513,
        "longitude": 179.317932
    },
    {
        "name": "Votua",
        "country": "Fiji",
        "province": "Northern",
        "population": -1,
        "latitude": -16.668933,
        "longitude": 178.720755
    },
    {
        "name": "Volivoli",
        "country": "Fiji",
        "province": "Western",
        "population": -1,
        "latitude": -18.157535,
        "longitude": 177.489509
    },
    {
        "name": "Volinagerua",
        "country": "Fiji",
        "province": "Western",
        "population": -1,
        "latitude": -17.964302,
        "longitude": 177.713752
    },
    {
        "name": "Vitogo",
        "country": "Fiji",
        "province": "Western",
        "population": -1,
        "latitude": -17.592219,
        "longitude": 177.495618
    },
    {
        "name": "Visama Settlement",
        "country": "Fiji",
        "province": "Central",
        "population": -1,
        "latitude": -18.0531,
        "longitude": 178.576802
    },
    {
        "name": "Visa Settlement",
        "country": "Fiji",
        "province": "Central",
        "population": -1,
        "latitude": -17.955216,
        "longitude": 178.541865
    },
    {
        "name": "Vesi",
        "country": "Fiji",
        "province": "Northern",
        "population": -1,
        "latitude": -16.344138,
        "longitude": 179.373132
    },
    {
        "name": "Vavalagi",
        "country": "Fiji",
        "province": "Northern",
        "population": -1,
        "latitude": -16.3112,
        "longitude": 179.44805
    },
    {
        "name": "Vaua",
        "country": "Fiji",
        "province": "Fiji",
        "population": -1,
        "latitude": -18.6166667,
        "longitude": 179.8666667
    },
    {
        "name": "Navatuvula",
        "country": "Fiji",
        "province": "Central",
        "population": -1,
        "latitude": -18.026051,
        "longitude": 178.43925
    },
    {
        "name": "Vatutavui Set",
        "country": "Fiji",
        "province": "Western",
        "population": -1,
        "latitude": -17.448624,
        "longitude": 177.747501
    },
    {
        "name": "Vatutadova",
        "country": "Fiji",
        "province": "Northern",
        "population": -1,
        "latitude": -16.427318,
        "longitude": 179.278232
    },
    {
        "name": "Vatusekiyasawa",
        "country": "Fiji",
        "province": "Western",
        "population": -1,
        "latitude": -17.394056,
        "longitude": 178.132244
    },
    {
        "name": "Vatulele",
        "country": "Fiji",
        "province": "Northern",
        "population": -1,
        "latitude": -16.719942,
        "longitude": 179.315412
    },
    {
        "name": "Vatukacevaceva",
        "country": "Fiji",
        "province": "Western",
        "population": -1,
        "latitude": -17.421623,
        "longitude": 178.079587
    },
    {
        "name": "Vatukaroa Settlement",
        "country": "Fiji",
        "province": "Northern",
        "population": -1,
        "latitude": -16.376474,
        "longitude": 179.780634
    },
    {
        "name": "Vatukarasa",
        "country": "Fiji",
        "province": "Western",
        "population": -1,
        "latitude": -18.182016,
        "longitude": 177.604504
    },
    {
        "name": "Vanuavou",
        "country": "Fiji",
        "province": "Northern",
        "population": -1,
        "latitude": -16.5,
        "longitude": 179.6333333
    },
    {
        "name": "Vanuaso",
        "country": "Fiji",
        "province": "Eastern",
        "population": -1,
        "latitude": -17.966196,
        "longitude": 179.313239
    },
    {
        "name": "Vanuadina",
        "country": "Fiji",
        "province": "Central",
        "population": -1,
        "latitude": -18.079835,
        "longitude": 178.588277
    },
    {
        "name": "Vanuakula",
        "country": "Fiji",
        "province": "Central",
        "population": -1,
        "latitude": -17.955258,
        "longitude": 178.353282
    },
    {
        "name": "Vagadra",
        "country": "Fiji",
        "province": "Western",
        "population": -1,
        "latitude": -17.983333,
        "longitude": 177.45
    },
    {
        "name": "Vagai Settlement",
        "country": "Fiji",
        "province": "Northern",
        "population": -1,
        "latitude": -16.771252,
        "longitude": 179.865199
    },
    {
        "name": "Vadravadra",
        "country": "Fiji",
        "province": "Western",
        "population": -1,
        "latitude": -17.511189,
        "longitude": 177.696739
    },
    {
        "name": "Vadrakula Settlement",
        "country": "Fiji",
        "province": "Central",
        "population": -1,
        "latitude": -17.820453,
        "longitude": 178.546161
    },
    {
        "name": "Vadrai",
        "country": "Fiji",
        "province": "Central",
        "population": -1,
        "latitude": -18.081158,
        "longitude": 178.656605
    },
    {
        "name": "Valethi Government Station",
        "country": "Fiji",
        "province": "Northern",
        "population": -1,
        "latitude": -16.7833333,
        "longitude": 179.35
    },
    {
        "name": "Vakabuli",
        "country": "Fiji",
        "province": "Western",
        "population": -1,
        "latitude": -17.610627,
        "longitude": 177.555907
    },
    {
        "name": "Vaidoko",
        "country": "Fiji",
        "province": "Western",
        "population": -1,
        "latitude": -17.410348,
        "longitude": 178.244206
    },
    {
        "name": "Ucunivanua",
        "country": "Fiji",
        "province": "Central",
        "population": -1,
        "latitude": -17.850074,
        "longitude": 178.624593
    },
    {
        "name": "Urata",
        "country": "Fiji",
        "province": "Northern",
        "population": -1,
        "latitude": -16.728414,
        "longitude": 179.338821
    },
    {
        "name": "Tubenasolo",
        "country": "Fiji",
        "province": "Western",
        "population": -1,
        "latitude": -17.862313,
        "longitude": 177.597029
    },
    {
        "name": "Tovutovu Settlement",
        "country": "Fiji",
        "province": "Central",
        "population": -1,
        "latitude": -17.96561,
        "longitude": 178.436079
    },
    {
        "name": "Tonuve",
        "country": "Fiji",
        "province": "Western",
        "population": -1,
        "latitude": -17.962432,
        "longitude": 177.711489
    },
    {
        "name": "Togovere",
        "country": "Fiji",
        "province": "Western",
        "population": -1,
        "latitude": -18.104608,
        "longitude": 177.418125
    },
    {
        "name": "Toge",
        "country": "Fiji",
        "province": "Western",
        "population": -1,
        "latitude": -17.628389,
        "longitude": 177.740337
    },
    {
        "name": "Toga",
        "country": "Fiji",
        "province": "Western",
        "population": -1,
        "latitude": -17.977659,
        "longitude": 177.605624
    },
    {
        "name": "Tobu Settlement",
        "country": "Fiji",
        "province": "Western",
        "population": -1,
        "latitude": -17.623503,
        "longitude": 178.268401
    },
    {
        "name": "Natokalau Settlement",
        "country": "Fiji",
        "province": "Northern",
        "population": -1,
        "latitude": -16.82489,
        "longitude": 179.976558
    },
    {
        "name": "Tilivalevu Settlement",
        "country": "Fiji",
        "province": "Western",
        "population": -1,
        "latitude": -18.07387,
        "longitude": 177.485751
    },
    {
        "name": "Cuvu",
        "country": "Fiji",
        "province": "Western",
        "population": -1,
        "latitude": -18.146626,
        "longitude": 177.429988
    },
    {
        "name": "Culanuku",
        "country": "Fiji",
        "province": "Central",
        "population": -1,
        "latitude": -18.26741,
        "longitude": 177.986648
    },
    {
        "name": "Cogea",
        "country": "Fiji",
        "province": "Northern",
        "population": -1,
        "latitude": -16.827542,
        "longitude": 178.898675
    },
    {
        "name": "Colo-i-Suva",
        "country": "Fiji",
        "province": "Central",
        "population": -1,
        "latitude": -18.047863,
        "longitude": 178.445496
    },
    {
        "name": "Cawatara Settlement",
        "country": "Fiji",
        "province": "Eastern",
        "population": -1,
        "latitude": -17.65398,
        "longitude": 178.746706
    },
    {
        "name": "Cawadevo",
        "country": "Fiji",
        "province": "Northern",
        "population": -1,
        "latitude": -16.221745,
        "longitude": 179.673532
    },
    {
        "name": "Cautata",
        "country": "Fiji",
        "province": "Central",
        "population": -1,
        "latitude": -17.996167,
        "longitude": 178.623358
    },
    {
        "name": "Caubati",
        "country": "Fiji",
        "province": "Central",
        "population": -1,
        "latitude": -18.103317,
        "longitude": 178.465313
    },
    {
        "name": "Calia Settlement",
        "country": "Fiji",
        "province": "Central",
        "population": -1,
        "latitude": -18.213738,
        "longitude": 178.156989
    },
    {
        "name": "Teci",
        "country": "Fiji",
        "province": "Western",
        "population": -1,
        "latitude": -16.791882,
        "longitude": 177.51887
    },
    {
        "name": "Tawava",
        "country": "Fiji",
        "province": "Eastern",
        "population": -1,
        "latitude": -19.097547,
        "longitude": 178.021314
    },
    {
        "name": "Natawatawadi",
        "country": "Fiji",
        "province": "Western",
        "population": -1,
        "latitude": -17.980814,
        "longitude": 177.620674
    },
    {
        "name": "Tawake",
        "country": "Fiji",
        "province": "Northern",
        "population": -1,
        "latitude": -16.257739,
        "longitude": 179.861067
    },
    {
        "name": "Tavuki",
        "country": "Fiji",
        "province": "Eastern",
        "population": -1,
        "latitude": -19.077356,
        "longitude": 178.107882
    },
    {
        "name": "Vula Settlement",
        "country": "Fiji",
        "province": "Western",
        "population": -1,
        "latitude": -17.614855,
        "longitude": 177.087134
    },
    {
        "name": "Taviya",
        "country": "Fiji",
        "province": "Eastern",
        "population": -1,
        "latitude": -17.629575,
        "longitude": 178.768037
    },
    {
        "name": "Taci",
        "country": "Fiji",
        "province": "Central",
        "population": -1,
        "latitude": -18.112379,
        "longitude": 178.600401
    },
    {
        "name": "Tamasua",
        "country": "Fiji",
        "province": "Western",
        "population": -1,
        "latitude": -16.841085,
        "longitude": 177.448868
    },
    {
        "name": "Tabuya",
        "country": "Fiji",
        "province": "Eastern",
        "population": -1,
        "latitude": -19.154212,
        "longitude": 178.054953
    },
    {
        "name": "Tabuquto",
        "country": "Fiji",
        "province": "Western",
        "population": -1,
        "latitude": -17.754017,
        "longitude": 177.773116
    },
    {
        "name": "Tabia",
        "country": "Fiji",
        "province": "Northern",
        "population": -1,
        "latitude": -16.45851,
        "longitude": 179.245537
    },
    {
        "name": "Talecake Set",
        "country": "Fiji",
        "province": "Western",
        "population": -1,
        "latitude": -17.498624,
        "longitude": 177.705587
    },
    {
        "name": "Talaulia",
        "country": "Fiji",
        "province": "Eastern",
        "population": -1,
        "latitude": -19.106692,
        "longitude": 178.006335
    },
    {
        "name": "Tai Settlement",
        "country": "Fiji",
        "province": "Eastern",
        "population": -1,
        "latitude": -17.713097,
        "longitude": 178.767074
    },
    {
        "name": "Suvalailai",
        "country": "Fiji",
        "province": "Central",
        "population": -1,
        "latitude": -18.100701,
        "longitude": 178.581002
    },
    {
        "name": "Suweni",
        "country": "Fiji",
        "province": "Northern",
        "population": -1,
        "latitude": -16.568811,
        "longitude": 179.353623
    },
    {
        "name": "Sogobiau",
        "country": "Fiji",
        "province": "Northern",
        "population": -1,
        "latitude": -16.264455,
        "longitude": 179.548101
    },
    {
        "name": "Solotavui",
        "country": "Fiji",
        "province": "Eastern",
        "population": -1,
        "latitude": -18.978622,
        "longitude": 178.424345
    },
    {
        "name": "Solodamu",
        "country": "Fiji",
        "province": "Eastern",
        "population": -1,
        "latitude": -19.075001,
        "longitude": 178.119606
    },
    {
        "name": "Solevu",
        "country": "Fiji",
        "province": "Western",
        "population": -1,
        "latitude": -17.746643005389437,
        "longitude": 177.1827793121338
    },
    {
        "name": "Solevu",
        "country": "Fiji",
        "province": "Northern",
        "population": -1,
        "latitude": -17,
        "longitude": 178.7666667
    },
    {
        "name": "Naisisili",
        "country": "Fiji",
        "province": "Western",
        "population": -1,
        "latitude": -16.92624,
        "longitude": 177.406118
    },
    {
        "name": "Sinuvaca",
        "country": "Fiji",
        "province": "Eastern",
        "population": -1,
        "latitude": -17.334657,
        "longitude": 179.432694
    },
    {
        "name": "Nasigatoka",
        "country": "Fiji",
        "province": "Central",
        "population": -1,
        "latitude": -18.102743,
        "longitude": 178.558285
    },
    {
        "name": "Silivakatini Settlement",
        "country": "Fiji",
        "province": "Northern",
        "population": -1,
        "latitude": -16.197776,
        "longitude": 179.730228
    },
    {
        "name": "Silana",
        "country": "Fiji",
        "province": "Central",
        "population": -1,
        "latitude": -17.583972,
        "longitude": 178.490011
    },
    {
        "name": "Sikituru",
        "country": "Fiji",
        "province": "Western",
        "population": -1,
        "latitude": -17.799971,
        "longitude": 177.394938
    },
    {
        "name": "Seseniga Settlement",
        "country": "Fiji",
        "province": "Northern",
        "population": -1,
        "latitude": -16.558924,
        "longitude": 178.883644
    },
    {
        "name": "Seavathi",
        "country": "Fiji",
        "province": "Northern",
        "population": -1,
        "latitude": -16.5,
        "longitude": 179.55
    },
    {
        "name": "Saweni",
        "country": "Fiji",
        "province": "Western",
        "population": -1,
        "latitude": -17.90394,
        "longitude": 177.78256
    },
    {
        "name": "Sawaieke",
        "country": "Fiji",
        "province": "Eastern",
        "population": -1,
        "latitude": -17.986397,
        "longitude": 179.252374
    },
    {
        "name": "Savusavuitaga",
        "country": "Fiji",
        "province": "Northern",
        "population": -1,
        "latitude": -16.524523,
        "longitude": 179.25672
    },
    {
        "name": "Nasauvakarua",
        "country": "Fiji",
        "province": "Western",
        "population": -1,
        "latitude": -17.809764,
        "longitude": 177.92055
    },
    {
        "name": "Sauniveiuto",
        "country": "Fiji",
        "province": "Central",
        "population": -1,
        "latitude": -18.249528,
        "longitude": 178.135049
    },
    {
        "name": "Sasa",
        "country": "Fiji",
        "province": "Northern",
        "population": -1,
        "latitude": -16.428019,
        "longitude": 179.167588
    },
    {
        "name": "Saru",
        "country": "Fiji",
        "province": "Western",
        "population": -1,
        "latitude": -18.125428,
        "longitude": 177.64594
    },
    {
        "name": "Saru Settlement",
        "country": "Fiji",
        "province": "Western",
        "population": -1,
        "latitude": -17.641484,
        "longitude": 177.445457
    },
    {
        "name": "Sanggani",
        "country": "Fiji",
        "province": "Northern",
        "population": -1,
        "latitude": -16.4666667,
        "longitude": 179.7166667
    },
    {
        "name": "Sadro",
        "country": "Fiji",
        "province": "Central",
        "population": -1,
        "latitude": -18.247921,
        "longitude": 178.13444
    },
    {
        "name": "Sabata",
        "country": "Fiji",
        "province": "Central",
        "population": -1,
        "latitude": -18.112561,
        "longitude": 178.072347
    },
    {
        "name": "Rukurukulevu",
        "country": "Fiji",
        "province": "Western",
        "population": -1,
        "latitude": -18.137612,
        "longitude": 177.424036
    },
    {
        "name": "Raviravi",
        "country": "Fiji",
        "province": "Northern",
        "population": -1,
        "latitude": -16.91089,
        "longitude": 178.989292
    },
    {
        "name": "Rauriko",
        "country": "Fiji",
        "province": "Northern",
        "population": -1,
        "latitude": -16.291723,
        "longitude": 179.714022
    },
    {
        "name": "Rabulu",
        "country": "Fiji",
        "province": "Western",
        "population": -1,
        "latitude": -17.433912,
        "longitude": 177.941146
    },
    {
        "name": "Raksaa",
        "country": "Fiji",
        "province": "Rotuma",
        "population": -1,
        "latitude": -12.517762,
        "longitude": 177.058215
    },
    {
        "name": "Rakiraki",
        "country": "Fiji",
        "province": "Western",
        "population": -1,
        "latitude": -17.363882,
        "longitude": 178.160723
    },
    {
        "name": "Pephaua",
        "country": "Fiji",
        "province": "Rotuma",
        "population": -1,
        "latitude": -12.482706,
        "longitude": 177.082136
    },
    {
        "name": "Ovalau",
        "country": "Fiji",
        "province": "Western",
        "population": -1,
        "latitude": -17.61073,
        "longitude": 178.168521
    },
    {
        "name": "Nubutautau",
        "country": "Fiji",
        "province": "Western",
        "population": -1,
        "latitude": -17.776029,
        "longitude": 177.913161
    },
    {
        "name": "Nubumakita",
        "country": "Fiji",
        "province": "Western",
        "population": -1,
        "latitude": -17.649394,
        "longitude": 178.149744
    },
    {
        "name": "Nubu",
        "country": "Fiji",
        "province": "Northern",
        "population": -1,
        "latitude": -16.291198,
        "longitude": 179.628922
    },
    {
        "name": "Nukutubu",
        "country": "Fiji",
        "province": "Central",
        "population": -1,
        "latitude": -18.100382,
        "longitude": 178.557009
    },
    {
        "name": "Nukutocia Settlement",
        "country": "Fiji",
        "province": "Eastern",
        "population": -1,
        "latitude": -17.7276,
        "longitude": 178.792396
    },
    {
        "name": "Nukusere",
        "country": "Fiji",
        "province": "Central",
        "population": -1,
        "latitude": -18.10961,
        "longitude": 178.068805
    },
    {
        "name": "Nukusa",
        "country": "Fiji",
        "province": "Northern",
        "population": -1,
        "latitude": -16.189256,
        "longitude": 179.879451
    },
    {
        "name": "Nukundamu",
        "country": "Fiji",
        "province": "Northern",
        "population": -1,
        "latitude": -16.1666667,
        "longitude": 179.9666667
    },
    {
        "name": "Nukubalavu",
        "country": "Fiji",
        "province": "Northern",
        "population": -1,
        "latitude": -16.8153,
        "longitude": 179.314773
    },
    {
        "name": "Nukubalavu Settlement",
        "country": "Fiji",
        "province": "Eastern",
        "population": -1,
        "latitude": -18.901981,
        "longitude": 178.518035
    },
    {
        "name": "Nukulau",
        "country": "Fiji",
        "province": "Western",
        "population": -1,
        "latitude": -17.652492,
        "longitude": 178.124008
    },
    {
        "name": "Nadaulau Settlement",
        "country": "Fiji",
        "province": "Western",
        "population": -1,
        "latitude": -18.131386,
        "longitude": 177.396593
    },
    {
        "name": "Niurua",
        "country": "Fiji",
        "province": "Northern",
        "population": -1,
        "latitude": -16.477071,
        "longitude": 178.969897
    },
    {
        "name": "Niudua",
        "country": "Fiji",
        "province": "Eastern",
        "population": -1,
        "latitude": -19.015793,
        "longitude": 178.339029
    },
    {
        "name": "Niubasaga",
        "country": "Fiji",
        "province": "Eastern",
        "population": -1,
        "latitude": -17.776971,
        "longitude": 178.742422
    },
    {
        "name": "Gunu",
        "country": "Fiji",
        "province": "Western",
        "population": -1,
        "latitude": -17.088149,
        "longitude": 177.244385
    },
    {
        "name": "Qoma",
        "country": "Fiji",
        "province": "Central",
        "population": -1,
        "latitude": -17.638004,
        "longitude": 178.583762
    },
    {
        "name": "Qelewara",
        "country": "Fiji",
        "province": "Northern",
        "population": -1,
        "latitude": -16.255599,
        "longitude": 179.617434
    },
    {
        "name": "Naqelecibi",
        "country": "Fiji",
        "province": "Western",
        "population": -1,
        "latitude": -17.586984,
        "longitude": 178.097461
    },
    {
        "name": "Naqeledamu",
        "country": "Fiji",
        "province": "Central",
        "population": -1,
        "latitude": -17.995196,
        "longitude": 178.546541
    },
    {
        "name": "Qelemumu",
        "country": "Fiji",
        "province": "Northern",
        "population": -1,
        "latitude": -16.406279,
        "longitude": 179.471726
    },
    {
        "name": "Qelekuro",
        "country": "Fiji",
        "province": "Central",
        "population": -1,
        "latitude": -17.628413,
        "longitude": 178.549817
    },