[
    {
        "name": "Paris",
        "country": "France",
        "province": "Île-de-France",
        "population": 2138551,
        "latitude": 48.85341,
        "longitude": 2.3488
    },
    {
        "name": "Strasbourg",
        "country": "France",
        "province": "Grand Est",
        "population": 274845,
        "latitude": 48.58392,
        "longitude": 7.74553
    },
    {
        "name": "Montpellier",
        "country": "France",
        "province": "Occitanie",
        "population": 248252,
        "latitude": 43.610928,
        "longitude": 3.876351
    },
    {
        "name": "Marseille",
        "country": "France",
        "province": "Provence-Alpes-Côte d'Azur",
        "population": 870731,
        "latitude": 43.2969485316727,
        "longitude": 5.38106918334961
    },
    {
        "name": "Lyon",
        "country": "France",
        "province": "Auvergne-Rhône-Alpes",
        "population": 522969,
        "latitude": 45.748457,
        "longitude": 4.846711
    },
    {
        "name": "Lille",
        "country": "France",
        "province": "Hauts-de-France",
        "population": 234475,
        "latitude": 50.632971,
        "longitude": 3.058585
    },
    {
        "name": "Bordeaux",
        "country": "France",
        "province": "Nouvelle-Aquitaine",
        "population": 260958,
        "latitude": 44.840439,
        "longitude": -0.5805
    },
    {
        "name": "Dijon",
        "country": "France",
        "province": "Bourgogne-Franche-Comté",
        "population": 158002,
        "latitude": 47.3166667,
        "longitude": 5.0166667
    },
    {
        "name": "Rennes",
        "country": "France",
        "province": "Brittany",
        "population": 220488,
        "latitude": 48.111981,
        "longitude": -1.674291
    },
    {
        "name": "Toulouse",
        "country": "France",
        "province": "Occitanie",
        "population": 493465,
        "latitude": 43.6042618680962,
        "longitude": 1.44367218017578
    },
    {
        "name": "Orléans",
        "country": "France",
        "province": "Centre-Val de Loire",
        "population": 116269,
        "latitude": 47.902891,
        "longitude": 1.903887
    },
    {
        "name": "Nantes",
        "country": "France",
        "province": "Pays de la Loire",
        "population": 318808,
        "latitude": 47.2172508193978,
        "longitude": -1.55336380004883
    },
    {
        "name": "Rouen",
        "country": "France",
        "province": "Normandy",
        "population": 234475,
        "latitude": 49.44312875803,
        "longitude": 1.09931945800781
    },
    {
        "name": "Le Mans",
        "country": "France",
        "province": "Pays de la Loire",
        "population": 144515,
        "latitude": 48.002101,
        "longitude": 0.202506
    },
    {
        "name": "Le Havre",
        "country": "France",
        "province": "Normandy",
        "population": 185972,
        "latitude": 49.49346,
        "longitude": 0.10785
    },
    {
        "name": "Avignon",
        "country": "France",
        "province": "Provence-Alpes-Côte d'Azur",
        "population": 89769,
        "latitude": 43.94833863436953,
        "longitude": 4.808921813964844
    },
    {
        "name": "Aulnay-sous-Bois",
        "country": "France",
        "province": "Île-de-France",
        "population": 80615,
        "latitude": 48.938138,
        "longitude": 2.494022
    },
    {
        "name": "Argenteuil",
        "country": "France",
        "province": "Île-de-France",
        "population": 101475,
        "latitude": 48.947885,
        "longitude": 2.24744
    },
    {
        "name": "Antibes",
        "country": "France",
        "province": "Provence-Alpes-Côte d'Azur",
        "population": 76393,
        "latitude": 43.58127,
        "longitude": 7.12487
    },
    {
        "name": "Limoges",
        "country": "France",
        "province": "Nouvelle-Aquitaine",
        "population": 141176,
        "latitude": 45.833616,
        "longitude": 1.247592
    },
    {
        "name": "Levallois-Perret",
        "country": "France",
        "province": "Île-de-France",
        "population": 62178,
        "latitude": 48.893889,
        "longitude": 2.288635
    },
    {
        "name": "La Rochelle",
        "country": "France",
        "province": "Nouvelle-Aquitaine",
        "population": 76810,
        "latitude": 46.163077,
        "longitude": -1.15222
    },
    {
        "name": "Angers",
        "country": "France",
        "province": "Pays de la Loire",
        "population": 168279,
        "latitude": 47.471559,
        "longitude": -0.552018
    },
    {
        "name": "Amiens",
        "country": "France",
        "province": "Hauts-de-France",
        "population": 143086,
        "latitude": 49.9,
        "longitude": 2.3
    },
    {
        "name": "Ajaccio",
        "country": "France",
        "province": "Corsica",
        "population": 54364,
        "latitude": 41.91886,
        "longitude": 8.73812
    },
    {
        "name": "Aix-en-Provence",
        "country": "France",
        "province": "Provence-Alpes-Côte d'Azur",
        "population": 146821,
        "latitude": 43.5282955832209,
        "longitude": 5.44973373413086
    },
    {
        "name": "Colombes",
        "country": "France",
        "province": "Île-de-France",
        "population": 82300,
        "latitude": 48.918824,
        "longitude": 2.254044
    },
    {
        "name": "Clermont-Ferrand",
        "country": "France",
        "province": "Auvergne-Rhône-Alpes",
        "population": 147865,
        "latitude": 45.779686,
        "longitude": 3.086823
    },
    {
        "name": "Caen",
        "country": "France",
        "province": "Normandy",
        "population": 110624,
        "latitude": 49.18585493070746,
        "longitude": -0.3591156005859375
    },
    {
        "name": "Brest",
        "country": "France",
        "province": "Brittany",
        "population": 144899,
        "latitude": 48.39029,
        "longitude": -4.48628
    },
    {
        "name": "Boulogne-Billancourt",
        "country": "France",
        "province": "Île-de-France",
        "population": 108782,
        "latitude": 48.835446,
        "longitude": 2.241284
    },
    {
        "name": "Blois",
        "country": "France",
        "province": "Centre-Val de Loire",
        "population": 53660,
        "latitude": 47.594322,
        "longitude": 1.329122
    },
    {
        "name": "Besançon",
        "country": "France",
        "province": "Bourgogne-Franche-Comté",
        "population": 128426,
        "latitude": 47.248778,
        "longitude": 6.018152
    },
    {
        "name": "Créteil",
        "country": "France",
        "province": "Île-de-France",
        "population": 84833,
        "latitude": 48.792661,
        "longitude": 2.465694
    },
    {
        "name": "Courbevoie",
        "country": "France",
        "province": "Île-de-France",
        "population": 85158,
        "latitude": 48.8967189248729,
        "longitude": 2.25666046142578
    },
    {
        "name": "Champigny-sur-Marne",
        "country": "France",
        "province": "Île-de-France",
        "population": 76726,
        "latitude": 48.81642,
        "longitude": 2.493656
    },
    {
        "name": "Cannes",
        "country": "France",
        "province": "Provence-Alpes-Côte d'Azur",
        "population": 74545,
        "latitude": 43.551347,
        "longitude": 7.012753
    },
    {
        "name": "Grenoble",
        "country": "France",
        "province": "Auvergne-Rhône-Alpes",
        "population": 158552,
        "latitude": 45.178685,
        "longitude": 5.714789
    },
    {
        "name": "Versailles",
        "country": "France",
        "province": "Île-de-France",
        "population": 85416,
        "latitude": 48.803593,
        "longitude": 2.134236
    },
    {
        "name": "Poitiers",
        "country": "France",
        "province": "Nouvelle-Aquitaine",
        "population": 85960,
        "latitude": 46.582611,
        "longitude": 0.343482
    },
    {
        "name": "Perpignan",
        "country": "France",
        "province": "Occitanie",
        "population": 110706,
        "latitude": 42.6976396895556,
        "longitude": 2.89541244506836
    },
    {
        "name": "Pau",
        "country": "France",
        "province": "Nouvelle-Aquitaine",
        "population": 82697,
        "latitude": 43.311173,
        "longitude": -0.355832
    },
    {
        "name": "Reims",
        "country": "France",
        "province": "Grand Est",
        "population": 196565,
        "latitude": 49.265265,
        "longitude": 4.028529
    },
    {
        "name": "Montreuil",
        "country": "France",
        "province": "Île-de-France",
        "population": 111240,
        "latitude": 48.864151,
        "longitude": 2.443218
    },
    {
        "name": "Metz",
        "country": "France",
        "province": "Grand Est",
        "population": 123914,
        "latitude": 49.1191075673371,
        "longitude": 6.17268562316895
    },
    {
        "name": "Tours",
        "country": "France",
        "province": "Centre-Val de Loire",
        "population": 141621,
        "latitude": 47.394836,
        "longitude": 0.703977
    },
    {
        "name": "Tourcoing",
        "country": "France",
        "province": "Hauts-de-France",
        "population": 98656,
        "latitude": 50.723907,
        "longitude": 3.161168
    },
    {
        "name": "Toulon",
        "country": "France",
        "province": "Provence-Alpes-Côte d'Azur",
        "population": 168701,
        "latitude": 43.12442,
        "longitude": 5.92836
    },
    {
        "name": "Issy-les-Moulineaux",
        "country": "France",
        "province": "Île-de-France",
        "population": 61447,
        "latitude": 48.821042,
        "longitude": 2.277183
    },
    {
        "name": "Niort",
        "country": "France",
        "province": "Nouvelle-Aquitaine",
        "population": 54660,
        "latitude": 46.32313433466132,
        "longitude": -0.45876502990722656
    },
    {
        "name": "Nîmes",
        "country": "France",
        "province": "Occitanie",
        "population": 148236,
        "latitude": 43.836647,
        "longitude": 4.357883
    },
    {
        "name": "Nice",
        "country": "France",
        "province": "Provence-Alpes-Côte d'Azur",
        "population": 342669,
        "latitude": 43.703126104186,
        "longitude": 7.26608276367188
    },
    {
        "name": "Neuilly-sur-Seine",
        "country": "France",
        "province": "Île-de-France",
        "population": 61300,
        "latitude": 48.88459982794523,
        "longitude": 2.269653081893921
    },
    {
        "name": "Nanterre",
        "country": "France",
        "province": "Île-de-France",
        "population": 86719,
        "latitude": 48.891978859564844,
        "longitude": 2.20674991607666
    },
    {
        "name": "Nancy",
        "country": "France",
        "province": "Grand Est",
        "population": 105058,
        "latitude": 48.68438756783516,
        "longitude": 6.184959411621094
    },
    {
        "name": "Mulhouse",
        "country": "France",
        "province": "Grand Est",
        "population": 111430,
        "latitude": 47.752049,
        "longitude": 7.328655
    },
    {
        "name": "Saint-Maur-des-Fossés",
        "country": "France",
        "province": "Île-de-France",
        "population": 75402,
        "latitude": 48.793945,
        "longitude": 2.493233
    },
    {
        "name": "Saint-Etienne",
        "country": "France",
        "province": "Auvergne-Rhône-Alpes",
        "population": 176280,
        "latitude": 45.43389,
        "longitude": 4.39
    },
    {
        "name": "Saint-Denis",
        "country": "France",
        "province": "Île-de-France",
        "population": 96128,
        "latitude": 48.935641,
        "longitude": 2.353871
    },
    {
        "name": "Rueil-Malmaison",
        "country": "France",
        "province": "Île-de-France",
        "population": 76616,
        "latitude": 48.876503,
        "longitude": 2.189666
    },
    {
        "name": "Roubaix",
        "country": "France",
        "province": "Hauts-de-France",
        "population": 98828,
        "latitude": 50.694207,
        "longitude": 3.174556
    },
    {
        "name": "Vitry-sur-Seine",
        "country": "France",
        "province": "Île-de-France",
        "population": 81001,
        "latitude": 48.787159,
        "longitude": 2.403322
    },
    {
        "name": "Villeurbanne",
        "country": "France",
        "province": "Auvergne-Rhône-Alpes",
        "population": 131445,
        "latitude": 45.766009,
        "longitude": 4.879504
    },
    {
        "name": "Le Puy-en-Velay",
        "country": "France",
        "province": "Auvergne-Rhône-Alpes",
        "population": 22718,
        "latitude": 45.04366064443655,
        "longitude": 3.8852334022521973
    },
    {
        "name": "Le Plessis-Robinson",
        "country": "France",
        "province": "Île-de-France",
        "population": 22510,
        "latitude": 48.788887,
        "longitude": 2.270778
    },
    {
        "name": "Le Petit-Quevilly",
        "country": "France",
        "province": "Normandy",
        "population": 22691,
        "latitude": 49.413384,
        "longitude": 1.06155
    },
    {
        "name": "Le Perreux-sur-Marne",
        "country": "France",
        "province": "Île-de-France",
        "population": 32015,
        "latitude": 48.85,
        "longitude": 2.5
    },
    {
        "name": "Lens",
        "country": "France",
        "province": "Hauts-de-France",
        "population": 38265,
        "latitude": 50.4330171113566,
        "longitude": 2.827906608581543
    },
    {
        "name": "Le Kremlin-Bicêtre",
        "country": "France",
        "province": "Île-de-France",
        "population": 27867,
        "latitude": 48.814713,
        "longitude": 2.360728
    },
    {
        "name": "Le Grand-Quevilly",
        "country": "France",
        "province": "Normandy",
        "population": 26522,
        "latitude": 49.400761,
        "longitude": 1.045824
    },
    {
        "name": "Le Creusot",
        "country": "France",
        "province": "Bourgogne-Franche-Comté",
        "population": 25590,
        "latitude": 46.807138,
        "longitude": 4.41632
    },
    {
        "name": "Le Chesnay",
        "country": "France",
        "province": "Île-de-France",
        "population": 29154,
        "latitude": 48.822203,
        "longitude": 2.122129
    },
    {
        "name": "Le Cannet",
        "country": "France",
        "province": "Provence-Alpes-Côte d'Azur",
        "population": 43353,
        "latitude": 43.576616,
        "longitude": 7.01912
    },
    {
        "name": "Balma",
        "country": "France",
        "province": "Occitanie",
        "population": 15553,
        "latitude": 43.611111,
        "longitude": 1.499444
    },
    {
        "name": "Bagnols-sur-Cèze",
        "country": "France",
        "province": "Occitanie",
        "population": 19640,
        "latitude": 44.162587,
        "longitude": 4.619736
    },
    {
        "name": "Bagnolet",
        "country": "France",
        "province": "Île-de-France",
        "population": 33504,
        "latitude": 48.8666667,
        "longitude": 2.4166667
    },
    {
        "name": "Bagneux",
        "country": "France",
        "province": "Île-de-France",
        "population": 38900,
        "latitude": 48.795645,
        "longitude": 2.307962
    },
    {
        "name": "Auxerre",
        "country": "France",
        "province": "Bourgogne-Franche-Comté",
        "population": 41516,
        "latitude": 47.7996,
        "longitude": 3.57033
    },
    {
        "name": "Autun",
        "country": "France",
        "province": "Bourgogne-Franche-Comté",
        "population": 18283,
        "latitude": 46.951036,
        "longitude": 4.298688
    },
    {
        "name": "Aurillac",
        "country": "France",
        "province": "Auvergne-Rhône-Alpes",
        "population": 34724,
        "latitude": 44.925391,
        "longitude": 2.439828
    },
    {
        "name": "Auray",
        "country": "France",
        "province": "Brittany",
        "population": 12269,
        "latitude": 47.666923,
        "longitude": -2.984206
    },
    {
        "name": "Auch",
        "country": "France",
        "province": "Occitanie",
        "population": 24494,
        "latitude": 43.645614,
        "longitude": 0.588557
    },
    {
        "name": "Aubervilliers",
        "country": "France",
        "province": "Île-de-France",
        "population": 70914,
        "latitude": 48.9166667,
        "longitude": 2.3833333
    },
    {
        "name": "Aubenas",
        "country": "France",
        "province": "Auvergne-Rhône-Alpes",
        "population": 13134,
        "latitude": 44.619745,
        "longitude": 4.390326
    },
    {
        "name": "Aubagne",
        "country": "France",
        "province": "Provence-Alpes-Côte d'Azur",
        "population": 44844,
        "latitude": 43.292763006724925,
        "longitude": 5.570669174194336
    },
    {
        "name": "Athis-Mons",
        "country": "France",
        "province": "Île-de-France",
        "population": 31225,
        "latitude": 48.705224,
        "longitude": 2.391474
    },
    {
        "name": "Asnières-sur-Seine",
        "country": "France",
        "province": "Île-de-France",
        "population": 86742,
        "latitude": 48.9166667,
        "longitude": 2.2833333
    },
    {
        "name": "Arras",
        "country": "France",
        "province": "Hauts-de-France",
        "population": 47052,
        "latitude": 50.29301326870553,
        "longitude": 2.781858444213867
    },
    {
        "name": "Armentières",
        "country": "France",
        "province": "Hauts-de-France",
        "population": 26646,
        "latitude": 50.685679,
        "longitude": 2.882139
    },
    {
        "name": "Arles",
        "country": "France",
        "province": "Provence-Alpes-Côte d'Azur",
        "population": 53431,
        "latitude": 43.6768113296983,
        "longitude": 4.63030815124512
    },
    {
        "name": "Arcueil",
        "country": "France",
        "province": "Île-de-France",
        "population": 17308,
        "latitude": 48.799931,
        "longitude": 2.332555
    },
    {
        "name": "Antony",
        "country": "France",
        "province": "Île-de-France",
        "population": 59845,
        "latitude": 48.753291,
        "longitude": 2.296681
    },
    {
        "name": "Annonay",
        "country": "France",
        "province": "Auvergne-Rhône-Alpes",
        "population": 18423,
        "latitude": 45.239922,
        "longitude": 4.670699
    },
    {
        "name": "Lagny-sur-Marne",
        "country": "France",
        "province": "Île-de-France",
        "population": 20649,
        "latitude": 48.8666667,
        "longitude": 2.7166667
    },
    {
        "name": "La Garenne-Colombes",
        "country": "France",
        "province": "Île-de-France",
        "population": 26385,
        "latitude": 48.904718,
        "longitude": 2.2469
    },
    {
        "name": "La Courneuve",
        "country": "France",
        "province": "Île-de-France",
        "population": 37287,
        "latitude": 48.92805,
        "longitude": 2.396273
    },
    {
        "name": "La Ciotat",
        "country": "France",
        "province": "Provence-Alpes-Côte d'Azur",
        "population": 33113,
        "latitude": 43.17476283033681,
        "longitude": 5.604486465454102
    },
    {
        "name": "Lomme",
        "country": "France",
        "province": "Hauts-de-France",
        "population": 29892,
        "latitude": 50.643579,
        "longitude": 2.987148
    },
    {
        "name": "L'Isle-sur-la-Sorgue",
        "country": "France",
        "province": "Provence-Alpes-Côte d'Azur",
        "population": 16968,
        "latitude": 43.919712,
        "longitude": 5.051408
    },
    {
        "name": "Lisieux",
        "country": "France",
        "province": "Normandy",
        "population": 24473,
        "latitude": 49.146597713512456,
        "longitude": 0.22925376892089844
    },
    {
        "name": "Liévin",
        "country": "France",
        "province": "Hauts-de-France",
        "population": 34370,
        "latitude": 50.419797,
        "longitude": 2.78068
    },
    {
        "name": "Libourne",
        "country": "France",
        "province": "Nouvelle-Aquitaine",
        "population": 24240,
        "latitude": 44.914488,
        "longitude": -0.241862
    },
    {
        "name": "L'Haÿ-les-Roses",
        "country": "France",
        "province": "Île-de-France",
        "population": 29703,
        "latitude": 48.779354,
        "longitude": 2.337286
    },
    {
        "name": "Les Mureaux",
        "country": "France",
        "province": "Île-de-France",
        "population": 32134,
        "latitude": 48.991733,
        "longitude": 1.909718
    },
    {
        "name": "Le Blanc-Mesnil",
        "country": "France",
        "province": "Île-de-France",
        "population": 48077,
        "latitude": 48.938725,
        "longitude": 2.461383
    },
    {
        "name": "La Valette-du-Var",
        "country": "France",
        "province": "Provence-Alpes-Côte d'Azur",
        "population": 23134,
        "latitude": 43.13763,
        "longitude": 5.983174
    },
    {
        "name": "Laval",
        "country": "France",
        "province": "Pays de la Loire",
        "population": 50489,
        "latitude": 48.072475,
        "longitude": -0.770188
    },
    {
        "name": "La Seyne-sur-Mer",
        "country": "France",
        "province": "Provence-Alpes-Côte d'Azur",
        "population": 62330,
        "latitude": 43.103224,
        "longitude": 5.878163
    },
    {
        "name": "La Roche-sur-Yon",
        "country": "France",
        "province": "Pays de la Loire",
        "population": 59410,
        "latitude": 46.669743,
        "longitude": -1.427566
    },
    {
        "name": "Laon",
        "country": "France",
        "province": "Hauts-de-France",
        "population": 28688,
        "latitude": 49.563098,
        "longitude": 3.627137
    },
    {
        "name": "Lannion",
        "country": "France",
        "province": "Brittany",
        "population": 21473,
        "latitude": 48.732635,
        "longitude": -3.456574
    },
    {
        "name": "Lanester",
        "country": "France",
        "province": "Brittany",
        "population": 24352,
        "latitude": 47.763158,
        "longitude": -3.3393
    },
    {
        "name": "Landerneau",
        "country": "France",
        "province": "Brittany",
        "population": 16052,
        "latitude": 48.451498,
        "longitude": -4.251754
    },
    {
        "name": "Lambersart",
        "country": "France",
        "province": "Hauts-de-France",
        "population": 28613,
        "latitude": 50.65,
        "longitude": 3.0333333
    },
    {
        "name": "Annemasse",
        "country": "France",
        "province": "Auvergne-Rhône-Alpes",
        "population": 28275,
        "latitude": 46.194388567433904,
        "longitude": 6.23774528503418
    },
    {
        "name": "Annecy",
        "country": "France",
        "province": "Auvergne-Rhône-Alpes",
        "population": 49232,
        "latitude": 45.908779,
        "longitude": 6.125648
    },
    {
        "name": "Angoulême",
        "country": "France",
        "province": "Nouvelle-Aquitaine",
        "population": 49468,
        "latitude": 45.649971,
        "longitude": 0.153446
    },
    {
        "name": "Anglet",
        "country": "France",
        "province": "Nouvelle-Aquitaine",
        "population": 40658,
        "latitude": 43.489211,
        "longitude": -1.519212
    },
    {
        "name": "Amboise",
        "country": "France",
        "province": "Centre-Val de Loire",
        "population": 12685,
        "latitude": 47.412491,
        "longitude": 0.98266
    },
    {
        "name": "Ambérieu-en-Bugey",
        "country": "France",
        "province": "Auvergne-Rhône-Alpes",
        "population": 13260,
        "latitude": 45.959316,
        "longitude": 5.3516
    },
    {
        "name": "Alfortville",
        "country": "France",
        "province": "Île-de-France",
        "population": 37290,
        "latitude": 48.80575,
        "longitude": 2.420402
    },
    {
        "name": "Alès",
        "country": "France",
        "province": "Occitanie",
        "population": 42410,
        "latitude": 44.12489,
        "longitude": 4.08082
    },
    {
        "name": "Alençon",
        "country": "France",
        "province": "Normandy",
        "population": 30786,
        "latitude": 48.434758,
        "longitude": 0.093111
    },
    {
        "name": "Albi",
        "country": "France",
        "province": "Occitanie",
        "population": 52409,
        "latitude": 43.92979719388148,
        "longitude": 2.147998809814453
    },
    {
        "name": "Albertville",
        "country": "France",
        "province": "Auvergne-Rhône-Alpes",
        "population": 19113,
        "latitude": 45.6745226194511,
        "longitude": 6.39060974121094
    },
    {
        "name": "Aix-les-Bains",
        "country": "France",
        "province": "Auvergne-Rhône-Alpes",
        "population": 27651,
        "latitude": 45.69173,
        "longitude": 5.90863
    },
    {
        "name": "Aire-sur-la-Lys",
        "country": "France",
        "province": "Hauts-de-France",
        "population": 10397,
        "latitude": 50.638713,
        "longitude": 2.398759
    },
    {
        "name": "Agen",
        "country": "France",
        "province": "Nouvelle-Aquitaine",
        "population": 34367,
        "latitude": 44.201994,
        "longitude": 0.620555
    },
    {
        "name": "Agde",
        "country": "France",
        "province": "Occitanie",
        "population": 23001,
        "latitude": 43.310833,
        "longitude": 3.475833
    },
    {
        "name": "Abbeville",
        "country": "France",
        "province": "Hauts-de-France",
        "population": 26461,
        "latitude": 50.105214,
        "longitude": 1.835466
    },
    {
        "name": "Corbeil-Essonnes",
        "country": "France",
        "province": "Île-de-France",
        "population": 40527,
        "latitude": 48.606034,
        "longitude": 2.487571
    },
    {
        "name": "Conflans-Sainte-Honorine",
        "country": "France",
        "province": "Île-de-France",
        "population": 36358,
        "latitude": 49.001575,
        "longitude": 2.096945
    },
    {
        "name": "Concarneau",
        "country": "France",
        "province": "Brittany",
        "population": 21397,
        "latitude": 47.875359,
        "longitude": -3.918962
    },
    {
        "name": "Compiègne",
        "country": "France",
        "province": "Hauts-de-France",
        "population": 44243,
        "latitude": 49.4179392340275,
        "longitude": 2.8260612487793
    },
    {
        "name": "Combs-la-Ville",
        "country": "France",
        "province": "Île-de-France",
        "population": 22322,
        "latitude": 48.664967,
        "longitude": 2.569571
    },
    {
        "name": "Pontault-Combault",
        "country": "France",
        "province": "Île-de-France",
        "population": 34798,
        "latitude": 48.7981291193928,
        "longitude": 2.60676383972168
    },
    {
        "name": "Colomiers",
        "country": "France",
        "province": "Occitanie",
        "population": 31363,
        "latitude": 43.61058,
        "longitude": 1.33467
    },
    {
        "name": "Colmar",
        "country": "France",
        "province": "Grand Est",
        "population": 65405,
        "latitude": 48.080779,
        "longitude": 7.355837
    },
    {
        "name": "Cluses",
        "country": "France",
        "province": "Auvergne-Rhône-Alpes",
        "population": 19789,
        "latitude": 46.0625116565922,
        "longitude": 6.57497406005859
    },
    {
        "name": "Clichy",
        "country": "France",
        "province": "Île-de-France",
        "population": 57467,
        "latitude": 48.90018,
        "longitude": 2.309525
    },
    {
        "name": "Clamart",
        "country": "France",
        "province": "Île-de-France",
        "population": 51400,
        "latitude": 48.802987,
        "longitude": 2.266917
    },
    {
        "name": "Cholet",
        "country": "France",
        "province": "Pays de la Loire",
        "population": 53160,
        "latitude": 47.058925,
        "longitude": -0.879736
    },
    {
        "name": "Choisy-le-Roi",
        "country": "France",
        "province": "Île-de-France",
        "population": 35590,
        "latitude": 48.768463,
        "longitude": 2.418736
    },
    {
        "name": "Cherbourg-Octeville",
        "country": "France",
        "province": "Normandy",
        "population": 26655,
        "latitude": 49.6398441983912,
        "longitude": -1.61636352539062
    },
    {
        "name": "Chelles",
        "country": "France",
        "province": "Île-de-France",
        "population": 46947,
        "latitude": 48.881086292582744,
        "longitude": 2.592945098876953
    },
    {
        "name": "Chaumont",
        "country": "France",
        "province": "Grand Est",
        "population": 28981,
        "latitude": 48.111213657240576,
        "longitude": 5.14134407043457
    },
    {
        "name": "Chatou",
        "country": "France",
        "province": "Île-de-France",
        "population": 30091,
        "latitude": 48.889803,
        "longitude": 2.158627
    },
    {
        "name": "Châtillon",
        "country": "France",
        "province": "Île-de-France",
        "population": 32383,
        "latitude": 48.802396,
        "longitude": 2.293464
    },
    {
        "name": "Châtenay-Malabry",
        "country": "France",
        "province": "Île-de-France",
        "population": 32715,
        "latitude": 48.765068,
        "longitude": 2.266547
    },
    {
        "name": "Châtellerault",
        "country": "France",
        "province": "Nouvelle-Aquitaine",
        "population": 37210,
        "latitude": 46.817048,
        "longitude": 0.54518
    },
    {
        "name": "Châteauroux",
        "country": "France",
        "province": "Centre-Val de Loire",
        "population": 53301,
        "latitude": 46.812479,
        "longitude": 1.693623
    },
    {
        "name": "Cagnes-sur-Mer",
        "country": "France",
        "province": "Provence-Alpes-Côte d'Azur",
        "population": 46923,
        "latitude": 43.663525,
        "longitude": 7.147898
    },
    {
        "name": "Cachan",
        "country": "France",
        "province": "Île-de-France",
        "population": 26540,
        "latitude": 48.796324,
        "longitude": 2.336609
    },
    {
        "name": "Paris 19 Buttes-Chaumont",
        "country": "France",
        "province": "Île-de-France",
        "population": -1,
        "latitude": 48.8817,
        "longitude": 2.3822
    },
    {
        "name": "Brunoy",
        "country": "France",
        "province": "Île-de-France",
        "population": 24096,
        "latitude": 48.694204,
        "longitude": 2.492233
    },
    {
        "name": "Bron",
        "country": "France",
        "province": "Auvergne-Rhône-Alpes",
        "population": 37825,
        "latitude": 45.738651,
        "longitude": 4.913028
    },
    {
        "name": "Brive-la-Gaillarde",
        "country": "France",
        "province": "Nouvelle-Aquitaine",
        "population": 53466,
        "latitude": 45.158899,
        "longitude": 1.53326
    },
    {
        "name": "Brie-Comte-Robert",
        "country": "France",
        "province": "Île-de-France",
        "population": 15892,
        "latitude": 48.692468,
        "longitude": 2.610902
    },
    {
        "name": "Brétigny-sur-Orge",
        "country": "France",
        "province": "Île-de-France",
        "population": 24317,
        "latitude": 48.61134891293679,
        "longitude": 2.305927276611328
    },
    {
        "name": "Paris 02 Bourse",
        "country": "France",
        "province": "Île-de-France",
        "population": -1,
        "latitude": 48.8655,
        "longitude": 2.3426
    },
    {
        "name": "Bourges",
        "country": "France",
        "province": "Centre-Val de Loire",
        "population": 67987,
        "latitude": 47.0833333,
        "longitude": 2.4
    },
    {
        "name": "Bourg-en-Bresse",
        "country": "France",
        "province": "Auvergne-Rhône-Alpes",
        "population": 45340,
        "latitude": 46.20573531548462,
        "longitude": 5.225801467895508
    },
    {
        "name": "Bourg-de-Péage",
        "country": "France",
        "province": "Auvergne-Rhône-Alpes",
        "population": 10090,
        "latitude": 45.031505,
        "longitude": 5.049927
    },
    {
        "name": "Boulogne-sur-Mer",
        "country": "France",
        "province": "Hauts-de-France",
        "population": 47013,
        "latitude": 50.725709,
        "longitude": 1.613919
    },
    {
        "name": "Bonneuil-sur-Marne",
        "country": "France",
        "province": "Île-de-France",
        "population": 18723,
        "latitude": 48.769502,
        "longitude": 2.479295
    },
    {
        "name": "Bondy",
        "country": "France",
        "province": "Île-de-France",
        "population": 48268,
        "latitude": 48.901797,
        "longitude": 2.489312
    },
    {
        "name": "Boissy-Saint-Léger",
        "country": "France",
        "province": "Île-de-France",
        "population": 15877,
        "latitude": 48.751495,
        "longitude": 2.511632
    },
    {
        "name": "Bois-Guillaume",
        "country": "France",
        "province": "Normandy",
        "population": 13711,
        "latitude": 49.460197,
        "longitude": 1.12219
    },
    {
        "name": "Bois-Colombes",
        "country": "France",
        "province": "Île-de-France",
        "population": 24300,
        "latitude": 48.919363,
        "longitude": 2.274845
    },
    {
        "name": "Bobigny",
        "country": "France",
        "province": "Île-de-France",
        "population": 44962,
        "latitude": 48.909825,
        "longitude": 2.45012
    },
    {
        "name": "Blagnac",
        "country": "France",
        "province": "Occitanie",
        "population": 24263,
        "latitude": 43.636752,
        "longitude": 1.389711
    },
    {
        "name": "Bischwiller",
        "country": "France",
        "province": "Grand Est",
        "population": 12308,
        "latitude": 48.768255,
        "longitude": 7.854059
    },
    {
        "name": "Biarritz",
        "country": "France",
        "province": "Nouvelle-Aquitaine",
        "population": 33188,
        "latitude": 43.480552,
        "longitude": -1.556836
    },
    {
        "name": "Bezons",
        "country": "France",
        "province": "Île-de-France",
        "population": 27570,
        "latitude": 48.924257,
        "longitude": 2.212803
    },
    {
        "name": "Béziers",
        "country": "France",
        "province": "Occitanie",
        "population": 74081,
        "latitude": 43.34122,
        "longitude": 3.21402
    },
    {
        "name": "Béthune",
        "country": "France",
        "province": "Hauts-de-France",
        "population": 31568,
        "latitude": 50.529652,
        "longitude": 2.640029
    },
    {
        "name": "Bergerac",
        "country": "France",
        "province": "Nouvelle-Aquitaine",
        "population": 28317,
        "latitude": 44.851568,
        "longitude": 0.481713
    },
    {
        "name": "Belfort",
        "country": "France",
        "province": "Bourgogne-Franche-Comté",
        "population": 54562,
        "latitude": 47.642179,
        "longitude": 6.85385
    },
    {
        "name": "Bègles",
        "country": "France",
        "province": "Nouvelle-Aquitaine",
        "population": 23504,
        "latitude": 44.807587,
        "longitude": -0.55144
    },
    {
        "name": "Beauvais",
        "country": "France",
        "province": "Hauts-de-France",
        "population": 53393,
        "latitude": 49.4333333,
        "longitude": 2.0833333
    },
    {
        "name": "Beaune",
        "country": "France",
        "province": "Bourgogne-Franche-Comté",
        "population": 24162,
        "latitude": 47.024127,
        "longitude": 4.838865
    },
    {
        "name": "Bayonne",
        "country": "France",
        "province": "Nouvelle-Aquitaine",
        "population": 44396,
        "latitude": 43.493165,
        "longitude": -1.472996
    },
    {
        "name": "Bayeux",
        "country": "France",
        "province": "Normandy",
        "population": 15963,
        "latitude": 49.27732475579393,
        "longitude": -0.7038974761962891
    },
    {
        "name": "Paris 17 Batignolles-Monceau",
        "country": "France",
        "province": "Île-de-France",
        "population": -1,
        "latitude": 48.8835,
        "longitude": 2.3219
    },
    {
        "name": "Bastia",
        "country": "France",
        "province": "Corsica",
        "population": 41001,
        "latitude": 42.70219,
        "longitude": 9.45123
    },
    {
        "name": "Bar-le-Duc",
        "country": "France",
        "province": "Grand Est",
        "population": 18595,
        "latitude": 48.772749,
        "longitude": 5.161085
    },
    {
        "name": "Eaubonne",
        "country": "France",
        "province": "Île-de-France",
        "population": 24096,
        "latitude": 48.997124,
        "longitude": 2.282494
    },
    {
        "name": "Dunkirk",
        "country": "France",
        "province": "Hauts-de-France",
        "population": 71287,
        "latitude": 51.0344,
        "longitude": 2.37681
    },
    {
        "name": "Dreux",
        "country": "France",
        "province": "Centre-Val de Loire",
        "population": 31058,
        "latitude": 48.736492,
        "longitude": 1.365656
    },
    {
        "name": "Draveil",
        "country": "France",
        "province": "Île-de-France",
        "population": 29316,
        "latitude": 48.684657,
        "longitude": 2.414175
    },
    {
        "name": "Drancy",
        "country": "France",
        "province": "Île-de-France",
        "population": 62488,
        "latitude": 48.925785,
        "longitude": 2.445327
    },
    {
        "name": "Draguignan",
        "country": "France",
        "province": "Provence-Alpes-Côte d'Azur",
        "population": 38573,
        "latitude": 43.53692,
        "longitude": 6.464577
    },
    {
        "name": "Dourdan",
        "country": "France",
        "province": "Île-de-France",
        "population": 10261,
        "latitude": 48.527725,
        "longitude": 2.011133
    },
    {
        "name": "Douarnenez",
        "country": "France",
        "province": "Brittany",
        "population": 16590,
        "latitude": 48.09542287128321,
        "longitude": -4.329042434692383
    },
    {
        "name": "Douai",
        "country": "France",
        "province": "Hauts-de-France",
        "population": 46531,
        "latitude": 50.370691,
        "longitude": 3.079222
    },
    {
        "name": "Dole",
        "country": "France",
        "province": "Bourgogne-Franche-Comté",
        "population": 25878,
        "latitude": 47.09225,
        "longitude": 5.489665
    },
    {
        "name": "Dinan",
        "country": "France",
        "province": "Brittany",
        "population": 12237,
        "latitude": 48.455525,
        "longitude": -2.050493
    },
    {
        "name": "Digne-les-Bains",
        "country": "France",
        "province": "Provence-Alpes-Côte d'Azur",
        "population": 18986,
        "latitude": 44.09251683988012,
        "longitude": 6.23199462890625
    },
    {
        "name": "Dieppe",
        "country": "France",
        "province": "Normandy",
        "population": 35707,
        "latitude": 49.921595,
        "longitude": 1.077721
    },
    {
        "name": "Cusset",
        "country": "France",
        "province": "Auvergne-Rhône-Alpes",
        "population": 14562,
        "latitude": 46.134523,
        "longitude": 3.456385
    },
    {
        "name": "Crépy-en-Valois",
        "country": "France",
        "province": "Hauts-de-France",
        "population": 15694,
        "latitude": 49.233587,
        "longitude": 2.888071
    },
    {
        "name": "Creil",
        "country": "France",
        "province": "Hauts-de-France",
        "population": 31863,
        "latitude": 49.256722,
        "longitude": 2.484771
    },
    {
        "name": "Fos-sur-Mer",
        "country": "France",
        "province": "Provence-Alpes-Côte d'Azur",
        "population": 17317,
        "latitude": 43.437738,
        "longitude": 4.944567
    },
    {
        "name": "Forbach",
        "country": "France",
        "province": "Grand Est",
        "population": 21358,
        "latitude": 49.188478,
        "longitude": 6.892551
    },
    {
        "name": "Fontenay-sous-Bois",
        "country": "France",
        "province": "Île-de-France",
        "population": 52075,
        "latitude": 48.854419,
        "longitude": 2.482676
    },
    {
        "name": "Fontenay-aux-Roses",
        "country": "France",
        "province": "Île-de-France",
        "population": 24680,
        "latitude": 48.793253,
        "longitude": 2.29275
    },
    {
        "name": "Fontainebleau",
        "country": "France",
        "province": "Île-de-France",
        "population": 19717,
        "latitude": 48.409078,
        "longitude": 2.701773
    },
    {
        "name": "Fleury-les-Aubrais",
        "country": "France",
        "province": "Centre-Val de Loire",
        "population": 21085,
        "latitude": 47.933276,
        "longitude": 1.918111
    },
    {
        "name": "Fécamp",
        "country": "France",
        "province": "Normandy",
        "population": 22003,
        "latitude": 49.75787053494689,
        "longitude": 0.37456512451171875
    },
    {
        "name": "Évry",
        "country": "France",
        "province": "Île-de-France",
        "population": 51900,
        "latitude": 48.632804,
        "longitude": 2.440492
    },
    {
        "name": "Évreux",
        "country": "France",
        "province": "Normandy",
        "population": 57795,
        "latitude": 49.024136860252305,
        "longitude": 1.15081787109375
    },
    {
        "name": "La Baule-Escoublac",
        "country": "France",
        "province": "Pays de la Loire",
        "population": 17775,
        "latitude": 47.292212648928,
        "longitude": -2.36394882202148
    },
    {
        "name": "Ermont",
        "country": "France",
        "province": "Île-de-France",
        "population": 28117,
        "latitude": 48.990043,
        "longitude": 2.25804
    },
    {
        "name": "Épinay-sur-Seine",
        "country": "France",
        "province": "Île-de-France",
        "population": 46145,
        "latitude": 48.953505,
        "longitude": 2.315139
    },
    {
        "name": "Épinal",
        "country": "France",
        "province": "Grand Est",
        "population": 39518,
        "latitude": 48.18324,
        "longitude": 6.453043
    },
    {
        "name": "Épernay",
        "country": "France",
        "province": "Grand Est",
        "population": 27082,
        "latitude": 49.040002,
        "longitude": 3.959222
    },
    {
        "name": "Paris 08 Élysée",
        "country": "France",
        "province": "Île-de-France",
        "population": -1,
        "latitude": 48.8763,
        "longitude": 2.3183
    },
    {
        "name": "Élancourt",
        "country": "France",
        "province": "Île-de-France",
        "population": 30831,
        "latitude": 48.784205,
        "longitude": 1.955195
    },
    {
        "name": "Échirolles",
        "country": "France",
        "province": "Auvergne-Rhône-Alpes",
        "population": 33088,
        "latitude": 45.146035,
        "longitude": 5.714406
    },
    {
        "name": "Chartres",
        "country": "France",
        "province": "Centre-Val de Loire",
        "population": 43838,
        "latitude": 48.4468527715682,
        "longitude": 1.48924827575684
    },
    {
        "name": "Charleville-Mézières",
        "country": "France",
        "province": "Grand Est",
        "population": 52415,
        "latitude": 49.768501,
        "longitude": 4.724866
    },
    {
        "name": "Charenton-le-Pont",
        "country": "France",
        "province": "Île-de-France",
        "population": 30910,
        "latitude": 48.822086,
        "longitude": 2.412167
    },
    {
        "name": "Chantilly",
        "country": "France",
        "province": "Hauts-de-France",
        "population": 11085,
        "latitude": 49.1946056911334,
        "longitude": 2.47123718261719
    },
    {
        "name": "Chamonix",
        "country": "France",
        "province": "Auvergne-Rhône-Alpes",
        "population": 10614,
        "latitude": 45.9237518062211,
        "longitude": 6.86933040618896
    },
    {
        "name": "Chambray-lès-Tours",
        "country": "France",
        "province": "Centre-Val de Loire",
        "population": 10910,
        "latitude": 47.335367,
        "longitude": 0.702862
    },
    {
        "name": "Chambéry",
        "country": "France",
        "province": "Auvergne-Rhône-Alpes",
        "population": 61640,
        "latitude": 45.566281,
        "longitude": 5.920786
    },
    {
        "name": "Chamalières",
        "country": "France",
        "province": "Auvergne-Rhône-Alpes",
        "population": 20298,
        "latitude": 45.773643,
        "longitude": 3.06703
    },
    {
        "name": "Chalon-sur-Saône",
        "country": "France",
        "province": "Bourgogne-Franche-Comté",
        "population": 47251,
        "latitude": 46.781121,
        "longitude": 4.853717
    },
    {
        "name": "Châlons-en-Champagne",
        "country": "France",
        "province": "Grand Est",
        "population": 51257,
        "latitude": 48.953926,
        "longitude": 4.367238
    },
    {
        "name": "Challans",
        "country": "France",
        "province": "Pays de la Loire",
        "population": 18947,
        "latitude": 46.845802,
        "longitude": -1.879424
    },
    {
        "name": "Cestas",
        "country": "France",
        "province": "Nouvelle-Aquitaine",
        "population": 18036,
        "latitude": 44.744707,
        "longitude": -0.681936
    },
    {
        "name": "Cesson-Sévigné",
        "country": "France",
        "province": "Brittany",
        "population": 16222,
        "latitude": 48.1212,
        "longitude": -1.603
    },
    {
        "name": "Cenon",
        "country": "France",
        "province": "Nouvelle-Aquitaine",
        "population": 22393,
        "latitude": 44.856141,
        "longitude": -0.533549
    },
    {
        "name": "Cavaillon",
        "country": "France",
        "province": "Provence-Alpes-Côte d'Azur",
        "population": 26689,
        "latitude": 43.83124528357002,
        "longitude": 5.035858154296875
    },
    {
        "name": "Castres",
        "country": "France",
        "province": "Occitanie",
        "population": 47275,
        "latitude": 43.60527,
        "longitude": 2.240882
    },
    {
        "name": "Castelnaudary",
        "country": "France",
        "province": "Occitanie",
        "population": 12432,
        "latitude": 43.318141,
        "longitude": 1.953395
    },
    {
        "name": "Carquefou",
        "country": "France",
        "province": "Pays de la Loire",
        "population": 18056,
        "latitude": 47.297219,
        "longitude": -1.492098
    },
    {
        "name": "Carpentras",
        "country": "France",
        "province": "Provence-Alpes-Côte d'Azur",
        "population": 29709,
        "latitude": 44.055068,
        "longitude": 5.048133
    },
    {
        "name": "Carnac",
        "country": "France",
        "province": "Brittany",
        "population": 4777,
        "latitude": 47.584331,
        "longitude": -3.078724
    },
    {
        "name": "Carcassonne",
        "country": "France",
        "province": "Occitanie",
        "population": 49600,
        "latitude": 43.216494,
        "longitude": 2.34863
    },
    {
        "name": "Cambrai",
        "country": "France",
        "province": "Hauts-de-France",
        "population": 36492,
        "latitude": 50.175964,
        "longitude": 3.23472
    },
    {
        "name": "Caluire-et-Cuire",
        "country": "France",
        "province": "Auvergne-Rhône-Alpes",
        "population": 42763,
        "latitude": 45.794619,
        "longitude": 4.846398
    },
    {
        "name": "Calais",
        "country": "France",
        "province": "Hauts-de-France",
        "population": 74433,
        "latitude": 50.951938663980826,
        "longitude": 1.8563461303710938
    },
    {
        "name": "Cahors",
        "country": "France",
        "province": "Occitanie",
        "population": 23331,
        "latitude": 44.4490999039812,
        "longitude": 1.4366340637207031
    },
    {
        "name": "Grasse",
        "country": "France",
        "province": "Provence-Alpes-Côte d'Azur",
        "population": 47581,
        "latitude": 43.657831,
        "longitude": 6.925366
    },
    {
        "name": "Granville",
        "country": "France",
        "province": "Normandy",
        "population": 14289,
        "latitude": 48.837915995512304,
        "longitude": -1.597137451171875
    },
    {
        "name": "Gradignan",
        "country": "France",
        "province": "Nouvelle-Aquitaine",
        "population": 24385,
        "latitude": 44.773624,
        "longitude": -0.613948
    },
    {
        "name": "Goussainville",
        "country": "France",
        "province": "Île-de-France",
        "population": 30047,
        "latitude": 49.013672,
        "longitude": 2.465948
    },
    {
        "name": "Gonesse",
        "country": "France",
        "province": "Île-de-France",
        "population": 26758,
        "latitude": 48.986928,
        "longitude": 2.448922
    },
    {
        "name": "Paris 13 Gobelins",
        "country": "France",
        "province": "Île-de-France",
        "population": -1,
        "latitude": 48.8322,
        "longitude": 2.3561
    },
    {
        "name": "Gif-sur-Yvette",
        "country": "France",
        "province": "Île-de-France",
        "population": 23541,
        "latitude": 48.6833333,
        "longitude": 2.1333333
    },
    {
        "name": "Gérardmer",
        "country": "France",
        "province": "Grand Est",
        "population": 10084,
        "latitude": 48.073456,
        "longitude": 6.877869
    },
    {
        "name": "Gennevilliers",
        "country": "France",
        "province": "Île-de-France",
        "population": 42294,
        "latitude": 48.9333333,
        "longitude": 2.3
    },
    {
        "name": "Garges-lès-Gonesse",
        "country": "France",
        "province": "Île-de-France",
        "population": 39847,
        "latitude": 48.9679068446204,
        "longitude": 2.39780902862549
    },
    {
        "name": "Gap",
        "country": "France",
        "province": "Provence-Alpes-Côte d'Azur",
        "population": 42715,
        "latitude": 44.55858,
        "longitude": 6.078676
    },
    {
        "name": "Gaillac",
        "country": "France",
        "province": "Occitanie",
        "population": 12600,
        "latitude": 43.901603130856536,
        "longitude": 1.8968582153320312
    },
    {
        "name": "Frontignan",
        "country": "France",
        "province": "Occitanie",
        "population": 22251,
        "latitude": 43.447751,
        "longitude": 3.755237
    },
    {
        "name": "Fréjus",
        "country": "France",
        "province": "Provence-Alpes-Côte d'Azur",
        "population": 53098,
        "latitude": 43.433246,
        "longitude": 6.735548
    },
    {
        "name": "Franconville",
        "country": "France",
        "province": "Île-de-France",
        "population": 34284,
        "latitude": 48.9833333,
        "longitude": 2.2333333
    },
    {
        "name": "Villenave-d'Ornon",
        "country": "France",
        "province": "Nouvelle-Aquitaine",
        "population": 30347,
        "latitude": 44.779347,
        "longitude": -0.567071
    },
    {
        "name": "Villejuif",
        "country": "France",
        "province": "Île-de-France",
        "population": 48048,
        "latitude": 48.793899,
        "longitude": 2.359919
    },
    {
        "name": "Villefranche-sur-Saône",
        "country": "France",
        "province": "Auvergne-Rhône-Alpes",
        "population": 32994,
        "latitude": 45.989668,
        "longitude": 4.719609
    },
    {
        "name": "Vierzon",
        "country": "France",
        "province": "Centre-Val de Loire",
        "population": 29876,
        "latitude": 47.221861,
        "longitude": 2.0684
    },
    {
        "name": "Vienne",
        "country": "France",
        "province": "Auvergne-Rhône-Alpes",
        "population": 32293,
        "latitude": 45.525691,
        "longitude": 4.874841
    },
    {
        "name": "Vichy",
        "country": "France",
        "province": "Auvergne-Rhône-Alpes",
        "population": 27019,
        "latitude": 46.127091,
        "longitude": 3.425767
    },
    {
        "name": "Vernon",
        "country": "France",
        "province": "Normandy",
        "population": 26037,
        "latitude": 49.092918,
        "longitude": 1.463324
    },
    {
        "name": "Verdun",
        "country": "France",
        "province": "Grand Est",
        "population": 21798,
        "latitude": 49.15964,
        "longitude": 5.382897
    },
    {
        "name": "Vénissieux",
        "country": "France",
        "province": "Auvergne-Rhône-Alpes",
        "population": 57584,
        "latitude": 45.697057,
        "longitude": 4.88593
    },
    {
        "name": "Vélizy-Villacoublay",
        "country": "France",
        "province": "Île-de-France",
        "population": 21741,
        "latitude": 48.781981,
        "longitude": 2.193947
    },
    {
        "name": "Vaulx-en-Velin",
        "country": "France",
        "province": "Auvergne-Rhône-Alpes",
        "population": 37489,
        "latitude": 45.786934,
        "longitude": 4.9251
    },
    {
        "name": "Paris 15 Vaugirard",
        "country": "France",
        "province": "Île-de-France",
        "population": -1,
        "latitude": 48.8412,
        "longitude": 2.3003
    },
    {
        "name": "Vanves",
        "country": "France",
        "province": "Île-de-France",
        "population": 26068,
        "latitude": 48.823451,
        "longitude": 2.290253
    },
    {
        "name": "Vannes",
        "country": "France",
        "province": "Brittany",
        "population": 54020,
        "latitude": 47.65688,
        "longitude": -2.762047
    },
    {
        "name": "Vandœuvre-lès-Nancy",
        "country": "France",
        "province": "Grand Est",
        "population": 31785,
        "latitude": 48.661151,
        "longitude": 6.17114
    },
    {
        "name": "Vallauris",
        "country": "France",
        "province": "Provence-Alpes-Côte d'Azur",
        "population": 27286,
        "latitude": 43.578028105159085,
        "longitude": 7.054510116577148
    },
    {
        "name": "Valenciennes",
        "country": "France",
        "province": "Hauts-de-France",
        "population": 44821,
        "latitude": 50.359092,
        "longitude": 3.525056
    },
    {
        "name": "Valence",
        "country": "France",
        "province": "Auvergne-Rhône-Alpes",
        "population": 63864,
        "latitude": 44.925597,
        "longitude": 4.90956
    },
    {
        "name": "Tulle",
        "country": "France",
        "province": "Nouvelle-Aquitaine",
        "population": 16969,
        "latitude": 45.265819,
        "longitude": 1.772333
    },
    {
        "name": "Troyes",
        "country": "France",
        "province": "Grand Est",
        "population": 60785,
        "latitude": 48.300727,
        "longitude": 4.085244
    },
    {
        "name": "Pont-à-Mousson",
        "country": "France",
        "province": "Grand Est",
        "population": 15411,
        "latitude": 48.907015,
        "longitude": 6.056349
    },
    {
        "name": "Poissy",
        "country": "France",
        "province": "Île-de-France",
        "population": 36431,
        "latitude": 48.92902,
        "longitude": 2.049521
    },
    {
        "name": "Ploemeur",
        "country": "France",
        "province": "Brittany",
        "population": 20652,
        "latitude": 47.735122,
        "longitude": -3.429516
    },
    {
        "name": "Plaisir",
        "country": "France",
        "province": "Île-de-France",
        "population": 36121,
        "latitude": 48.823186,
        "longitude": 1.954099
    },
    {
        "name": "Pessac",
        "country": "France",
        "province": "Nouvelle-Aquitaine",
        "population": 57944,
        "latitude": 44.805646,
        "longitude": -0.632397
    },
    {
        "name": "Périgueux",
        "country": "France",
        "province": "Nouvelle-Aquitaine",
        "population": 34770,
        "latitude": 45.186912,
        "longitude": 0.714387
    },
    {
        "name": "Pantin",
        "country": "France",
        "province": "Île-de-France",
        "population": 52922,
        "latitude": 48.894369,
        "longitude": 2.409346
    },
    {
        "name": "Palaiseau",
        "country": "France",
        "province": "Île-de-France",
        "population": 31987,
        "latitude": 48.718284,
        "longitude": 2.2498
    },
    {
        "name": "Ozoir-la-Ferrière",
        "country": "France",
        "province": "Île-de-France",
        "population": 22530,
        "latitude": 48.766993,
        "longitude": 2.668712
    },
    {
        "name": "Oyonnax",
        "country": "France",
        "province": "Auvergne-Rhône-Alpes",
        "population": 25697,
        "latitude": 46.25917013377904,
        "longitude": 5.6572723388671875
    },
    {
        "name": "Oullins",
        "country": "France",
        "province": "Auvergne-Rhône-Alpes",
        "population": 25592,
        "latitude": 45.714039,
        "longitude": 4.80755
    },
    {
        "name": "Rochefort",
        "country": "France",
        "province": "Nouvelle-Aquitaine",
        "population": 29427,
        "latitude": 45.943044,
        "longitude": -0.967744
    },
    {
        "name": "Roanne",
        "country": "France",
        "province": "Auvergne-Rhône-Alpes",
        "population": 39840,
        "latitude": 46.036244,
        "longitude": 4.068019
    },
    {
        "name": "Rive-de-Gier",
        "country": "France",
        "province": "Auvergne-Rhône-Alpes",
        "population": 14852,
        "latitude": 45.52754674947172,
        "longitude": 4.615888595581055
    },
    {
        "name": "Ris-Orangis",
        "country": "France",
        "province": "Île-de-France",
        "population": 25082,
        "latitude": 48.651104,
        "longitude": 2.414057
    },
    {
        "name": "Rillieux-la-Pape",
        "country": "France",
        "province": "Auvergne-Rhône-Alpes",
        "population": 28076,
        "latitude": 45.8166667,
        "longitude": 4.9
    },
    {
        "name": "Rezé",
        "country": "France",
        "province": "Pays de la Loire",
        "population": 39248,
        "latitude": 47.190585,
        "longitude": -1.568845
    },
    {
        "name": "Paris 12 Reuilly",
        "country": "France",
        "province": "Île-de-France",
        "population": -1,
        "latitude": 48.8412,
        "longitude": 2.3876
    },
    {
        "name": "Rambouillet",
        "country": "France",
        "province": "Île-de-France",
        "population": 26674,
        "latitude": 48.643739,
        "longitude": 1.829922
    },
    {
        "name": "Quimperlé",
        "country": "France",
        "province": "Brittany",
        "population": 12312,
        "latitude": 47.872145,
        "longitude": -3.549941
    },
    {
        "name": "Quimper",
        "country": "France",
        "province": "Brittany",
        "population": 63849,
        "latitude": 47.99597,
        "longitude": -4.097955
    },
    {
        "name": "Puteaux",
        "country": "France",
        "province": "Île-de-France",
        "population": 40646,
        "latitude": 48.8834145664968,
        "longitude": 2.23893642425537
    },
    {
        "name": "Mont-Saint-Aignan",
        "country": "France",
        "province": "Normandy",
        "population": 23078,
        "latitude": 49.463073,
        "longitude": 1.093637
    },
    {
        "name": "Montrouge",
        "country": "France",
        "province": "Île-de-France",
        "population": 38708,
        "latitude": 48.816202,
        "longitude": 2.313935
    },
    {
        "name": "Montluçon",
        "country": "France",
        "province": "Auvergne-Rhône-Alpes",
        "population": 44960,
        "latitude": 46.340149,
        "longitude": 2.60254
    },
    {
        "name": "Montigny-lès-Metz",
        "country": "France",
        "province": "Grand Est",
        "population": 26369,
        "latitude": 49.095595,
        "longitude": 6.152706
    },
    {
        "name": "Montélimar",
        "country": "France",
        "province": "Auvergne-Rhône-Alpes",
        "population": 35637,
        "latitude": 44.554676,
        "longitude": 4.754695
    },
    {
        "name": "Mont-de-Marsan",
        "country": "France",
        "province": "Nouvelle-Aquitaine",
        "population": 36205,
        "latitude": 43.8902227965629,
        "longitude": -0.49713134765625
    },
    {
        "name": "Montceau-les-Mines",
        "country": "France",
        "province": "Bourgogne-Franche-Comté",
        "population": 20221,
        "latitude": 46.6666667,
        "longitude": 4.3666667
    },
    {
        "name": "Montbéliard",
        "country": "France",
        "province": "Bourgogne-Franche-Comté",
        "population": 28865,
        "latitude": 47.509568,
        "longitude": 6.798228
    },
    {
        "name": "Montauban",
        "country": "France",
        "province": "Occitanie",
        "population": 52434,
        "latitude": 44.017594,
        "longitude": 1.3542
    },
    {
        "name": "Miramas",
        "country": "France",
        "province": "Provence-Alpes-Côte d'Azur",
        "population": 24173,
        "latitude": 43.585077,
        "longitude": 5.002683
    },
    {
        "name": "Meyzieu",
        "country": "France",
        "province": "Auvergne-Rhône-Alpes",
        "population": 28929,
        "latitude": 45.766374,
        "longitude": 5.002768
    },
    {
        "name": "Meudon",
        "country": "France",
        "province": "Île-de-France",
        "population": 44652,
        "latitude": 48.813807,
        "longitude": 2.235
    },
    {
        "name": "Mérignac",
        "country": "France",
        "province": "Nouvelle-Aquitaine",
        "population": 69791,
        "latitude": 44.842472,
        "longitude": -0.645122
    },
    {
        "name": "Menton",
        "country": "France",
        "province": "Provence-Alpes-Côte d'Azur",
        "population": 29649,
        "latitude": 43.7764857599282,
        "longitude": 7.50434875488281
    },
    {
        "name": "Melun",
        "country": "France",
        "province": "Île-de-France",
        "population": 38953,
        "latitude": 48.545699,
        "longitude": 2.653562
    },
    {
        "name": "Meaux",
        "country": "France",
        "province": "Île-de-France",
        "population": 53811,
        "latitude": 48.960144541401746,
        "longitude": 2.878847122192383
    },
    {
        "name": "Mauguio",
        "country": "France",
        "province": "Occitanie",
        "population": 18320,
        "latitude": 43.616924,
        "longitude": 4.007392
    },
    {
        "name": "Maubeuge",
        "country": "France",
        "province": "Hauts-de-France",
        "population": 33684,
        "latitude": 50.2787543098535,
        "longitude": 3.9726734161377
    },
    {
        "name": "Massy",
        "country": "France",
        "province": "Île-de-France",
        "population": 38768,
        "latitude": 48.726924,
        "longitude": 2.283007
    },
    {
        "name": "Martigues",
        "country": "France",
        "province": "Provence-Alpes-Côte d'Azur",
        "population": 45749,
        "latitude": 43.40735466065634,
        "longitude": 5.055255889892578
    },
    {
        "name": "Marly-le-Roi",
        "country": "France",
        "province": "Île-de-France",
        "population": 17404,
        "latitude": 48.8666667,
        "longitude": 2.0833333
    },
    {
        "name": "Marignane",
        "country": "France",
        "province": "Provence-Alpes-Côte d'Azur",
        "population": 35873,
        "latitude": 43.417266,
        "longitude": 5.214619
    },
    {
        "name": "Marcq-en-Barœul",
        "country": "France",
        "province": "Hauts-de-France",
        "population": 38629,
        "latitude": 50.6666667,
        "longitude": 3.0833333
    },
    {
        "name": "Mantes-la-Jolie",
        "country": "France",
        "province": "Île-de-France",
        "population": 44263,
        "latitude": 48.990482,
        "longitude": 1.7167
    },
    {
        "name": "Manosque",
        "country": "France",
        "province": "Provence-Alpes-Côte d'Azur",
        "population": 21351,
        "latitude": 43.8288304806343,
        "longitude": 5.7868766784668
    },
    {
        "name": "Malakoff",
        "country": "France",
        "province": "Île-de-France",
        "population": 29420,
        "latitude": 48.819988,
        "longitude": 2.299977
    },
    {
        "name": "Maisons-Laffitte",
        "country": "France",
        "province": "Île-de-France",
        "population": 22772,
        "latitude": 48.952636,
        "longitude": 2.145207
    },
    {
        "name": "Maisons-Alfort",
        "country": "France",
        "province": "Île-de-France",
        "population": 53964,
        "latitude": 48.811707,
        "longitude": 2.43945
    },
    {
        "name": "Mâcon",
        "country": "France",
        "province": "Bourgogne-Franche-Comté",
        "population": 35484,
        "latitude": 46.314074,
        "longitude": 4.828233
    },
    {
        "name": "Lunel",
        "country": "France",
        "province": "Occitanie",
        "population": 26588,
        "latitude": 43.677778,
        "longitude": 4.136111
    },
    {
        "name": "Lourdes",
        "country": "France",
        "province": "Occitanie",
        "population": 15786,
        "latitude": 43.094609,
        "longitude": -0.046111
    },
    {
        "name": "Lorient",
        "country": "France",
        "province": "Brittany",
        "population": 58112,
        "latitude": 47.748165,
        "longitude": -3.37177
    },
    {
        "name": "Lons-le-Saunier",
        "country": "France",
        "province": "Bourgogne-Franche-Comté",
        "population": 20678,
        "latitude": 46.675351,
        "longitude": 5.55575
    },
    {
        "name": "Longwy",
        "country": "France",
        "province": "Grand Est",
        "population": 14695,
        "latitude": 49.521697,
        "longitude": 5.761919
    },
    {
        "name": "Longjumeau",
        "country": "France",
        "province": "Île-de-France",
        "population": 20771,
        "latitude": 48.69306885147341,
        "longitude": 2.294311829329082
    },
    {
        "name": "Trappes",
        "country": "France",
        "province": "Île-de-France",
        "population": 28367,
        "latitude": 48.774129,
        "longitude": 2.017811
    },
    {
        "name": "Toul",
        "country": "France",
        "province": "Grand Est",
        "population": 17680,
        "latitude": 48.680752,
        "longitude": 5.891151
    },
    {
        "name": "Thouars",
        "country": "France",
        "province": "Nouvelle-Aquitaine",
        "population": 11517,
        "latitude": 46.981498,
        "longitude": -0.211754
    },
    {
        "name": "Thonon-les-Bains",
        "country": "France",
        "province": "Auvergne-Rhône-Alpes",
        "population": 31684,
        "latitude": 46.370488,
        "longitude": 6.479855
    },
    {
        "name": "Thionville",
        "country": "France",
        "province": "Grand Est",
        "population": 44311,
        "latitude": 49.359936,
        "longitude": 6.160439
    },
    {
        "name": "Thiais",
        "country": "France",
        "province": "Île-de-France",
        "population": 29724,
        "latitude": 48.764965,
        "longitude": 2.3961
    },
    {
        "name": "Taverny",
        "country": "France",
        "province": "Île-de-France",
        "population": 27271,
        "latitude": 49.025425,
        "longitude": 2.216907
    },
    {
        "name": "Tassin-la-Demi-Lune",
        "country": "France",
        "province": "Auvergne-Rhône-Alpes",
        "population": 16920,
        "latitude": 45.75499,
        "longitude": 4.78812
    },
    {
        "name": "Tarbes",
        "country": "France",
        "province": "Occitanie",
        "population": 52106,
        "latitude": 43.234066,
        "longitude": 0.071387
    },
    {
        "name": "Tarascon",
        "country": "France",
        "province": "Provence-Alpes-Côte d'Azur",
        "population": 14735,
        "latitude": 43.805833,
        "longitude": 4.660278
    },
    {
        "name": "Talence",
        "country": "France",
        "province": "Nouvelle-Aquitaine",
        "population": 42579,
        "latitude": 44.808489,
        "longitude": -0.589151
    },
    {
        "name": "Suresnes",
        "country": "France",
        "province": "Île-de-France",
        "population": 44697,
        "latitude": 48.87143,
        "longitude": 2.229289
    },
    {
        "name": "Sucy-en-Brie",
        "country": "France",
        "province": "Île-de-France",
        "population": 25014,
        "latitude": 48.768716,
        "longitude": 2.534738
    },
    {
        "name": "Sotteville-lès-Rouen",
        "country": "France",
        "province": "Normandy",
        "population": 30619,
        "latitude": 49.409718,
        "longitude": 1.090055
    },
    {
        "name": "Soissons",
        "country": "France",
        "province": "Hauts-de-France",
        "population": 31100,
        "latitude": 49.381667,
        "longitude": 3.323611
    },
    {
        "name": "Six-Fours-les-Plages",
        "country": "France",
        "province": "Provence-Alpes-Côte d'Azur",
        "population": 34779,
        "latitude": 43.091739,
        "longitude": 5.824651
    },
    {
        "name": "Joué-lès-Tours",
        "country": "France",
        "province": "Centre-Val de Loire",
        "population": 37466,
        "latitude": 47.34907,
        "longitude": 0.66513
    },
    {
        "name": "Ivry-sur-Seine",
        "country": "France",
        "province": "Île-de-France",
        "population": 57897,
        "latitude": 48.81568,
        "longitude": 2.384868
    },
    {
        "name": "Istres",
        "country": "France",
        "province": "Provence-Alpes-Côte d'Azur",
        "population": 44373,
        "latitude": 43.51345,
        "longitude": 4.987465
    },
    {
        "name": "Illzach",
        "country": "France",
        "province": "Grand Est",
        "population": 15457,
        "latitude": 47.7742,
        "longitude": 7.351751
    },
    {
        "name": "Illkirch-Graffenstaden",
        "country": "France",
        "province": "Grand Est",
        "population": 27261,
        "latitude": 48.5289402738374,
        "longitude": 7.71523475646973
    },
    {
        "name": "Hyères",
        "country": "France",
        "province": "Provence-Alpes-Côte d'Azur",
        "population": 50487,
        "latitude": 43.12038,
        "longitude": 6.12857
    },
    {
        "name": "Houilles",
        "country": "France",
        "province": "Île-de-France",
        "population": 31121,
        "latitude": 48.921609,
        "longitude": 2.192631
    },
    {
        "name": "Hérouville-Saint-Clair",
        "country": "France",
        "province": "Normandy",
        "population": 24258,
        "latitude": 49.210875,
        "longitude": -0.30653
    },
    {
        "name": "Herblay",
        "country": "France",
        "province": "Île-de-France",
        "population": 25153,
        "latitude": 48.989935,
        "longitude": 2.169902
    },
    {
        "name": "Hennebont",
        "country": "France",
        "province": "Brittany",
        "population": 14288,
        "latitude": 47.80479,
        "longitude": -3.278119
    },
    {
        "name": "Hénin-Beaumont",
        "country": "France",
        "province": "Hauts-de-France",
        "population": 25371,
        "latitude": 50.413587,
        "longitude": 2.964852
    },
    {
        "name": "Hendaye",
        "country": "France",
        "province": "Nouvelle-Aquitaine",
        "population": 14415,
        "latitude": 43.358085,
        "longitude": -1.774401
    },
    {
        "name": "Hazebrouck",
        "country": "France",
        "province": "Hauts-de-France",
        "population": 23307,
        "latitude": 50.723741,
        "longitude": 2.537292
    },
    {
        "name": "Hayange",
        "country": "France",
        "province": "Grand Est",
        "population": 15501,
        "latitude": 49.328815,
        "longitude": 6.062775
    },
    {
        "name": "Haguenau",
        "country": "France",
        "province": "Grand Est",
        "population": 38721,
        "latitude": 48.815568022624426,
        "longitude": 7.790508270263672
    },
    {
        "name": "Guyancourt",
        "country": "France",
        "province": "Île-de-France",
        "population": 31989,
        "latitude": 48.773336,
        "longitude": 2.073927
    },
    {
        "name": "Orvault",
        "country": "France",
        "province": "Pays de la Loire",
        "population": 25338,
        "latitude": 47.271172,
        "longitude": -1.623606
    },
    {
        "name": "Orthez",
        "country": "France",
        "province": "Nouvelle-Aquitaine",
        "population": 11857,
        "latitude": 43.48834,
        "longitude": -0.772664
    },
    {
        "name": "Orsay",
        "country": "France",
        "province": "Île-de-France",
        "population": 17817,
        "latitude": 48.695722,
        "longitude": 2.187268
    },
    {
        "name": "Orly",
        "country": "France",
        "province": "Île-de-France",
        "population": 20528,
        "latitude": 48.747921,
        "longitude": 2.392525
    },
    {
        "name": "Orange",
        "country": "France",
        "province": "Provence-Alpes-Côte d'Azur",
        "population": 30530,
        "latitude": 44.13806,
        "longitude": 4.810251
    },
    {
        "name": "Paris 09 Opéra",
        "country": "France",
        "province": "Île-de-France",
        "population": -1,
        "latitude": 48.8718,
        "longitude": 2.3399
    },
    {
        "name": "Obernai",
        "country": "France",
        "province": "Grand Est",
        "population": 12138,
        "latitude": 48.46313292482396,
        "longitude": 7.4810028076171875
    },
    {
        "name": "Noyon",
        "country": "France",
        "province": "Hauts-de-France",
        "population": 15138,
        "latitude": 49.5833333,
        "longitude": 3
    },
    {
        "name": "Noisy-le-Sec",
        "country": "France",
        "province": "Île-de-France",
        "population": 38955,
        "latitude": 48.891481,
        "longitude": 2.46451
    },
    {
        "name": "Noisy-le-Grand",
        "country": "France",
        "province": "Île-de-France",
        "population": 62420,
        "latitude": 48.849792,
        "longitude": 2.562658
    },
    {
        "name": "Nogent-sur-Marne",
        "country": "France",
        "province": "Île-de-France",
        "population": 31236,
        "latitude": 48.836689,
        "longitude": 2.482545
    },
    {
        "name": "Nevers",
        "country": "France",
        "province": "Bourgogne-Franche-Comté",
        "population": 43988,
        "latitude": 46.989562269803145,
        "longitude": 3.158998489379883
    },
    {
        "name": "Neuilly-sur-Marne",
        "country": "France",
        "province": "Île-de-France",
        "population": 34465,
        "latitude": 48.853733,
        "longitude": 2.549027
    },
    {
        "name": "Narbonne",
        "country": "France",
        "province": "Occitanie",
        "population": 50776,
        "latitude": 43.18396,
        "longitude": 3.00141
    },
    {
        "name": "Mougins",
        "country": "France",
        "province": "Provence-Alpes-Côte d'Azur",
        "population": 18973,
        "latitude": 43.600682,
        "longitude": 6.995232
    },
    {
        "name": "Villeneuve-d'Ascq",
        "country": "France",
        "province": "Hauts-de-France",
        "population": 62400,
        "latitude": 50.6166869652448,
        "longitude": 3.1666374206543
    },
    {
        "name": "Saint-Ouen",
        "country": "France",
        "province": "Île-de-France",
        "population": 39353,
        "latitude": 48.90654,
        "longitude": 2.33339
    },
    {
        "name": "Saint-Nazaire",
        "country": "France",
        "province": "Pays de la Loire",
        "population": 67054,
        "latitude": 47.275055,
        "longitude": -2.217897
    },
    {
        "name": "Saint-Médard-en-Jalles",
        "country": "France",
        "province": "Nouvelle-Aquitaine",
        "population": 29742,
        "latitude": 44.895497,
        "longitude": -0.717786
    },
    {
        "name": "Saint-Martin-d'Hères",
        "country": "France",
        "province": "Auvergne-Rhône-Alpes",
        "population": 35528,
        "latitude": 45.178696,
        "longitude": 5.762814
    },
    {
        "name": "Saint-Mandé",
        "country": "France",
        "province": "Île-de-France",
        "population": 21261,
        "latitude": 48.838642,
        "longitude": 2.415791
    },
    {
        "name": "St-Malo",
        "country": "France",
        "province": "Brittany",
        "population": 50676,
        "latitude": 48.647379,
        "longitude": -2.008769
    },
    {
        "name": "Saint-Lô",
        "country": "France",
        "province": "Normandy",
        "population": 21722,
        "latitude": 49.11624254855665,
        "longitude": -1.0903072357177734
    },
    {
        "name": "Saint-Laurent-du-Var",
        "country": "France",
        "province": "Provence-Alpes-Côte d'Azur",
        "population": 29516,
        "latitude": 43.673227,
        "longitude": 7.19
    },
    {
        "name": "Saint-Jean-de-Luz",
        "country": "France",
        "province": "Nouvelle-Aquitaine",
        "population": 14514,
        "latitude": 43.38871,
        "longitude": -1.66267
    },
    {
        "name": "Saint-Herblain",
        "country": "France",
        "province": "Pays de la Loire",
        "population": 46898,
        "latitude": 47.211536,
        "longitude": -1.651004
    },
    {
        "name": "Saint-Germain-en-Laye",
        "country": "France",
        "province": "Île-de-France",
        "population": 41142,
        "latitude": 48.896428,
        "longitude": 2.090398
    },
    {
        "name": "Saint-Étienne-du-Rouvray",
        "country": "France",
        "province": "Normandy",
        "population": 28953,
        "latitude": 49.377941,
        "longitude": 1.104673
    },
    {
        "name": "Saintes",
        "country": "France",
        "province": "Nouvelle-Aquitaine",
        "population": 29512,
        "latitude": 45.747421,
        "longitude": -0.63489
    },
    {
        "name": "Sainte-Geneviève-des-Bois",
        "country": "France",
        "province": "Île-de-France",
        "population": 33689,
        "latitude": 48.646824,
        "longitude": 2.319653
    },
    {
        "name": "Saint-Dizier",
        "country": "France",
        "province": "Grand Est",
        "population": 31918,
        "latitude": 48.637734,
        "longitude": 4.948915
    },
    {
        "name": "Saint-Dié",
        "country": "France",
        "province": "Grand Est",
        "population": 24628,
        "latitude": 48.284292,
        "longitude": 6.949213
    },
    {
        "name": "Saint-Cloud",
        "country": "France",
        "province": "Île-de-France",
        "population": 28839,
        "latitude": 48.845985,
        "longitude": 2.202889
    },
    {
        "name": "Saint-Chamond",
        "country": "France",
        "province": "Auvergne-Rhône-Alpes",
        "population": 38014,
        "latitude": 45.4759,
        "longitude": 4.51294
    },
    {
        "name": "Saint-Brieuc",
        "country": "France",
        "province": "Brittany",
        "population": 52774,
        "latitude": 48.51513,
        "longitude": -2.76838
    },
    {
        "name": "Saint-Avold",
        "country": "France",
        "province": "Grand Est",
        "population": 18281,
        "latitude": 49.104651,
        "longitude": 6.704025
    },
    {
        "name": "Rungis",
        "country": "France",
        "province": "Île-de-France",
        "population": 5583,
        "latitude": 48.746069,
        "longitude": 2.352745
    },
    {
        "name": "Rumilly",
        "country": "France",
        "province": "Auvergne-Rhône-Alpes",
        "population": 13077,
        "latitude": 45.861165,
        "longitude": 5.945134
    },
    {
        "name": "Royan",
        "country": "France",
        "province": "Nouvelle-Aquitaine",
        "population": 19017,
        "latitude": 45.628108,
        "longitude": -1.031529
    },
    {
        "name": "Rosny-sous-Bois",
        "country": "France",
        "province": "Île-de-France",
        "population": 41627,
        "latitude": 48.870172,
        "longitude": 2.499104
    },
    {
        "name": "Romans-sur-Isère",
        "country": "France",
        "province": "Auvergne-Rhône-Alpes",
        "population": 35002,
        "latitude": 45.049598,
        "longitude": 5.066025
    },
    {
        "name": "Rodez",
        "country": "France",
        "province": "Occitanie",
        "population": 28337,
        "latitude": 44.35257784576407,
        "longitude": 2.573375701904297
    },
    {
        "name": "Yerres",
        "country": "France",
        "province": "Île-de-France",
        "population": 28897,
        "latitude": 48.717853,
        "longitude": 2.493384
    },
    {
        "name": "Wattrelos",
        "country": "France",
        "province": "Hauts-de-France",
        "population": 42826,
        "latitude": 50.70118,
        "longitude": 3.218116
    },
    {
        "name": "Voiron",
        "country": "France",
        "province": "Auvergne-Rhône-Alpes",
        "population": 22114,
        "latitude": 45.364707,
        "longitude": 5.585601
    },
    {
        "name": "Vitrolles",
        "country": "France",
        "province": "Provence-Alpes-Côte d'Azur",
        "population": 38591,
        "latitude": 43.46,
        "longitude": 5.248611
    },
    {
        "name": "Vitré",
        "country": "France",
        "province": "Brittany",
        "population": 17266,
        "latitude": 48.122786,
        "longitude": -1.209827
    },
    {
        "name": "Viry-Châtillon",
        "country": "France",
        "province": "Île-de-France",
        "population": 31131,
        "latitude": 48.672115,
        "longitude": 2.393179
    },
    {
        "name": "Vincennes",
        "country": "France",
        "province": "Île-de-France",
        "population": 45923,
        "latitude": 48.848603,
        "longitude": 2.437692
    },
    {
        "name": "Villiers-sur-Marne",
        "country": "France",
        "province": "Île-de-France",
        "population": 30252,
        "latitude": 48.830999,
        "longitude": 2.548441
    },
    {
        "name": "Villeneuve-sur-Lot",
        "country": "France",
        "province": "Nouvelle-Aquitaine",
        "population": 25869,
        "latitude": 44.4085440631576,
        "longitude": 0.7041549682617188
    },
    {
        "name": "Villeneuve-Saint-Georges",
        "country": "France",
        "province": "Île-de-France",
        "population": 30881,
        "latitude": 48.732194,
        "longitude": 2.44925
    },
    {
        "name": "Villeneuve-la-Garenne",
        "country": "France",
        "province": "Île-de-France",
        "population": 22036,
        "latitude": 48.939354,
        "longitude": 2.31478
    },
    {
        "name": "Sèvres",
        "country": "France",
        "province": "Île-de-France",
        "population": 23724,
        "latitude": 48.822916,
        "longitude": 2.217569
    },
    {
        "name": "Sète",
        "country": "France",
        "province": "Occitanie",
        "population": 40736,
        "latitude": 43.40280258676156,
        "longitude": 3.692779541015625
    },
    {
        "name": "Sens",
        "country": "France",
        "province": "Bourgogne-Franche-Comté",
        "population": 28700,
        "latitude": 48.197385,
        "longitude": 3.28328
    },
    {
        "name": "Schiltigheim",
        "country": "France",
        "province": "Grand Est",
        "population": 32289,
        "latitude": 48.60748989475176,
        "longitude": 7.749309539794922
    },
    {
        "name": "Savigny-sur-Orge",
        "country": "France",
        "province": "Île-de-France",
        "population": 39698,
        "latitude": 48.676775,
        "longitude": 2.348351
    },
    {
        "name": "Savigny-le-Temple",
        "country": "France",
        "province": "Île-de-France",
        "population": 25925,
        "latitude": 48.574087,
        "longitude": 2.582871
    },
    {
        "name": "Saverne",
        "country": "France",
        "province": "Grand Est",
        "population": 12439,
        "latitude": 48.74164427828175,
        "longitude": 7.362213134765625
    },
    {
        "name": "Saumur",
        "country": "France",
        "province": "Pays de la Loire",
        "population": 33229,
        "latitude": 47.259312,
        "longitude": -0.078077
    },
    {
        "name": "Sartrouville",
        "country": "France",
        "province": "Île-de-France",
        "population": 53980,
        "latitude": 48.948203,
        "longitude": 2.19169
    },
    {
        "name": "Sarreguemines",
        "country": "France",
        "province": "Grand Est",
        "population": 24446,
        "latitude": 49.10995016182665,
        "longitude": 7.067470550537109
    },
    {
        "name": "Sarlat-la-Canéda",
        "country": "France",
        "province": "Nouvelle-Aquitaine",
        "population": 11126,
        "latitude": 44.8890192087187,
        "longitude": 1.2165641784668
    },
    {
        "name": "Sarcelles",
        "country": "France",
        "province": "Île-de-France",
        "population": 57979,
        "latitude": 48.997385,
        "longitude": 2.378212
    },
    {
        "name": "Sannois",
        "country": "France",
        "province": "Île-de-France",
        "population": 26869,
        "latitude": 48.9666667,
        "longitude": 2.25
    },
    {
        "name": "Salon-de-Provence",
        "country": "France",
        "province": "Provence-Alpes-Côte d'Azur",
        "population": 41397,
        "latitude": 43.642292,
        "longitude": 5.094777
    },
    {
        "name": "Saint-Tropez",
        "country": "France",
        "province": "Provence-Alpes-Côte d'Azur",
        "population": 5939,
        "latitude": 43.267644,
        "longitude": 6.640495
    },
    {
        "name": "Saint-Sébastien-sur-Loire",
        "country": "France",
        "province": "Pays de la Loire",
        "population": 29238,
        "latitude": 47.20768180489303,
        "longitude": -1.5033245086669922
    },
    {
        "name": "Saint-Rémy-de-Provence",
        "country": "France",
        "province": "Provence-Alpes-Côte d'Azur",
        "population": 10562,
        "latitude": 43.7884764399368,
        "longitude": 4.83166694641113
    },
    {
        "name": "Saint-Raphaël",
        "country": "France",
        "province": "Provence-Alpes-Côte d'Azur",
        "population": 34918,
        "latitude": 43.4233153947263,
        "longitude": 6.77350044250488
    },
    {
        "name": "Saint-Quentin",
        "country": "France",
        "province": "Hauts-de-France",
        "population": 55407,
        "latitude": 49.8488864748517,
        "longitude": 3.28757286071777
    },
    {
        "name": "Saint-Priest",
        "country": "France",
        "province": "Auvergne-Rhône-Alpes",
        "population": 41641,
        "latitude": 45.696514,
        "longitude": 4.943846
    },
    {
        "name": "Les Clayes-sous-Bois",
        "country": "France",
        "province": "Île-de-France",
        "population": 17776,
        "latitude": 48.822056,
        "longitude": 1.986773
    },
    {
        "name": "Lescar",
        "country": "France",
        "province": "Nouvelle-Aquitaine",
        "population": 9710,
        "latitude": 43.333577,
        "longitude": -0.43458
    },
    {
        "name": "Les Andelys",
        "country": "France",
        "province": "Normandy",
        "population": 9655,
        "latitude": 49.245567,
        "longitude": 1.411681
    },
    {
        "name": "Le Rheu",
        "country": "France",
        "province": "Brittany",
        "population": 6601,
        "latitude": 48.101903,
        "longitude": -1.795652
    },
    {
        "name": "Le Raincy",
        "country": "France",
        "province": "Île-de-France",
        "population": 13246,
        "latitude": 48.899157,
        "longitude": 2.522983
    },
    {
        "name": "Le Pontet",
        "country": "France",
        "province": "Provence-Alpes-Côte d'Azur",
        "population": 16182,
        "latitude": 43.96119063892024,
        "longitude": 4.860076904296875
    },
    {
        "name": "Le Pecq",
        "country": "France",
        "province": "Île-de-France",
        "population": 16534,
        "latitude": 48.89317,
        "longitude": 2.103714
    },
    {
        "name": "Le Chambon-Feugerolles",
        "country": "France",
        "province": "Auvergne-Rhône-Alpes",
        "population": 13371,
        "latitude": 45.391449,
        "longitude": 4.321485
    },
    {
        "name": "Bapaume",
        "country": "France",
        "province": "Hauts-de-France",
        "population": 4157,
        "latitude": 50.10379026996356,
        "longitude": 2.8496646881103516
    },
    {
        "name": "Bagnères-de-Bigorre",
        "country": "France",
        "province": "Occitanie",
        "population": 8967,
        "latitude": 43.064971,
        "longitude": 0.14876
    },
    {
        "name": "Aytré",
        "country": "France",
        "province": "Nouvelle-Aquitaine",
        "population": 8335,
        "latitude": 46.13417,
        "longitude": -1.118261
    },
    {
        "name": "Avrillé",
        "country": "France",
        "province": "Pays de la Loire",
        "population": 13723,
        "latitude": 47.506631,
        "longitude": -0.589546
    },
    {
        "name": "Avranches",
        "country": "France",
        "province": "Normandy",
        "population": 9295,
        "latitude": 48.684357,
        "longitude": -1.356858
    },
    {
        "name": "Avon",
        "country": "France",
        "province": "Île-de-France",
        "population": 15009,
        "latitude": 48.402195,
        "longitude": 2.720223
    },
    {
        "name": "Avallon",
        "country": "France",
        "province": "Bourgogne-Franche-Comté",
        "population": 8740,
        "latitude": 47.490022,
        "longitude": 3.908316
    },
    {
        "name": "Audincourt",
        "country": "France",
        "province": "Bourgogne-Franche-Comté",
        "population": 15577,
        "latitude": 47.483271,
        "longitude": 6.853407
    },
    {
        "name": "Aubière",
        "country": "France",
        "province": "Auvergne-Rhône-Alpes",
        "population": 11054,
        "latitude": 45.750823,
        "longitude": 3.110784
    },
    {
        "name": "Aubergenville",
        "country": "France",
        "province": "Île-de-France",
        "population": 11934,
        "latitude": 48.959957,
        "longitude": 1.854673
    },
    {
        "name": "Arpajon",
        "country": "France",
        "province": "Île-de-France",
        "population": 9742,
        "latitude": 48.588753,
        "longitude": 2.246718
    },
    {
        "name": "Argentan",
        "country": "France",
        "province": "Normandy",
        "population": 18230,
        "latitude": 48.744407,
        "longitude": -0.02023
    },
    {
        "name": "Argeles",
        "country": "France",
        "province": "Occitanie",
        "population": 10044,
        "latitude": 42.5471366421924,
        "longitude": 3.02252769470215
    },
    {
        "name": "Arcachon",
        "country": "France",
        "province": "Nouvelle-Aquitaine",
        "population": 12321,
        "latitude": 44.661256,
        "longitude": -1.172547
    },
    {
        "name": "Arbois",
        "country": "France",
        "province": "Bourgogne-Franche-Comté",
        "population": 4007,
        "latitude": 46.903114,
        "longitude": 5.77454
    },
    {
        "name": "La Madeleine",
        "country": "France",
        "province": "Hauts-de-France",
        "population": 23572,
        "latitude": 50.646032,
        "longitude": 3.07585
    },
    {
        "name": "L'Aigle",
        "country": "France",
        "province": "Normandy",
        "population": -1,
        "latitude": 48.762157,
        "longitude": 0.627462
    },
    {
        "name": "Lagnieu",
        "country": "France",
        "province": "Auvergne-Rhône-Alpes",
        "population": 6454,
        "latitude": 45.902374,
        "longitude": 5.343991
    },
    {
        "name": "La Garde",
        "country": "France",
        "province": "Provence-Alpes-Côte d'Azur",
        "population": 28257,
        "latitude": 43.12468,
        "longitude": 6.010327
    },
    {
        "name": "La Gacilly",
        "country": "France",
        "province": "Brittany",
        "population": 2453,
        "latitude": 47.765325,
        "longitude": -2.132077
    },
    {
        "name": "La Flèche",
        "country": "France",
        "province": "Pays de la Loire",
        "population": 18536,
        "latitude": 47.69815163331136,
        "longitude": -0.075531005859375
    },
    {
        "name": "La Ferté-sous-Jouarre",
        "country": "France",
        "province": "Île-de-France",
        "population": 9443,
        "latitude": 48.951396,
        "longitude": 3.127242
    },
    {
        "name": "La Ferté-Bernard",
        "country": "France",
        "province": "Pays de la Loire",
        "population": 10201,
        "latitude": 48.187233,
        "longitude": 0.652468
    },
    {
        "name": "Lacroix-Saint-Ouen",
        "country": "France",
        "province": "Hauts-de-France",
        "population": 4649,
        "latitude": 49.356853,
        "longitude": 2.788028
    },
    {
        "name": "La Charité-sur-Loire",
        "country": "France",
        "province": "Bourgogne-Franche-Comté",
        "population": 5460,
        "latitude": 47.1833333,
        "longitude": 3.0166667
    },
    {
        "name": "La Chapelle-sur-Erdre",
        "country": "France",
        "province": "Pays de la Loire",
        "population": 18481,
        "latitude": 47.299645,
        "longitude": -1.552394
    },
    {
        "name": "La Chapelle-Saint-Luc",
        "country": "France",
        "province": "Grand Est",
        "population": 14623,
        "latitude": 48.31733682979318,
        "longitude": 4.039878845214844
    },
    {
        "name": "La Celle-Saint-Cloud",
        "country": "France",
        "province": "Île-de-France",
        "population": 21539,
        "latitude": 48.85029,
        "longitude": 2.145234
    },
    {
        "name": "Labège",
        "country": "France",
        "province": "Occitanie",
        "population": 3691,
        "latitude": 43.529352,
        "longitude": 1.529991
    },
    {
        "name": "Kingersheim",
        "country": "France",
        "province": "Grand Est",
        "population": 12690,
        "latitude": 47.790997,
        "longitude": 7.326469
    },
    {
        "name": "Lognes",
        "country": "France",
        "province": "Île-de-France",
        "population": 15519,
        "latitude": 48.835407,
        "longitude": 2.62998
    },
    {
        "name": "Locminé",
        "country": "France",
        "province": "Brittany",
        "population": 3976,
        "latitude": 47.887004,
        "longitude": -2.835754
    },
    {
        "name": "Livry-Gargan",
        "country": "France",
        "province": "Île-de-France",
        "population": 39518,
        "latitude": 48.919303,
        "longitude": 2.543051
    },
    {
        "name": "Limeil-Brévannes",
        "country": "France",
        "province": "Île-de-France",
        "population": 19104,
        "latitude": 48.744795,
        "longitude": 2.48705
    },
    {
        "name": "Lillers",
        "country": "France",
        "province": "Hauts-de-France",
        "population": 10104,
        "latitude": 50.56345,
        "longitude": 2.48042
    },
    {
        "name": "Liffré",
        "country": "France",
        "province": "Brittany",
        "population": 7034,
        "latitude": 48.213706,
        "longitude": -1.508984
    },
    {
        "name": "Lézignan-Corbières",
        "country": "France",
        "province": "Occitanie",
        "population": 9042,
        "latitude": 43.200851,
        "longitude": 2.757446
    },
    {
        "name": "Le Vésinet",
        "country": "France",
        "province": "Île-de-France",
        "population": 16740,
        "latitude": 48.892811,
        "longitude": 2.133082
    },
    {
        "name": "Le Teil",
        "country": "France",
        "province": "Auvergne-Rhône-Alpes",
        "population": 8620,
        "latitude": 44.545313,
        "longitude": 4.682227
    },
    {
        "name": "Les Sables-d'Olonne",
        "country": "France",
        "province": "Pays de la Loire",
        "population": 16105,
        "latitude": 46.496871,
        "longitude": -1.7847
    },
    {
        "name": "Lesquin",
        "country": "France",
        "province": "Hauts-de-France",
        "population": 6424,
        "latitude": 50.582322,
        "longitude": 3.119001
    },