[
    {
        "name": "Serrekunda",
        "country": "The Gambia",
        "province": "Banjul",
        "population": 340000,
        "latitude": 13.438333,
        "longitude": -16.678056
    },
    {
        "name": "Brikama",
        "country": "The Gambia",
        "province": "Western",
        "population": 77700,
        "latitude": 13.271357994336388,
        "longitude": -16.649436950683594
    },
    {
        "name": "Banjul",
        "country": "The Gambia",
        "province": "Banjul",
        "population": 34589,
        "latitude": 13.4527355073529,
        "longitude": -16.5780258178711
    },
    {
        "name": "Farafenni",
        "country": "The Gambia",
        "province": "North Bank",
        "population": 29867,
        "latitude": 13.566667,
        "longitude": -15.6
    },
    {
        "name": "Bakau",
        "country": "The Gambia",
        "province": "Banjul",
        "population": 43098,
        "latitude": 13.478056,
        "longitude": -16.681944
    },
    {
        "name": "Sukuta",
        "country": "The Gambia",
        "province": "Western",
        "population": 15131,
        "latitude": 13.410326111752818,
        "longitude": -16.708145141601562
    },
    {
        "name": "Lamin",
        "country": "The Gambia",
        "province": "North Bank",
        "population": 24797,
        "latitude": 13.352222,
        "longitude": -16.433889
    },
    {
        "name": "Basse Santa Su",
        "country": "The Gambia",
        "province": "Upper River",
        "population": 14380,
        "latitude": 13.309949700108264,
        "longitude": -14.213733673095703
    },
    {
        "name": "Gunjur",
        "country": "The Gambia",
        "province": "Western",
        "population": 14088,
        "latitude": 13.2019444,
        "longitude": -16.7338889
    },
    {
        "name": "Soma",
        "country": "The Gambia",
        "province": "Lower River",
        "population": 9869,
        "latitude": 13.433333,
        "longitude": -15.533333
    },
    {
        "name": "Mansa Konko",
        "country": "The Gambia",
        "province": "Lower River",
        "population": 1978,
        "latitude": 13.443247,
        "longitude": -15.535701
    },
    {
        "name": "Kerewan",
        "country": "The Gambia",
        "province": "North Bank",
        "population": 2751,
        "latitude": 13.48979583935439,
        "longitude": -16.088790893554688
    },
    {
        "name": "Janjanbureh",
        "country": "The Gambia",
        "province": "Central River",
        "population": 3584,
        "latitude": 13.54039,
        "longitude": -14.76374
    },
    {
        "name": "Sudowol",
        "country": "The Gambia",
        "province": "Upper River",
        "population": 1502,
        "latitude": 13.366667,
        "longitude": -13.966667
    },
    {
        "name": "Kuntaur",
        "country": "The Gambia",
        "province": "Central River",
        "population": 2534,
        "latitude": 13.67085,
        "longitude": -14.88977
    },
    {
        "name": "Essau",
        "country": "The Gambia",
        "province": "North Bank",
        "population": 5907,
        "latitude": 13.4838889,
        "longitude": -16.5347222
    },
    {
        "name": "Diabugu",
        "country": "The Gambia",
        "province": "Upper River",
        "population": 3722,
        "latitude": 13.383333,
        "longitude": -14.4
    },
    {
        "name": "Demba Kunda",
        "country": "The Gambia",
        "province": "Upper River",
        "population": 4817,
        "latitude": 13.25,
        "longitude": -14.266667
    },
    {
        "name": "Brifu",
        "country": "The Gambia",
        "province": "Upper River",
        "population": 1292,
        "latitude": 13.5,
        "longitude": -13.933333
    },
    {
        "name": "Barra",
        "country": "The Gambia",
        "province": "North Bank",
        "population": 5323,
        "latitude": 13.4827778,
        "longitude": -16.5455556
    },
    {
        "name": "Baro Kunda",
        "country": "The Gambia",
        "province": "Lower River",
        "population": 1991,
        "latitude": 13.483333,
        "longitude": -15.266667
    },
    {
        "name": "Bansang",
        "country": "The Gambia",
        "province": "Central River",
        "population": 7615,
        "latitude": 13.433333,
        "longitude": -14.65
    },
    {
        "name": "Bambali",
        "country": "The Gambia",
        "province": "North Bank",
        "population": 1255,
        "latitude": 13.483333,
        "longitude": -15.333333
    },
    {
        "name": "Bakadagy",
        "country": "The Gambia",
        "province": "Upper River",
        "population": 1979,
        "latitude": 13.3,
        "longitude": -14.383333
    },
    {
        "name": "Abuko",
        "country": "The Gambia",
        "province": "Western",
        "population": 6572,
        "latitude": 13.4041667,
        "longitude": -16.6558333
    },
    {
        "name": "Yundum",
        "country": "The Gambia",
        "province": "Western",
        "population": -1,
        "latitude": 13.3455556,
        "longitude": -16.6727778
    },
    {
        "name": "Wellingara Ba",
        "country": "The Gambia",
        "province": "Lower River",
        "population": 1476,
        "latitude": 13.416667,
        "longitude": -15.4
    },
    {
        "name": "Toniataba",
        "country": "The Gambia",
        "province": "Lower River",
        "population": 1755,
        "latitude": 13.433333,
        "longitude": -15.583333
    },
    {
        "name": "Tanji",
        "country": "The Gambia",
        "province": "Western",
        "population": -1,
        "latitude": 13.3488889,
        "longitude": -16.7908333
    },
    {
        "name": "Sutukoba",
        "country": "The Gambia",
        "province": "Upper River",
        "population": 2693,
        "latitude": 13.5,
        "longitude": -14.016667
    },
    {
        "name": "Sun Kunda",
        "country": "The Gambia",
        "province": "Upper River",
        "population": 1306,
        "latitude": 13.383333,
        "longitude": -13.85
    },
    {
        "name": "Sotuma",
        "country": "The Gambia",
        "province": "Upper River",
        "population": 291,
        "latitude": 13.3,
        "longitude": -14.316667
    },
    {
        "name": "Sankandi",
        "country": "The Gambia",
        "province": "Lower River",
        "population": 581,
        "latitude": 13.3,
        "longitude": -15.833333
    },
    {
        "name": "Perai",
        "country": "The Gambia",
        "province": "Upper River",
        "population": 1026,
        "latitude": 13.383333,
        "longitude": -14.033333
    },
    {
        "name": "Pakali Ba",
        "country": "The Gambia",
        "province": "Lower River",
        "population": -1,
        "latitude": 13.516667,
        "longitude": -15.233333
    },
    {
        "name": "Pakala",
        "country": "The Gambia",
        "province": "Central River",
        "population": 450,
        "latitude": 13.6,
        "longitude": -15.166667
    },
    {
        "name": "Nema Kunku",
        "country": "The Gambia",
        "province": "Western",
        "population": 815,
        "latitude": 13.25,
        "longitude": -15.883333
    },
    {
        "name": "Nema",
        "country": "The Gambia",
        "province": "Central River",
        "population": 301,
        "latitude": 13.533333,
        "longitude": -14.816667
    },
    {
        "name": "Medina Seringe Mass",
        "country": "The Gambia",
        "province": "North Bank",
        "population": -1,
        "latitude": 13.488333,
        "longitude": -16.410833
    },
    {
        "name": "Latri Sabiji",
        "country": "The Gambia",
        "province": "Western",
        "population": -1,
        "latitude": 13.4133333,
        "longitude": -16.6788889
    },
    {
        "name": "Lamin",
        "country": "The Gambia",
        "province": "Western",
        "population": -1,
        "latitude": 13.3869444,
        "longitude": -16.6447222
    },
    {
        "name": "Kololi",
        "country": "The Gambia",
        "province": "Western",
        "population": -1,
        "latitude": 13.45,
        "longitude": -16.716667
    },
    {
        "name": "Katchang",
        "country": "The Gambia",
        "province": "North Bank",
        "population": 1741,
        "latitude": 13.5,
        "longitude": -15.75
    },
    {
        "name": "Kass Wollof",
        "country": "The Gambia",
        "province": "Central River",
        "population": 1109,
        "latitude": 13.783333,
        "longitude": -14.933333
    },
    {
        "name": "Kartung",
        "country": "The Gambia",
        "province": "Western",
        "population": -1,
        "latitude": 13.0947222,
        "longitude": -16.7622222
    },
    {
        "name": "Karantaba Tenda",
        "country": "The Gambia",
        "province": "Central River",
        "population": -1,
        "latitude": 13.55,
        "longitude": -14.566667
    },
    {
        "name": "Kanilai",
        "country": "The Gambia",
        "province": "Western",
        "population": -1,
        "latitude": 13.1763889,
        "longitude": -16.0169444
    },
    {
        "name": "Kanifing",
        "country": "The Gambia",
        "province": "Banjul",
        "population": -1,
        "latitude": 13.446389,
        "longitude": -16.674444
    },
    {
        "name": "Kalagi",
        "country": "The Gambia",
        "province": "Western",
        "population": -1,
        "latitude": 13.248550921271436,
        "longitude": -15.835590362548828
    },
    {
        "name": "Jufureh",
        "country": "The Gambia",
        "province": "North Bank",
        "population": -1,
        "latitude": 13.338611,
        "longitude": -16.3825
    },
    {
        "name": "Jigimar",
        "country": "The Gambia",
        "province": "North Bank",
        "population": -1,
        "latitude": 13.566667,
        "longitude": -15.6
    },
    {
        "name": "Jifarong",
        "country": "The Gambia",
        "province": "Lower River",
        "population": 1038,
        "latitude": 13.3,
        "longitude": -15.866667
    },
    {
        "name": "Jailan",
        "country": "The Gambia",
        "province": "Central River",
        "population": 404,
        "latitude": 13.716667,
        "longitude": -15.016667
    },
    {
        "name": "Ghana Town",
        "country": "The Gambia",
        "province": "Western",
        "population": -1,
        "latitude": 13.3844444,
        "longitude": -16.7711111
    },
    {
        "name": "Genieri",
        "country": "The Gambia",
        "province": "Lower River",
        "population": -1,
        "latitude": 13.416667,
        "longitude": -15.616667
    },
    {
        "name": "Galleh Manda",
        "country": "The Gambia",
        "province": "Central River",
        "population": 1872,
        "latitude": 13.433333,
        "longitude": -14.783333
    },
    {
        "name": "Fattatenda",
        "country": "The Gambia",
        "province": "Upper River",
        "population": -1,
        "latitude": 13.45,
        "longitude": -14.066667
    },
    {
        "name": "Fatoto",
        "country": "The Gambia",
        "province": "Upper River",
        "population": -1,
        "latitude": 13.4,
        "longitude": -13.9
    },
    {
        "name": "Faraba Banta",
        "country": "The Gambia",
        "province": "Western",
        "population": -1,
        "latitude": 13.2613889,
        "longitude": -16.52
    },
    {
        "name": "Fajara",
        "country": "The Gambia",
        "province": "Banjul",
        "population": -1,
        "latitude": 13.47,
        "longitude": -16.696389
    },
    {
        "name": "Dumbutu",
        "country": "The Gambia",
        "province": "Lower River",
        "population": 825,
        "latitude": 13.35,
        "longitude": -15.833333
    },
    {
        "name": "Dobo",
        "country": "The Gambia",
        "province": "North Bank",
        "population": 535,
        "latitude": 13.55,
        "longitude": -15.966667
    },
    {
        "name": "Dankunku",
        "country": "The Gambia",
        "province": "Central River",
        "population": 1641,
        "latitude": 13.566667,
        "longitude": -15.316667
    },
    {
        "name": "Daba Kunda",
        "country": "The Gambia",
        "province": "Upper River",
        "population": 1302,
        "latitude": 13.316667,
        "longitude": -14.3
    },
    {
        "name": "Chamoi",
        "country": "The Gambia",
        "province": "Upper River",
        "population": -1,
        "latitude": 13.316667,
        "longitude": -14.166667
    },
    {
        "name": "Bwiam",
        "country": "The Gambia",
        "province": "Western",
        "population": -1,
        "latitude": 13.2352778,
        "longitude": -16.0863889
    },
    {
        "name": "Busumbala",
        "country": "The Gambia",
        "province": "Western",
        "population": -1,
        "latitude": 13.3391667,
        "longitude": -16.6875
    },
    {
        "name": "Bulok",
        "country": "The Gambia",
        "province": "Western",
        "population": -1,
        "latitude": 13.1766667,
        "longitude": -16.4158333
    },
    {
        "name": "Brufut",
        "country": "The Gambia",
        "province": "Western",
        "population": -1,
        "latitude": 13.3841667,
        "longitude": -16.7513889
    },
    {
        "name": "Brikama Ba",
        "country": "The Gambia",
        "province": "Central River",
        "population": -1,
        "latitude": 13.533333,
        "longitude": -14.933333
    },
    {
        "name": "Boro Modi Bane",
        "country": "The Gambia",
        "province": "Upper River",
        "population": 207,
        "latitude": 13.433333,
        "longitude": -14.033333
    },
    {
        "name": "Boraba",
        "country": "The Gambia",
        "province": "Central River",
        "population": 468,
        "latitude": 13.516667,
        "longitude": -14.733333
    },
    {
        "name": "Banto Nding",
        "country": "The Gambia",
        "province": "Upper River",
        "population": 999,
        "latitude": 13.466667,
        "longitude": -14.083333
    },
    {
        "name": "Bantanto",
        "country": "The Gambia",
        "province": "Central River",
        "population": 326,
        "latitude": 13.583333,
        "longitude": -15.15
    },
    {
        "name": "Bantango Koto",
        "country": "The Gambia",
        "province": "Central River",
        "population": 293,
        "latitude": 13.55,
        "longitude": -14.55
    },
    {
        "name": "Bani",
        "country": "The Gambia",
        "province": "Upper River",
        "population": -1,
        "latitude": 13.383333,
        "longitude": -13.866667
    },
    {
        "name": "Badja Kunda",
        "country": "The Gambia",
        "province": "Upper River",
        "population": -1,
        "latitude": 13.466667,
        "longitude": -14.05
    },
    {
        "name": "Amdalai",
        "country": "The Gambia",
        "province": "Western",
        "population": -1,
        "latitude": 13.4319444,
        "longitude": -16.7225
    },
    {
        "name": "Aljamdu",
        "country": "The Gambia",
        "province": "North Bank",
        "population": -1,
        "latitude": 13.4,
        "longitude": -16.455556
    },
    {
        "name": "Albadarr",
        "country": "The Gambia",
        "province": "North Bank",
        "population": -1,
        "latitude": 13.334444,
        "longitude": -16.386667
    },
    {
        "name": "Old Yundum",
        "country": "The Gambia",
        "province": "Western",
        "population": -1,
        "latitude": 13.3625,
        "longitude": -16.6861111
    },
    {
        "name": "Yida",
        "country": "The Gambia",
        "province": "Central River",
        "population": 28,
        "latitude": 13.666667,
        "longitude": -14.933333
    },
    {
        "name": "Yallal",
        "country": "The Gambia",
        "province": "North Bank",
        "population": 512,
        "latitude": 13.55,
        "longitude": -15.7
    },
    {
        "name": "Welingara",
        "country": "The Gambia",
        "province": "Western",
        "population": -1,
        "latitude": 13.4036111,
        "longitude": -16.6736111
    },
    {
        "name": "Wassadun",
        "country": "The Gambia",
        "province": "Western",
        "population": -1,
        "latitude": 13.2,
        "longitude": -15.866667
    },
    {
        "name": "Tujering",
        "country": "The Gambia",
        "province": "Western",
        "population": -1,
        "latitude": 13.31888672970631,
        "longitude": -16.785478591918945
    },
    {
        "name": "Tubakuta",
        "country": "The Gambia",
        "province": "Western",
        "population": -1,
        "latitude": 13.2544444,
        "longitude": -16.5955556
    },
    {
        "name": "Tuba Koto",
        "country": "The Gambia",
        "province": "Central River",
        "population": 667,
        "latitude": 13.633333,
        "longitude": -14.9
    },
    {
        "name": "Toro Tayem",
        "country": "The Gambia",
        "province": "North Bank",
        "population": -1,
        "latitude": 13.5616667,
        "longitude": -16.0483333
    },
    {
        "name": "Toranka Bantang",
        "country": "The Gambia",
        "province": "Lower River",
        "population": 177,
        "latitude": 13.4,
        "longitude": -15.666667
    },
    {
        "name": "Teneng Fara",
        "country": "The Gambia",
        "province": "Central River",
        "population": -1,
        "latitude": 13.616667,
        "longitude": -15.016667
    },
    {
        "name": "Tarburung Kotor",
        "country": "The Gambia",
        "province": "Lower River",
        "population": -1,
        "latitude": 13.3225,
        "longitude": -16.1794444
    },
    {
        "name": "Tankular",
        "country": "The Gambia",
        "province": "Lower River",
        "population": 913,
        "latitude": 13.4177778,
        "longitude": -16.0369444
    },
    {
        "name": "Tankong Kunda",
        "country": "The Gambia",
        "province": "Central River",
        "population": 342,
        "latitude": 13.5,
        "longitude": -14.65
    },
    {
        "name": "Tandi Wollof",
        "country": "The Gambia",
        "province": "Central River",
        "population": 456,
        "latitude": 13.516667,
        "longitude": -14.55
    },
    {
        "name": "Tandi Kunda",
        "country": "The Gambia",
        "province": "Central River",
        "population": -1,
        "latitude": 13.533333,
        "longitude": -14.55
    },
    {
        "name": "Tambasensan",
        "country": "The Gambia",
        "province": "Upper River",
        "population": -1,
        "latitude": 13.383333,
        "longitude": -14.166667
    },
    {
        "name": "Tamba Koto",
        "country": "The Gambia",
        "province": "North Bank",
        "population": 276,
        "latitude": 13.533333,
        "longitude": -15.516667
    },
    {
        "name": "Taindaitor",
        "country": "The Gambia",
        "province": "North Bank",
        "population": -1,
        "latitude": 13.516667,
        "longitude": -15.416667
    },
    {
        "name": "Taifa Amadou",
        "country": "The Gambia",
        "province": "Central River",
        "population": 318,
        "latitude": 13.466667,
        "longitude": -14.9
    },
    {
        "name": "Taba Nani",
        "country": "The Gambia",
        "province": "Central River",
        "population": -1,
        "latitude": 13.533333,
        "longitude": -14.816667
    },
    {
        "name": "Tabanani",
        "country": "The Gambia",
        "province": "Lower River",
        "population": 173,
        "latitude": 13.366667,
        "longitude": -15.766667
    },
    {
        "name": "Sutukung",
        "country": "The Gambia",
        "province": "Lower River",
        "population": 1506,
        "latitude": 13.466667,
        "longitude": -15.266667
    },
    {
        "name": "Sumbundu",
        "country": "The Gambia",
        "province": "Lower River",
        "population": 226,
        "latitude": 13.383333,
        "longitude": -15.533333
    },
    {
        "name": "Sulolor",
        "country": "The Gambia",
        "province": "Central River",
        "population": 787,
        "latitude": 13.45,
        "longitude": -14.666667
    },
    {
        "name": "Sukuta",
        "country": "The Gambia",
        "province": "Central River",
        "population": 1364,
        "latitude": 13.616667,
        "longitude": -14.916667
    },
    {
        "name": "Sotokoi",
        "country": "The Gambia",
        "province": "Central River",
        "population": 165,
        "latitude": 13.65,
        "longitude": -15.1
    },
    {
        "name": "Somita",
        "country": "The Gambia",
        "province": "Western",
        "population": 2541,
        "latitude": 13.205833,
        "longitude": -16.305556
    },
    {
        "name": "Simbara Kai",
        "country": "The Gambia",
        "province": "Central River",
        "population": -1,
        "latitude": 13.733333,
        "longitude": -15.35
    },
    {
        "name": "Si Kunda",
        "country": "The Gambia",
        "province": "Lower River",
        "population": 1344,
        "latitude": 13.433333,
        "longitude": -15.566667
    },
    {
        "name": "Sifoe",
        "country": "The Gambia",
        "province": "Western",
        "population": -1,
        "latitude": 13.183611,
        "longitude": -16.6975
    },
    {
        "name": "Sibito",
        "country": "The Gambia",
        "province": "Lower River",
        "population": 680,
        "latitude": 13.383333,
        "longitude": -15.733333
    },
    {
        "name": "Seno Bajonki",
        "country": "The Gambia",
        "province": "Lower River",
        "population": 439,
        "latitude": 13.4,
        "longitude": -15.516667
    },
    {
        "name": "Seleri Kunda",
        "country": "The Gambia",
        "province": "Central River",
        "population": -1,
        "latitude": 13.466667,
        "longitude": -14.583333
    },
    {
        "name": "Saruja",
        "country": "The Gambia",
        "province": "Central River",
        "population": 1959,
        "latitude": 13.55,
        "longitude": -14.916667
    },
    {
        "name": "Sare Yoro",
        "country": "The Gambia",
        "province": "Central River",
        "population": -1,
        "latitude": 13.466667,
        "longitude": -14.866667
    },
    {
        "name": "Sare Ngaba",
        "country": "The Gambia",
        "province": "Upper River",
        "population": 213,
        "latitude": 13.466667,
        "longitude": -14.216667
    },
    {
        "name": "Sare Modi Kulo",
        "country": "The Gambia",
        "province": "Lower River",
        "population": -1,
        "latitude": 13.366667,
        "longitude": -15.35
    },
    {
        "name": "Sare Kannen",
        "country": "The Gambia",
        "province": "Central River",
        "population": -1,
        "latitude": 13.466667,
        "longitude": -14.85
    },
    {
        "name": "Sareh Mowndeh",
        "country": "The Gambia",
        "province": "Western",
        "population": -1,
        "latitude": 13.4036111,
        "longitude": -16.6852778
    },
    {
        "name": "Sare Debo",
        "country": "The Gambia",
        "province": "Central River",
        "population": 284,
        "latitude": 13.35,
        "longitude": -14.65
    },
    {
        "name": "Sare Boja",
        "country": "The Gambia",
        "province": "Upper River",
        "population": -1,
        "latitude": 13.316667,
        "longitude": -14.533333
    },
    {
        "name": "Sara Kunda",
        "country": "The Gambia",
        "province": "North Bank",
        "population": 1316,
        "latitude": 13.533333,
        "longitude": -15.416667
    },
    {
        "name": "Sanyang",
        "country": "The Gambia",
        "province": "Western",
        "population": -1,
        "latitude": 13.2666667,
        "longitude": -16.7605556
    },
    {
        "name": "Santanto Serifu M’Balo",
        "country": "The Gambia",
        "province": "Central River",
        "population": -1,
        "latitude": 13.383333,
        "longitude": -14.533333
    },
    {
        "name": "Sankwia",
        "country": "The Gambia",
        "province": "Lower River",
        "population": 1831,
        "latitude": 13.466667,
        "longitude": -15.516667
    },
    {
        "name": "Sami Pachonki",
        "country": "The Gambia",
        "province": "Central River",
        "population": -1,
        "latitude": 13.55,
        "longitude": -14.516667
    },
    {
        "name": "Sami Omar Jula",
        "country": "The Gambia",
        "province": "Central River",
        "population": -1,
        "latitude": 13.533333,
        "longitude": -14.466667
    },
    {
        "name": "Sameh",
        "country": "The Gambia",
        "province": "Western",
        "population": -1,
        "latitude": 13.3316667,
        "longitude": -16.6252778
    },
    {
        "name": "Salikene",
        "country": "The Gambia",
        "province": "North Bank",
        "population": -1,
        "latitude": 13.483333,
        "longitude": -15.966667
    },
    {
        "name": "Salikene",
        "country": "The Gambia",
        "province": "Upper River",
        "population": 88,
        "latitude": 13.35,
        "longitude": -14.016667
    },
    {
        "name": "Cape Point",
        "country": "The Gambia",
        "province": "Western",
        "population": -1,
        "latitude": 13.489167,
        "longitude": -16.669167
    },
    {
        "name": "Piniai Fula Kunda",
        "country": "The Gambia",
        "province": "Central River",
        "population": -1,
        "latitude": 13.55,
        "longitude": -15.283333
    },
    {
        "name": "Pateh Sam",
        "country": "The Gambia",
        "province": "Central River",
        "population": 1164,
        "latitude": 13.616667,
        "longitude": -15.066667
    },
    {
        "name": "Panchari Sana",
        "country": "The Gambia",
        "province": "Central River",
        "population": -1,
        "latitude": 13.5,
        "longitude": -14.85
    },
    {
        "name": "Pakau Penku",
        "country": "The Gambia",
        "province": "North Bank",
        "population": -1,
        "latitude": 13.375556,
        "longitude": -16.381667
    },
    {
        "name": "Pakau Ba",
        "country": "The Gambia",
        "province": "North Bank",
        "population": -1,
        "latitude": 13.394444,
        "longitude": -16.391944
    },
    {
        "name": "Nyangan",
        "country": "The Gambia",
        "province": "Central River",
        "population": -1,
        "latitude": 13.783333,
        "longitude": -14.983333
    },
    {
        "name": "Nyanga Bantang",
        "country": "The Gambia",
        "province": "Central River",
        "population": -1,
        "latitude": 13.783333,
        "longitude": -15.016667
    },
    {
        "name": "Nyaffy",
        "country": "The Gambia",
        "province": "Western",
        "population": 261,
        "latitude": 13.2,
        "longitude": -16
    },
    {
        "name": "Numu Kunda Kotor",
        "country": "The Gambia",
        "province": "Upper River",
        "population": -1,
        "latitude": 13.333333,
        "longitude": -14.5
    },
    {
        "name": "Njenghen Njie Kunda",
        "country": "The Gambia",
        "province": "North Bank",
        "population": -1,
        "latitude": 13.533333,
        "longitude": -15.516667
    },
    {
        "name": "Njarinjufa",
        "country": "The Gambia",
        "province": "Upper River",
        "population": 75,
        "latitude": 13.3,
        "longitude": -14.016667
    },
    {
        "name": "Njallal",
        "country": "The Gambia",
        "province": "Central River",
        "population": 484,
        "latitude": 13.616667,
        "longitude": -14.5
    },
    {
        "name": "Nja Kunda",
        "country": "The Gambia",
        "province": "North Bank",
        "population": -1,
        "latitude": 13.55,
        "longitude": -15.916667
    },
    {
        "name": "Niankui",
        "country": "The Gambia",
        "province": "Upper River",
        "population": -1,
        "latitude": 13.433333,
        "longitude": -14.483333
    },
    {
        "name": "Niani Maru",
        "country": "The Gambia",
        "province": "Central River",
        "population": -1,
        "latitude": 13.7,
        "longitude": -15
    },
    {
        "name": "Ngawar",
        "country": "The Gambia",
        "province": "Central River",
        "population": -1,
        "latitude": 13.6,
        "longitude": -15.15
    },
    {
        "name": "N’Dungu Kebbe",
        "country": "The Gambia",
        "province": "North Bank",
        "population": -1,
        "latitude": 13.540278,
        "longitude": -16.321944
    },
    {
        "name": "Ndemban Ba",
        "country": "The Gambia",
        "province": "Western",
        "population": -1,
        "latitude": 13.207778,
        "longitude": -16.345278
    },
    {
        "name": "Missira Tenda",
        "country": "The Gambia",
        "province": "Lower River",
        "population": -1,
        "latitude": 13.3013889,
        "longitude": -16.1875
    },
    {
        "name": "Missira",
        "country": "The Gambia",
        "province": "Upper River",
        "population": 98,
        "latitude": 13.366667,
        "longitude": -14.35
    },
    {
        "name": "Misira Sambail Cham",
        "country": "The Gambia",
        "province": "Central River",
        "population": -1,
        "latitude": 13.816667,
        "longitude": -15.066667
    },
    {
        "name": "Memmeh",
        "country": "The Gambia",
        "province": "North Bank",
        "population": 493,
        "latitude": 13.5197222,
        "longitude": -16.2311111
    },
    {
        "name": "Mbye Kunda",
        "country": "The Gambia",
        "province": "Upper River",
        "population": 271,
        "latitude": 13.383333,
        "longitude": -14.283333
    },
    {
        "name": "Mbulgurk",
        "country": "The Gambia",
        "province": "Central River",
        "population": -1,
        "latitude": 13.75,
        "longitude": -15.283333
    },
    {
        "name": "Mbollet Bah",
        "country": "The Gambia",
        "province": "North Bank",
        "population": -1,
        "latitude": 13.5166667,
        "longitude": -16.5
    },
    {
        "name": "Mane Kunda",
        "country": "The Gambia",
        "province": "Upper River",
        "population": 161,
        "latitude": 13.3,
        "longitude": -14.216667
    },
    {
        "name": "Manduar",
        "country": "The Gambia",
        "province": "Lower River",
        "population": -1,
        "latitude": 13.3538889,
        "longitude": -16.07
    },
    {
        "name": "Mandinaba",
        "country": "The Gambia",
        "province": "Western",
        "population": -1,
        "latitude": 13.2811111,
        "longitude": -16.5936111
    },
    {
        "name": "Madina Umfally",
        "country": "The Gambia",
        "province": "Central River",
        "population": -1,
        "latitude": 13.533333,
        "longitude": -14.95
    },
    {
        "name": "Madina Tunjang",
        "country": "The Gambia",
        "province": "Central River",
        "population": 797,
        "latitude": 13.433333,
        "longitude": -14.75
    },
    {
        "name": "Madina Sinchu Yoro",
        "country": "The Gambia",
        "province": "Central River",
        "population": -1,
        "latitude": 13.5,
        "longitude": -14.866667
    },
    {
        "name": "Madina Madi",
        "country": "The Gambia",
        "province": "Central River",
        "population": 259,
        "latitude": 13.583333,
        "longitude": -15.183333
    },
    {
        "name": "Madina Bafuloto",
        "country": "The Gambia",
        "province": "North Bank",
        "population": -1,
        "latitude": 13.455833,
        "longitude": -16.339722
    },
    {
        "name": "Kusalang",
        "country": "The Gambia",
        "province": "Central River",
        "population": 251,
        "latitude": 13.45,
        "longitude": -14.866667
    },
    {
        "name": "Kur Kur Yoro Mballow",
        "country": "The Gambia",
        "province": "Central River",
        "population": 306,
        "latitude": 13.483333,
        "longitude": -14.883333
    },
    {
        "name": "Kununku",
        "country": "The Gambia",
        "province": "Central River",
        "population": 210,
        "latitude": 13.666667,
        "longitude": -15
    },
    {
        "name": "Kunting",
        "country": "The Gambia",
        "province": "Central River",
        "population": 1204,
        "latitude": 13.533333,
        "longitude": -14.666667
    },
    {
        "name": "Kunkujang",
        "country": "The Gambia",
        "province": "Western",
        "population": -1,
        "latitude": 13.2252778,
        "longitude": -16.7427778
    },
    {
        "name": "Kumbijae",
        "country": "The Gambia",
        "province": "North Bank",
        "population": 623,
        "latitude": 13.533333,
        "longitude": -15.433333
    },
    {
        "name": "Kumbija",
        "country": "The Gambia",
        "province": "Upper River",
        "population": 1760,
        "latitude": 13.266667,
        "longitude": -14.183333
    },
    {
        "name": "Kuli Kunda",
        "country": "The Gambia",
        "province": "Lower River",
        "population": 556,
        "latitude": 13.333333,
        "longitude": -15.916667
    },
    {
        "name": "Kukuyel",
        "country": "The Gambia",
        "province": "Upper River",
        "population": 152,
        "latitude": 13.4,
        "longitude": -13.9
    },
    {
        "name": "Kudang Tenda",
        "country": "The Gambia",
        "province": "Central River",
        "population": 360,
        "latitude": 13.683333,
        "longitude": -15.083333
    },
    {
        "name": "Kossemar Momadu Sutu",
        "country": "The Gambia",
        "province": "Upper River",
        "population": 281,
        "latitude": 13.316667,
        "longitude": -14.383333
    },
    {
        "name": "Kusamai",
        "country": "The Gambia",
        "province": "Western",
        "population": -1,
        "latitude": 13.1730556,
        "longitude": -16.1755556
    },
    {
        "name": "Kinteh Kunda",
        "country": "The Gambia",
        "province": "North Bank",
        "population": 592,
        "latitude": 13.5072222,
        "longitude": -16.0672222
    },
    {
        "name": "Ker Modi Hali",
        "country": "The Gambia",
        "province": "Central River",
        "population": -1,
        "latitude": 13.75,
        "longitude": -15.233333
    },
    {
        "name": "Ker Biran Yassin",
        "country": "The Gambia",
        "province": "Central River",
        "population": -1,
        "latitude": 13.65,
        "longitude": -15.433333
    },
    {
        "name": "Ker Biram Yassin",
        "country": "The Gambia",
        "province": "North Bank",
        "population": -1,
        "latitude": 13.583333,
        "longitude": -16
    },
    {
        "name": "Keneba",
        "country": "The Gambia",
        "province": "Lower River",
        "population": 1775,
        "latitude": 13.3288889,
        "longitude": -16.015
    },
    {
        "name": "Kataba Omar Ndow",
        "country": "The Gambia",
        "province": "Central River",
        "population": 147,
        "latitude": 13.683333,
        "longitude": -14.816667
    },
    {
        "name": "Kass Yallal",
        "country": "The Gambia",
        "province": "Central River",
        "population": 229,
        "latitude": 13.783333,
        "longitude": -14.9
    },
    {
        "name": "Kass Perom",
        "country": "The Gambia",
        "province": "Central River",
        "population": -1,
        "latitude": 13.783333,
        "longitude": -14.933333
    },
    {
        "name": "Karantaba",
        "country": "The Gambia",
        "province": "Central River",
        "population": 1753,
        "latitude": 13.666667,
        "longitude": -15.033333
    },
    {
        "name": "Kantong Kunda",
        "country": "The Gambia",
        "province": "Lower River",
        "population": 456,
        "latitude": 13.333333,
        "longitude": -15.95
    },
    {
        "name": "Kansambou",
        "country": "The Gambia",
        "province": "Western",
        "population": 295,
        "latitude": 13.166667,
        "longitude": -15.8
    },
    {
        "name": "Kamfenda",
        "country": "The Gambia",
        "province": "Western",
        "population": -1,
        "latitude": 13.2152778,
        "longitude": -16.0558333
    },
    {
        "name": "Kaimbujae NDing",
        "country": "The Gambia",
        "province": "Western",
        "population": -1,
        "latitude": 13.285,
        "longitude": -16.6213889
    },
    {
        "name": "Kaimbujae",
        "country": "The Gambia",
        "province": "Western",
        "population": -1,
        "latitude": 13.3,
        "longitude": -16.616667
    },
    {
        "name": "Kahow",
        "country": "The Gambia",
        "province": "Central River",
        "population": 409,
        "latitude": 13.483333,
        "longitude": -14.816667
    },
    {
        "name": "Jurro Kunda",
        "country": "The Gambia",
        "province": "Upper River",
        "population": 206,
        "latitude": 13.283333,
        "longitude": -14.383333
    },
    {
        "name": "Jorem Drameh Kunda",
        "country": "The Gambia",
        "province": "Western",
        "population": -1,
        "latitude": 13.233333,
        "longitude": -15.883333
    },
    {
        "name": "Jorem Bunda Kunda",
        "country": "The Gambia",
        "province": "Western",
        "population": -1,
        "latitude": 13.25,
        "longitude": -15.883333
    },
    {
        "name": "Jorem",
        "country": "The Gambia",
        "province": "Western",
        "population": 382,
        "latitude": 13.216667,
        "longitude": -15.966667
    },
    {
        "name": "Joba",
        "country": "The Gambia",
        "province": "Lower River",
        "population": -1,
        "latitude": 13.433333,
        "longitude": -15.216667
    },
    {
        "name": "Jiffin",
        "country": "The Gambia",
        "province": "Lower River",
        "population": 729,
        "latitude": 13.416667,
        "longitude": -15.583333
    },
    {
        "name": "Jenoi",
        "country": "The Gambia",
        "province": "Lower River",
        "population": 1254,
        "latitude": 13.483333,
        "longitude": -15.566667
    },
    {
        "name": "Jendeh",
        "country": "The Gambia",
        "province": "Upper River",
        "population": 161,
        "latitude": 13.4,
        "longitude": -14.283333
    },
    {
        "name": "Jatikoi",
        "country": "The Gambia",
        "province": "Western",
        "population": 215,
        "latitude": 13.283333,
        "longitude": -15.983333
    },
    {
        "name": "Jassong",
        "country": "The Gambia",
        "province": "Lower River",
        "population": 742,
        "latitude": 13.4,
        "longitude": -15.316667
    },
    {
        "name": "Jarreng",
        "country": "The Gambia",
        "province": "Central River",
        "population": 2705,
        "latitude": 13.616667,
        "longitude": -15.183333
    },
    {
        "name": "Jamwelly",
        "country": "The Gambia",
        "province": "Western",
        "population": -1,
        "latitude": 13.2508333,
        "longitude": -16.6388889
    },
    {
        "name": "Janneh Kunda",
        "country": "The Gambia",
        "province": "Lower River",
        "population": 795,
        "latitude": 13.3802778,
        "longitude": -16.1383333
    },
    {
        "name": "Jangmarr",
        "country": "The Gambia",
        "province": "Lower River",
        "population": -1,
        "latitude": 13.3,
        "longitude": -15.933333
    },
    {
        "name": "Jammeh Kunda",
        "country": "The Gambia",
        "province": "North Bank",
        "population": 137,
        "latitude": 13.5,
        "longitude": -16
    },
    {
        "name": "Jambur",
        "country": "The Gambia",
        "province": "Western",
        "population": -1,
        "latitude": 13.3155556,
        "longitude": -16.7019444
    },
    {
        "name": "Jamaly",
        "country": "The Gambia",
        "province": "Central River",
        "population": -1,
        "latitude": 13.583333,
        "longitude": -14.75
    },
    {
        "name": "Jalo Kunda Mat Mbye",
        "country": "The Gambia",
        "province": "Central River",
        "population": -1,
        "latitude": 13.766667,
        "longitude": -14.983333
    },
    {
        "name": "Jallow Koto",
        "country": "The Gambia",
        "province": "Central River",
        "population": -1,
        "latitude": 13.633333,
        "longitude": -15.316667
    },
    {
        "name": "Jakhaly",
        "country": "The Gambia",
        "province": "Central River",
        "population": 1793,
        "latitude": 13.55,
        "longitude": -14.966667
    },
    {
        "name": "Jahajari",
        "country": "The Gambia",
        "province": "North Bank",
        "population": -1,
        "latitude": 13.583333,
        "longitude": -15.75
    },
    {
        "name": "Jabisa",
        "country": "The Gambia",
        "province": "Lower River",
        "population": 276,
        "latitude": 13.466667,
        "longitude": -15.466667
    },
    {
        "name": "Jababa",
        "country": "The Gambia",
        "province": "Upper River",
        "population": 549,
        "latitude": 13.366667,
        "longitude": -14.366667
    },
    {
        "name": "Gunkoru Wollof",
        "country": "The Gambia",
        "province": "Central River",
        "population": -1,
        "latitude": 13.716667,
        "longitude": -15.383333
    },
    {
        "name": "Gunjur Kuta",
        "country": "The Gambia",
        "province": "Upper River",
        "population": 1566,
        "latitude": 13.533333,
        "longitude": -14.116667
    },
    {
        "name": "Gunjur",
        "country": "The Gambia",
        "province": "North Bank",
        "population": 1327,
        "latitude": 13.5227778,
        "longitude": -16.0277778
    },
    {
        "name": "Giroba Kunda",
        "country": "The Gambia",
        "province": "Upper River",
        "population": 513,
        "latitude": 13.3,
        "longitude": -14.2
    },
    {
        "name": "Ginak Kajata",
        "country": "The Gambia",
        "province": "North Bank",
        "population": -1,
        "latitude": 13.5813889,
        "longitude": -16.5275
    },
    {
        "name": "Garawol",
        "country": "The Gambia",
        "province": "Upper River",
        "population": -1,
        "latitude": 13.416667,
        "longitude": -13.95
    },
    {
        "name": "Galleh Wollof",
        "country": "The Gambia",
        "province": "Central River",
        "population": -1,
        "latitude": 13.433333,
        "longitude": -14.8
    },
    {
        "name": "Fula Bantang",
        "country": "The Gambia",
        "province": "Central River",
        "population": -1,
        "latitude": 13.5,
        "longitude": -14.833333
    },
    {
        "name": "Fantumbu",
        "country": "The Gambia",
        "province": "Upper River",
        "population": -1,
        "latitude": 13.4,
        "longitude": -13.866667
    },
    {
        "name": "Dumfoya",
        "country": "The Gambia",
        "province": "Upper River",
        "population": 112,
        "latitude": 13.416667,
        "longitude": -14.216667
    },
    {
        "name": "Dobbo",
        "country": "The Gambia",
        "province": "Central River",
        "population": 723,
        "latitude": 13.466667,
        "longitude": -14.633333
    },
    {
        "name": "Dinguiri",
        "country": "The Gambia",
        "province": "Upper River",
        "population": -1,
        "latitude": 13.283333,
        "longitude": -14.066667
    },
    {
        "name": "Dingirie",
        "country": "The Gambia",
        "province": "Central River",
        "population": 512,
        "latitude": 13.766667,
        "longitude": -14.916667
    },
    {
        "name": "Diganteh",
        "country": "The Gambia",
        "province": "Lower River",
        "population": 701,
        "latitude": 13.366667,
        "longitude": -15.433333
    },
    {
        "name": "Diabugu Basilla",
        "country": "The Gambia",
        "province": "Upper River",
        "population": 1199,
        "latitude": 13.333333,
        "longitude": -13.95
    },
    {
        "name": "Denton",
        "country": "The Gambia",
        "province": "Central River",
        "population": 1712,
        "latitude": 13.5,
        "longitude": -14.933333
    },
    {
        "name": "Demfai Njaga",
        "country": "The Gambia",
        "province": "Central River",
        "population": 385,
        "latitude": 13.616667,
        "longitude": -14.65
    },
    {
        "name": "Demfai Karim",
        "country": "The Gambia",
        "province": "Central River",
        "population": 28,
        "latitude": 13.633333,
        "longitude": -14.65
    },
    {
        "name": "Demba Kumbale",
        "country": "The Gambia",
        "province": "Upper River",
        "population": -1,
        "latitude": 13.466667,
        "longitude": -13.85
    },
    {
        "name": "Demba Kali",
        "country": "The Gambia",
        "province": "Central River",
        "population": 166,
        "latitude": 13.583333,
        "longitude": -14.65
    },
    {
        "name": "Dasilami",
        "country": "The Gambia",
        "province": "Central River",
        "population": -1,
        "latitude": 13.666667,
        "longitude": -15.1
    },
    {
        "name": "Dasilami",
        "country": "The Gambia",
        "province": "North Bank",
        "population": -1,
        "latitude": 13.5305556,
        "longitude": -16.1363889
    },
    {
        "name": "Dasilami",
        "country": "The Gambia",
        "province": "Lower River",
        "population": -1,
        "latitude": 13.483333,
        "longitude": -15.233333
    },
    {
        "name": "Daru Rilwan",
        "country": "The Gambia",
        "province": "North Bank",
        "population": 1045,
        "latitude": 13.55,
        "longitude": -15.983333
    },
    {
        "name": "Darsilame Key Koro",
        "country": "The Gambia",
        "province": "Upper River",
        "population": -1,
        "latitude": 13.266667,
        "longitude": -14.15
    },
    {
        "name": "Dai Mandinka",
        "country": "The Gambia",
        "province": "North Bank",
        "population": 295,
        "latitude": 13.55,
        "longitude": -15.816667
    },
    {
        "name": "Bureng",
        "country": "The Gambia",
        "province": "Lower River",
        "population": 1472,
        "latitude": 13.416667,
        "longitude": -15.283333
    },
    {
        "name": "Bullellai",
        "country": "The Gambia",
        "province": "Western",
        "population": -1,
        "latitude": 13.1922222,
        "longitude": -16.2372222
    },
    {
        "name": "Buiba Mandinka",
        "country": "The Gambia",
        "province": "Lower River",
        "population": 503,
        "latitude": 13.433333,
        "longitude": -15.45
    },
    {
        "name": "Brikama Nding",
        "country": "The Gambia",
        "province": "Central River",
        "population": 1092,
        "latitude": 13.533333,
        "longitude": -14.933333
    },
    {
        "name": "Bondali Tenda",
        "country": "The Gambia",
        "province": "Western",
        "population": 182,
        "latitude": 13.25,
        "longitude": -15.9
    },
    {
        "name": "Bondali Jola",
        "country": "The Gambia",
        "province": "Western",
        "population": -1,
        "latitude": 13.233333,
        "longitude": -15.916667
    },
    {
        "name": "Bissari Madi",
        "country": "The Gambia",
        "province": "Western",
        "population": -1,
        "latitude": 13.2,
        "longitude": -15.9
    },
    {
        "name": "Birong Kunda",
        "country": "The Gambia",
        "province": "North Bank",
        "population": 148,
        "latitude": 13.583333,
        "longitude": -15.783333
    },
    {
        "name": "Bintang",
        "country": "The Gambia",
        "province": "Western",
        "population": -1,
        "latitude": 13.2497222,
        "longitude": -16.2141667
    },
    {
        "name": "Berry Narbeh",
        "country": "The Gambia",
        "province": "Upper River",
        "population": 152,
        "latitude": 13.45,
        "longitude": -14.383333
    },
    {
        "name": "Berending",
        "country": "The Gambia",
        "province": "North Bank",
        "population": -1,
        "latitude": 13.490278,
        "longitude": -16.464444
    },
    {
        "name": "Beeta Bukafungi",
        "country": "The Gambia",
        "province": "Western",
        "population": -1,
        "latitude": 13.190556,
        "longitude": -16.2875
    },
    {
        "name": "Bati Yungo",
        "country": "The Gambia",
        "province": "Central River",
        "population": 138,
        "latitude": 13.716667,
        "longitude": -15.2
    },
    {
        "name": "Bati Ndar",
        "country": "The Gambia",
        "province": "Central River",
        "population": 822,
        "latitude": 13.7,
        "longitude": -15.2
    },
    {
        "name": "Batending Kajara",
        "country": "The Gambia",
        "province": "Western",
        "population": -1,
        "latitude": 13.256667,
        "longitude": -16.317778
    },
    {
        "name": "Bantanto Jawara Jallow",
        "country": "The Gambia",
        "province": "Central River",
        "population": -1,
        "latitude": 13.7,
        "longitude": -15.25
    },
    {
        "name": "Bantang Killing",
        "country": "The Gambia",
        "province": "North Bank",
        "population": 792,
        "latitude": 13.583333,
        "longitude": -15.7
    },
    {
        "name": "Bambako",
        "country": "The Gambia",
        "province": "Lower River",
        "population": 381,
        "latitude": 13.4,
        "longitude": -15.766667
    },
    {
        "name": "Balingho",
        "country": "The Gambia",
        "province": "North Bank",
        "population": 252,
        "latitude": 13.49341,
        "longitude": -15.60692
    },
    {
        "name": "Balanghar Wharf Town",
        "country": "The Gambia",
        "province": "Central River",
        "population": 22,
        "latitude": 13.66716,
        "longitude": -15.36238
    },
    {
        "name": "Balanghar Ker N’Derry",
        "country": "The Gambia",
        "province": "Central River",
        "population": -1,
        "latitude": 13.66411,
        "longitude": -15.39936
    },
    {
        "name": "Bakoti",
        "country": "The Gambia",
        "province": "Western",
        "population": -1,
        "latitude": 13.43,
        "longitude": -16.6983333
    },
    {
        "name": "Bakalarr",
        "country": "The Gambia",
        "province": "North Bank",
        "population": -1,
        "latitude": 13.421667,
        "longitude": -16.426667
    },
    {
        "name": "Bajana",
        "country": "The Gambia",
        "province": "Lower River",
        "population": 907,
        "latitude": 13.316667,
        "longitude": -15.883333
    },
    {
        "name": "Bai Ba",
        "country": "The Gambia",
        "province": "Central River",
        "population": -1,
        "latitude": 13.5,
        "longitude": -14.5
    },
    {
        "name": "Ahalulie",
        "country": "The Gambia",
        "province": "Central River",
        "population": -1,
        "latitude": 13.466667,
        "longitude": -14.916667
    },
    {
        "name": "Yuna",
        "country": "The Gambia",
        "province": "North Bank",
        "population": -1,
        "latitude": 13.583333,
        "longitude": -15.7
    },
    {
        "name": "Yonah",
        "country": "The Gambia",
        "province": "Central River",
        "population": -1,
        "latitude": 13.533333,
        "longitude": -14.683333
    },
    {
        "name": "Yarobawal",
        "country": "The Gambia",
        "province": "Upper River",
        "population": -1,
        "latitude": 13.433333,
        "longitude": -14.216667
    },
    {
        "name": "Yallal Ba",
        "country": "The Gambia",
        "province": "North Bank",
        "population": 363,
        "latitude": 13.583333,
        "longitude": -15.566667
    },
    {
        "name": "Wulumisa",
        "country": "The Gambia",
        "province": "Lower River",
        "population": -1,
        "latitude": 13.416667,
        "longitude": -16.116667
    },
    {
        "name": "Willingara Samba Tako",
        "country": "The Gambia",
        "province": "Upper River",
        "population": -1,
        "latitude": 13.3,
        "longitude": -14.2
    },
    {
        "name": "Willingara Kejaw",
        "country": "The Gambia",
        "province": "Central River",
        "population": -1,
        "latitude": 13.55,
        "longitude": -14.933333
    },
    {
        "name": "Willingara Ba",
        "country": "The Gambia",
        "province": "Lower River",
        "population": -1,
        "latitude": 13.4,
        "longitude": -15.266667
    },
    {
        "name": "Wellingara Mansal",
        "country": "The Gambia",
        "province": "Upper River",
        "population": -1,
        "latitude": 13.25,
        "longitude": -14.366667
    },
    {
        "name": "Wellingara Bubacarr Bah",
        "country": "The Gambia",
        "province": "Central River",
        "population": 283,
        "latitude": 13.733333,
        "longitude": -15.15
    },
    {
        "name": "Wellingara Adama",
        "country": "The Gambia",
        "province": "Central River",
        "population": 219,
        "latitude": 13.45,
        "longitude": -14.883333
    },
    {
        "name": "Wassu",
        "country": "The Gambia",
        "province": "Central River",
        "population": 1380,
        "latitude": 13.690939363034667,
        "longitude": -14.878835678100586
    },
    {
        "name": "Wassadung Demba",
        "country": "The Gambia",
        "province": "Upper River",
        "population": -1,
        "latitude": 13.3,
        "longitude": -14.45
    },
    {
        "name": "Walliba Kunda",
        "country": "The Gambia",
        "province": "Upper River",
        "population": 646,
        "latitude": 13.366667,
        "longitude": -14.016667
    },
    {
        "name": "Ture Kunda",
        "country": "The Gambia",
        "province": "Upper River",
        "population": -1,
        "latitude": 13.333333,
        "longitude": -14.516667
    },
    {
        "name": "Tuba Tafsir",
        "country": "The Gambia",
        "province": "Upper River",
        "population": -1,
        "latitude": 13.283333,
        "longitude": -14.15
    },
    {
        "name": "Tubanding",
        "country": "The Gambia",
        "province": "Upper River",
        "population": 120,
        "latitude": 13.416667,
        "longitude": -13.883333
    },
    {
        "name": "Tuba Kuta",
        "country": "The Gambia",
        "province": "Upper River",
        "population": -1,
        "latitude": 13.366667,
        "longitude": -14
    },
    {
        "name": "Tuba Kolong",
        "country": "The Gambia",
        "province": "North Bank",
        "population": -1,
        "latitude": 13.366111,
        "longitude": -16.465278
    },
    {
        "name": "Toro Mbaien",
        "country": "The Gambia",
        "province": "North Bank",
        "population": -1,
        "latitude": 13.5580556,
        "longitude": -16.0705556
    },
    {
        "name": "Torbeh Chindeh",
        "country": "The Gambia",
        "province": "Upper River",
        "population": -1,
        "latitude": 13.466667,
        "longitude": -14.383333
    },
    {
        "name": "Tinkinjo",
        "country": "The Gambia",
        "province": "Upper River",
        "population": 334,
        "latitude": 13.3,
        "longitude": -14.166667
    },
    {
        "name": "Timpa",
        "country": "The Gambia",
        "province": "Central River",
        "population": -1,
        "latitude": 13.616667,
        "longitude": -14.633333
    },
    {
        "name": "Timbintu",
        "country": "The Gambia",
        "province": "Upper River",
        "population": 62,
        "latitude": 13.383333,
        "longitude": -14.466667
    },
    {
        "name": "Tento Malick Bah",
        "country": "The Gambia",
        "province": "Central River",
        "population": 87,
        "latitude": 13.783333,
        "longitude": -15.083333
    },
    {
        "name": "Tento Madi",
        "country": "The Gambia",
        "province": "Central River",
        "population": -1,
        "latitude": 13.783333,
        "longitude": -15.1
    },
    {
        "name": "Tendaba",
        "country": "The Gambia",
        "province": "Lower River",
        "population": 420,
        "latitude": 13.433333,
        "longitude": -15.816667
    },
    {
        "name": "Temanto",
        "country": "The Gambia",
        "province": "Upper River",
        "population": 158,
        "latitude": 13.383333,
        "longitude": -13.916667
    },
    {
        "name": "Tawa Kaltu",
        "country": "The Gambia",
        "province": "North Bank",
        "population": 182,
        "latitude": 13.5936111,
        "longitude": -16.0416667
    },
    {
        "name": "Tasili",
        "country": "The Gambia",
        "province": "Central River",
        "population": -1,
        "latitude": 13.566667,
        "longitude": -14.616667
    },
    {
        "name": "Tally Ya",
        "country": "The Gambia",
        "province": "North Bank",
        "population": 157,
        "latitude": 13.583333,
        "longitude": -15.716667
    },
    {
        "name": "Tallen",
        "country": "The Gambia",
        "province": "North Bank",
        "population": 308,
        "latitude": 13.5786111,
        "longitude": -16.1761111
    },
    {
        "name": "Talito Musa",
        "country": "The Gambia",
        "province": "Upper River",
        "population": -1,
        "latitude": 13.283333,
        "longitude": -14.283333
    },
    {
        "name": "Talito Luntang",
        "country": "The Gambia",
        "province": "Upper River",
        "population": -1,
        "latitude": 13.266667,
        "longitude": -14.283333
    },
    {
        "name": "Tabo Kotor",
        "country": "The Gambia",
        "province": "Western",
        "population": -1,
        "latitude": 13.4075,
        "longitude": -16.6672222
    },
    {
        "name": "Tabajang Kisimasu",
        "country": "The Gambia",
        "province": "Upper River",
        "population": -1,
        "latitude": 13.533333,
        "longitude": -14.083333
    },
    {
        "name": "Suma Kunda Koto",
        "country": "The Gambia",
        "province": "Western",
        "population": -1,
        "latitude": 13.2266667,
        "longitude": -16.4933333
    },
    {
        "name": "Sulolor Fula Kunda",
        "country": "The Gambia",
        "province": "Central River",
        "population": -1,
        "latitude": 13.45,
        "longitude": -14.683333
    },
    {
        "name": "Suarra Kunda",
        "country": "The Gambia",
        "province": "North Bank",
        "population": -1,
        "latitude": 13.5069444,
        "longitude": -16.0822222
    },
    {
        "name": "Sotuma Sainy",
        "country": "The Gambia",
        "province": "Upper River",
        "population": -1,
        "latitude": 13.3,
        "longitude": -14.333333
    },
    {
        "name": "Sortokoi",
        "country": "The Gambia",
        "province": "Western",
        "population": -1,
        "latitude": 13.3705556,
        "longitude": -16.7444444
    },
    {
        "name": "Somita Saniang Kunda",
        "country": "The Gambia",
        "province": "Western",
        "population": -1,
        "latitude": 13.216667,
        "longitude": -16.3
    },
    {
        "name": "Sittanunku",
        "country": "The Gambia",
        "province": "North Bank",
        "population": -1,
        "latitude": 13.383889,
        "longitude": -16.463611
    },
    {
        "name": "Sittanunku",
        "country": "The Gambia",
        "province": "Western",
        "population": -1,
        "latitude": 13.1858333,
        "longitude": -16.1302778
    },
    {
        "name": "Sitta",
        "country": "The Gambia",
        "province": "Western",
        "population": -1,
        "latitude": 13.2336111,
        "longitude": -16.1622222
    },
    {
        "name": "Sintet",
        "country": "The Gambia",
        "province": "Western",
        "population": 979,
        "latitude": 13.233333,
        "longitude": -15.816667
    },
    {
        "name": "Sinchu Gundo",
        "country": "The Gambia",
        "province": "Central River",
        "population": 378,
        "latitude": 13.616667,
        "longitude": -15.033333
    },
    {
        "name": "Sinchu Garrba",
        "country": "The Gambia",
        "province": "Central River",
        "population": -1,
        "latitude": 13.666667,
        "longitude": -14.833333
    },
    {
        "name": "Sinchu Dembel",
        "country": "The Gambia",
        "province": "Central River",
        "population": 221,
        "latitude": 13.5,
        "longitude": -14.883333
    },
    {
        "name": "Sinchu Bora",
        "country": "The Gambia",
        "province": "Central River",
        "population": 250,
        "latitude": 13.5,
        "longitude": -14.833333
    },
    {
        "name": "Sinchu Baya",
        "country": "The Gambia",
        "province": "Central River",
        "population": 262,
        "latitude": 13.75,
        "longitude": -15.066667
    },
    {
        "name": "Sinchu Bamba",
        "country": "The Gambia",
        "province": "Central River",
        "population": 297,
        "latitude": 13.533333,
        "longitude": -14.916667
    },
    {
        "name": "Sinchu Alpha Sain",
        "country": "The Gambia",
        "province": "Central River",
        "population": -1,
        "latitude": 13.6,
        "longitude": -15.033333
    },
    {
        "name": "Sika Bajonkoto",
        "country": "The Gambia",
        "province": "North Bank",
        "population": -1,
        "latitude": 13.354722,
        "longitude": -16.345833
    },
    {
        "name": "Sika Baduma",
        "country": "The Gambia",
        "province": "North Bank",
        "population": -1,
        "latitude": 13.35,
        "longitude": -16.338333
    },
    {
        "name": "Shindifula",
        "country": "The Gambia",
        "province": "Western",
        "population": -1,
        "latitude": 13.233333,
        "longitude": -16.1
    },
    {
        "name": "Sering Sahor",
        "country": "The Gambia",
        "province": "Central River",
        "population": -1,
        "latitude": 13.45,
        "longitude": -14.833333
    },
    {
        "name": "Sare Yorrori",
        "country": "The Gambia",
        "province": "Upper River",
        "population": -1,
        "latitude": 13.433333,
        "longitude": -14.316667
    },
    {
        "name": "Sare Yesu",
        "country": "The Gambia",
        "province": "Upper River",
        "population": -1,
        "latitude": 13.383333,
        "longitude": -13.966667
    },
    {
        "name": "Sare Wonku",
        "country": "The Gambia",
        "province": "Upper River",
        "population": -1,
        "latitude": 13.416667,
        "longitude": -14.316667
    },
    {
        "name": "Sare Sofi",
        "country": "The Gambia",
        "province": "Central River",
        "population": -1,
        "latitude": 13.416667,
        "longitude": -14.516667
    },
    {
        "name": "Sare Sarko",
        "country": "The Gambia",
        "province": "Upper River",
        "population": -1,
        "latitude": 13.283333,
        "longitude": -14.316667
    },
    {
        "name": "Sare Sarjo Biloh",
        "country": "The Gambia",
        "province": "Upper River",
        "population": -1,
        "latitude": 13.25,
        "longitude": -14.4
    },
    {
        "name": "Sare Sandi",
        "country": "The Gambia",
        "province": "Upper River",
        "population": 174,
        "latitude": 13.533333,
        "longitude": -13.883333
    },
    {
        "name": "Sare Samba Ngai",
        "country": "The Gambia",
        "province": "Central River",
        "population": -1,
        "latitude": 13.616667,
        "longitude": -14.55
    },
    {
        "name": "Sare Samba",
        "country": "The Gambia",
        "province": "Central River",
        "population": -1,
        "latitude": 13.6,
        "longitude": -15.033333
    },
    {
        "name": "Sare Sajo",
        "country": "The Gambia",
        "province": "Lower River",
        "population": 208,
        "latitude": 13.366667,
        "longitude": -15.7
    },
    {
        "name": "Sare Saidy",
        "country": "The Gambia",
        "province": "Lower River",
        "population": 128,
        "latitude": 13.366667,
        "longitude": -15.566667
    },
    {
        "name": "Sare Pateh",
        "country": "The Gambia",
        "province": "Lower River",
        "population": -1,
        "latitude": 13.366667,
        "longitude": -15.383333
    },
    {
        "name": "Sare Parteh Jameh",
        "country": "The Gambia",
        "province": "Upper River",
        "population": -1,
        "latitude": 13.266667,
        "longitude": -14.433333
    },
    {
        "name": "Sare Njagga",
        "country": "The Gambia",
        "province": "Central River",
        "population": -1,
        "latitude": 13.5,
        "longitude": -14.816667
    },
    {
        "name": "Sare N’Gai",
        "country": "The Gambia",
        "province": "Upper River",
        "population": -1,
        "latitude": 13.5,
        "longitude": -14.433333
    },
    {
        "name": "Sare Mowdeh",
        "country": "The Gambia",
        "province": "Central River",
        "population": -1,
        "latitude": 13.45,
        "longitude": -14.866667
    },
    {
        "name": "Sare Mamoudu",
        "country": "The Gambia",
        "province": "Lower River",
        "population": -1,
        "latitude": 13.366667,
        "longitude": -15.716667
    },
    {
        "name": "Sare Malang",
        "country": "The Gambia",
        "province": "Central River",
        "population": 184,
        "latitude": 13.55,
        "longitude": -15.016667
    },
    {
        "name": "Sare Louba",
        "country": "The Gambia",
        "province": "Central River",
        "population": 204,
        "latitude": 13.533333,
        "longitude": -15.033333
    },
    {
        "name": "Sare Juley",
        "country": "The Gambia",
        "province": "Upper River",
        "population": -1,
        "latitude": 13.333333,
        "longitude": -14.066667
    },
    {
        "name": "Sare Jawbeh",
        "country": "The Gambia",
        "province": "Upper River",
        "population": -1,
        "latitude": 13.25,
        "longitude": -14.383333
    },
    {
        "name": "Sare Jatta",
        "country": "The Gambia",
        "province": "Upper River",
        "population": 179,
        "latitude": 13.283333,
        "longitude": -14.316667
    },
    {
        "name": "Sare Jallow",
        "country": "The Gambia",
        "province": "Upper River",
        "population": 146,
        "latitude": 13.45,
        "longitude": -14.433333
    },
    {
        "name": "Sare Hamady",
        "country": "The Gambia",
        "province": "Upper River",
        "population": -1,
        "latitude": 13.483333,
        "longitude": -14.2
    },
    {
        "name": "Sare Gubbu",
        "country": "The Gambia",
        "province": "Upper River",
        "population": -1,
        "latitude": 13.45,
        "longitude": -14.366667
    },
    {
        "name": "Sare Galajo",
        "country": "The Gambia",
        "province": "Central River",
        "population": -1,
        "latitude": 13.683333,
        "longitude": -15.233333
    },
    {
        "name": "Sare Futa",
        "country": "The Gambia",
        "province": "Central River",
        "population": -1,
        "latitude": 13.483333,
        "longitude": -14.883333
    },
    {
        "name": "Sare Demba",
        "country": "The Gambia",
        "province": "Upper River",
        "population": -1,
        "latitude": 13.533333,
        "longitude": -13.933333
    },
    {
        "name": "Sare Buhum",
        "country": "The Gambia",
        "province": "Upper River",
        "population": -1,
        "latitude": 13.55,
        "longitude": -13.95
    },
    {
        "name": "Sare Bakary Demba",
        "country": "The Gambia",
        "province": "Central River",
        "population": -1,
        "latitude": 13.4,
        "longitude": -14.6
    },
    {
        "name": "Sare Bakary",
        "country": "The Gambia",
        "province": "Upper River",
        "population": 172,
        "latitude": 13.316667,
        "longitude": -14.516667
    },
    {
        "name": "Sare Amady Jabel",
        "country": "The Gambia",
        "province": "Upper River",
        "population": -1,
        "latitude": 13.316667,
        "longitude": -14.55
    },
    {
        "name": "Sara Mama",
        "country": "The Gambia",
        "province": "North Bank",
        "population": -1,
        "latitude": 13.419167,
        "longitude": -16.355833
    },
    {
        "name": "Sapu",
        "country": "The Gambia",
        "province": "Central River",
        "population": 444,
        "latitude": 13.55,
        "longitude": -14.9
    },
    {
        "name": "Santamba Wharf",
        "country": "The Gambia",
        "province": "Lower River",
        "population": 21,
        "latitude": 13.2961111,
        "longitude": -16.1333333
    },
    {
        "name": "Sanneh Kunda",
        "country": "The Gambia",
        "province": "Western",
        "population": 31,
        "latitude": 13.233333,
        "longitude": -15.866667
    },
    {
        "name": "Saniang Kunda",
        "country": "The Gambia",
        "province": "Western",
        "population": -1,
        "latitude": 13.166667,
        "longitude": -15.9
    },
    {
        "name": "Sandeng",
        "country": "The Gambia",
        "province": "Lower River",
        "population": 306,
        "latitude": 13.266667,
        "longitude": -15.816667
    },
    {
        "name": "Sam Ngaien",
        "country": "The Gambia",
        "province": "Central River",
        "population": 270,
        "latitude": 13.45,
        "longitude": -14.783333
    },
    {
        "name": "Sami Koto",
        "country": "The Gambia",
        "province": "North Bank",
        "population": -1,
        "latitude": 13.388333,
        "longitude": -16.316667
    },
    {
        "name": "Sami",
        "country": "The Gambia",
        "province": "Central River",
        "population": 2794,
        "latitude": 13.583333,
        "longitude": -15.2
    },
    {
        "name": "Samba Tako",
        "country": "The Gambia",
        "province": "Central River",
        "population": -1,
        "latitude": 13.516667,
        "longitude": -14.6
    },
    {
        "name": "Sambantalu",
        "country": "The Gambia",
        "province": "Upper River",
        "population": -1,
        "latitude": 13.3,
        "longitude": -14.066667
    },
    {
        "name": "Samba Musu",
        "country": "The Gambia",
        "province": "North Bank",
        "population": 64,
        "latitude": 13.5908333,
        "longitude": -16.0583333
    },
    {
        "name": "Safalu",
        "country": "The Gambia",
        "province": "Central River",
        "population": 188,
        "latitude": 13.716667,
        "longitude": -14.983333
    },
    {
        "name": "Sabu Sirae",
        "country": "The Gambia",
        "province": "Central River",
        "population": -1,
        "latitude": 13.5,
        "longitude": -14.883333
    },
    {
        "name": "Sabi",
        "country": "The Gambia",
        "province": "Upper River",
        "population": 7738,
        "latitude": 13.233333,
        "longitude": -14.2
    },
    {
        "name": "Sabally Kunda",
        "country": "The Gambia",
        "province": "Upper River",
        "population": 28,
        "latitude": 13.333333,
        "longitude": -14.4
    },
    {
        "name": "Saba",
        "country": "The Gambia",
        "province": "North Bank",
        "population": 1974,
        "latitude": 13.5163889,
        "longitude": -16.0491667
    },
    {
        "name": "Renerru",
        "country": "The Gambia",
        "province": "Central River",
        "population": -1,
        "latitude": 13.633333,
        "longitude": -14.55
    },
    {
        "name": "Ramatulai",
        "country": "The Gambia",
        "province": "Central River",
        "population": -1,
        "latitude": 13.766667,
        "longitude": -14.983333
    },
    {
        "name": "Porli",
        "country": "The Gambia",
        "province": "Central River",
        "population": -1,
        "latitude": 13.783333,
        "longitude": -15.133333
    },
    {
        "name": "Plinky Wopp",
        "country": "The Gambia",
        "province": "Upper River",
        "population": -1,
        "latitude": 13.366667,
        "longitude": -14.3
    },
    {
        "name": "Penjem",
        "country": "The Gambia",
        "province": "Western",
        "population": -1,
        "latitude": 13.2166667,
        "longitude": -16.6266667
    },
    {
        "name": "Patchunko",
        "country": "The Gambia",
        "province": "Upper River",
        "population": -1,
        "latitude": 13.333333,
        "longitude": -14.383333
    },
    {
        "name": "Panne Ba",
        "country": "The Gambia",
        "province": "North Bank",
        "population": -1,
        "latitude": 13.5863889,
        "longitude": -16.0705556
    },
    {
        "name": "Panchang Madi Fana",
        "country": "The Gambia",
        "province": "Central River",
        "population": 307,
        "latitude": 13.783333,
        "longitude": -15.15
    },
    {
        "name": "Pallol Pol Ollof",
        "country": "The Gambia",
        "province": "Central River",
        "population": -1,
        "latitude": 13.766667,
        "longitude": -14.866667
    },
    {
        "name": "Pallan Mandinka",
        "country": "The Gambia",
        "province": "Central River",
        "population": -1,
        "latitude": 13.666667,
        "longitude": -14.866667
    },
    {
        "name": "Palen Sanjal",
        "country": "The Gambia",
        "province": "North Bank",
        "population": -1,
        "latitude": 13.566667,
        "longitude": -15.433333
    },
    {
        "name": "Pakela Demba Colleh",
        "country": "The Gambia",
        "province": "North Bank",
        "population": -1,
        "latitude": 13.43,
        "longitude": -16.394444
    },
    {
        "name": "Pakali Nding",
        "country": "The Gambia",
        "province": "Lower River",
        "population": -1,
        "latitude": 13.466667,
        "longitude": -15.55
    },
    {
        "name": "Pancholi",
        "country": "The Gambia",
        "province": "Western",
        "population": -1,
        "latitude": 13.2958333,
        "longitude": -16.7469444
    },
    {
        "name": "Pancholi",
        "country": "The Gambia",
        "province": "Western",
        "population": -1,
        "latitude": 13.2869444,
        "longitude": -16.7541667
    },
    {
        "name": "Pancholi",
        "country": "The Gambia",
        "province": "Western",
        "population": -1,
        "latitude": 13.2905556,
        "longitude": -16.7477778
    },
    {
        "name": "Old Jeswang",
        "country": "The Gambia",
        "province": "Banjul",
        "population": -1,
        "latitude": 13.458611,
        "longitude": -16.663333
    },
    {
        "name": "Nyofelleh Manjago",
        "country": "The Gambia",
        "province": "Western",
        "population": -1,
        "latitude": 13.2333333,
        "longitude": -16.7
    },
    {
        "name": "Nyofelleh Madina",
        "country": "The Gambia",
        "province": "Western",
        "population": -1,
        "latitude": 13.2258333,
        "longitude": -16.7091667
    },
    {
        "name": "Nyirba",
        "country": "The Gambia",
        "province": "North Bank",
        "population": -1,
        "latitude": 13.583333,
        "longitude": -15.866667
    },
    {
        "name": "Nyamanari",
        "country": "The Gambia",
        "province": "Upper River",
        "population": 2090,
        "latitude": 13.333333,
        "longitude": -13.866667
    },
    {
        "name": "Nowleru",
        "country": "The Gambia",
        "province": "North Bank",
        "population": -1,
        "latitude": 13.583333,
        "longitude": -15.933333
    },
    {
        "name": "No Kunda Fula",
        "country": "The Gambia",
        "province": "North Bank",
        "population": -1,
        "latitude": 13.583333,
        "longitude": -15.833333
    },
    {
        "name": "No Kunda",
        "country": "The Gambia",
        "province": "North Bank",
        "population": 1913,
        "latitude": 13.566667,
        "longitude": -15.833333
    },
    {
        "name": "Njolfen",
        "country": "The Gambia",
        "province": "Lower River",
        "population": 428,
        "latitude": 13.366667,
        "longitude": -15.65
    },
    {
        "name": "Njoben Wollof",
        "country": "The Gambia",
        "province": "Central River",
        "population": -1,
        "latitude": 13.783333,
        "longitude": -14.966667
    },
    {
        "name": "Njoben Tukulor",
        "country": "The Gambia",
        "province": "Central River",
        "population": 160,
        "latitude": 13.783333,
        "longitude": -14.966667
    },
    {
        "name": "Njau Jahu",
        "country": "The Gambia",
        "province": "Central River",
        "population": -1,
        "latitude": 13.733333,
        "longitude": -15.15
    },
    {
        "name": "Njau",
        "country": "The Gambia",
        "province": "Central River",
        "population": -1,
        "latitude": 13.75,
        "longitude": -15.216667
    },
    {
        "name": "N’Jarry Njoffa",
        "country": "The Gambia",
        "province": "Upper River",
        "population": -1,
        "latitude": 13.283333,
        "longitude": -14.383333
    },
    {
        "name": "N’Jameng Kunda",
        "country": "The Gambia",
        "province": "Central River",
        "population": -1,
        "latitude": 13.433333,
        "longitude": -14.583333
    },
    {
        "name": "N’Ja Kunda",
        "country": "The Gambia",
        "province": "Upper River",
        "population": -1,
        "latitude": 13.466667,
        "longitude": -14.183333
    },
    {
        "name": "Njai Kunda",
        "country": "The Gambia",
        "province": "Central River",
        "population": 103,
        "latitude": 13.616667,
        "longitude": -15.1
    },
    {
        "name": "Njai Kunda",
        "country": "The Gambia",
        "province": "Central River",
        "population": -1,
        "latitude": 13.483333,
        "longitude": -14.8
    },
    {
        "name": "Njaga Jarry",
        "country": "The Gambia",
        "province": "Upper River",
        "population": -1,
        "latitude": 13.416667,
        "longitude": -14.483333
    },
    {
        "name": "Nioro Bamba",
        "country": "The Gambia",
        "province": "Central River",
        "population": -1,
        "latitude": 13.8,
        "longitude": -15.05
    },
    {
        "name": "Nioro",
        "country": "The Gambia",
        "province": "Lower River",
        "population": 1746,
        "latitude": 13.35,
        "longitude": -15.75
    },
    {
        "name": "Niambolon",
        "country": "The Gambia",
        "province": "Western",
        "population": -1,
        "latitude": 13.171111,
        "longitude": -16.253333
    },
    {
        "name": "N’Geyen",
        "country": "The Gambia",
        "province": "North Bank",
        "population": -1,
        "latitude": 13.516667,
        "longitude": -16.35
    },
    {
        "name": "Ngeden",
        "country": "The Gambia",
        "province": "Central River",
        "population": 219,
        "latitude": 13.75,
        "longitude": -15.083333
    },
    {
        "name": "N’Gayen",
        "country": "The Gambia",
        "province": "Central River",
        "population": 330,
        "latitude": 13.4,
        "longitude": -14.733333
    },
    {
        "name": "Ngaien Beretto",
        "country": "The Gambia",
        "province": "North Bank",
        "population": -1,
        "latitude": 13.55,
        "longitude": -15.583333
    },
    {
        "name": "Nema Kunda",
        "country": "The Gambia",
        "province": "Central River",
        "population": -1,
        "latitude": 13.65,
        "longitude": -14.833333
    },
    {
        "name": "N’Dungu Charen",
        "country": "The Gambia",
        "province": "North Bank",
        "population": -1,
        "latitude": 13.558611,
        "longitude": -16.351667
    },
    {
        "name": "N’Ding Madina",
        "country": "The Gambia",
        "province": "Upper River",
        "population": -1,
        "latitude": 13.366667,
        "longitude": -14.2
    },
    {
        "name": "Ndimbo",
        "country": "The Gambia",
        "province": "Upper River",
        "population": -1,
        "latitude": 13.333333,
        "longitude": -14.033333
    },
    {
        "name": "Ndanka Ndanka",
        "country": "The Gambia",
        "province": "North Bank",
        "population": -1,
        "latitude": 13.516667,
        "longitude": -15.633333
    },
    {
        "name": "Musa Kunda",
        "country": "The Gambia",
        "province": "Upper River",
        "population": 168,
        "latitude": 13.55,
        "longitude": -13.95
    },
    {
        "name": "Monong",
        "country": "The Gambia",
        "province": "Western",
        "population": -1,
        "latitude": 13.1908333,
        "longitude": -16.0641667
    },
    {
        "name": "Momadu Kunda",
        "country": "The Gambia",
        "province": "Upper River",
        "population": -1,
        "latitude": 13.333333,
        "longitude": -14.266667
    },
    {
        "name": "Modu Jawo Kunda",
        "country": "The Gambia",
        "province": "Upper River",
        "population": 140,
        "latitude": 13.55,
        "longitude": -13.9
    },
    {
        "name": "Misira Toben",
        "country": "The Gambia",
        "province": "Central River",
        "population": -1,
        "latitude": 13.616667,
        "longitude": -15.066667
    },
    {
        "name": "Misira Fafa Jow",
        "country": "The Gambia",
        "province": "Central River",
        "population": -1,
        "latitude": 13.7,
        "longitude": -15.233333
    },
    {
        "name": "Misera",
        "country": "The Gambia",
        "province": "Central River",
        "population": -1,
        "latitude": 13.55,
        "longitude": -14.95
    },
    {
        "name": "Misera",
        "country": "The Gambia",
        "province": "Central River",
        "population": -1,
        "latitude": 13.416667,
        "longitude": -14.7
    },
    {
        "name": "Misera",
        "country": "The Gambia",
        "province": "Upper River",
        "population": -1,
        "latitude": 13.333333,
        "longitude": -13.95
    },
    {
        "name": "Medina Suware Kunda",
        "country": "The Gambia",
        "province": "Western",
        "population": -1,
        "latitude": 13.315,
        "longitude": -16.665
    },
    {
        "name": "Medina Sering Njie",
        "country": "The Gambia",
        "province": "Central River",
        "population": -1,
        "latitude": 13.783333,
        "longitude": -15.083333
    },
    {
        "name": "Medina Kanuma",
        "country": "The Gambia",
        "province": "North Bank",
        "population": 764,
        "latitude": 13.4927778,
        "longitude": -16.5233333
    },
    {
        "name": "Medina-Duisi",
        "country": "The Gambia",
        "province": "Central River",
        "population": -1,
        "latitude": 13.733333,
        "longitude": -15.283333
    },
    {
        "name": "M’Bollet N’Ding",
        "country": "The Gambia",
        "province": "North Bank",
        "population": -1,
        "latitude": 13.523611,
        "longitude": -16.466389
    },
    {
        "name": "MBangkama",
        "country": "The Gambia",
        "province": "North Bank",
        "population": -1,
        "latitude": 13.5441667,
        "longitude": -16.5055556
    },
    {
        "name": "Mbamori Kunda",
        "country": "The Gambia",
        "province": "North Bank",
        "population": 212,
        "latitude": 13.5816667,
        "longitude": -16.0036111
    },
    {
        "name": "M’Baien Fulla",
        "country": "The Gambia",
        "province": "Central River",
        "population": -1,
        "latitude": 13.716667,
        "longitude": -14.816667
    },
    {
        "name": "Mayork",
        "country": "The Gambia",
        "province": "Western",
        "population": 528,
        "latitude": 13.233333,
        "longitude": -15.966667
    },
    {
        "name": "Mayamba",
        "country": "The Gambia",
        "province": "North Bank",
        "population": -1,
        "latitude": 13.4941667,
        "longitude": -16.5169444
    },
    {
        "name": "Massembe",
        "country": "The Gambia",
        "province": "Lower River",
        "population": 938,
        "latitude": 13.416667,
        "longitude": -15.633333
    },
    {
        "name": "Mariama Kunda",
        "country": "The Gambia",
        "province": "Western",
        "population": -1,
        "latitude": 13.3644444,
        "longitude": -16.73
    },
    {
        "name": "Mara Magai",
        "country": "The Gambia",
        "province": "Central River",
        "population": 709,
        "latitude": 13.516667,
        "longitude": -14.916667
    },
    {
        "name": "Mano Kotor",
        "country": "The Gambia",
        "province": "Upper River",
        "population": -1,
        "latitude": 13.5,
        "longitude": -14.116667
    },
    {
        "name": "Manjai Kunda",
        "country": "The Gambia",
        "province": "Banjul",
        "population": -1,
        "latitude": 13.445278,
        "longitude": -16.702778
    },
    {
        "name": "Manduar",
        "country": "The Gambia",
        "province": "Western",
        "population": -1,
        "latitude": 13.2455556,
        "longitude": -16.6369444
    },
    {
        "name": "Mamu Fana",
        "country": "The Gambia",
        "province": "Central River",
        "population": -1,
        "latitude": 13.6,
        "longitude": -15.116667
    },
    {
        "name": "Maka Farafenni",
        "country": "The Gambia",
        "province": "North Bank",
        "population": -1,
        "latitude": 13.583333,
        "longitude": -15.633333
    },
    {
        "name": "Madina Njugari",
        "country": "The Gambia",
        "province": "Central River",
        "population": 400,
        "latitude": 13.65,
        "longitude": -15.316667
    },
    {
        "name": "Madina Njaine",
        "country": "The Gambia",
        "province": "Central River",
        "population": -1,
        "latitude": 13.75,
        "longitude": -14.883333
    },
    {
        "name": "Madina Kuta",
        "country": "The Gambia",
        "province": "Upper River",
        "population": 102,
        "latitude": 13.383333,
        "longitude": -13.866667
    },
    {
        "name": "Madina Fula Kunda",
        "country": "The Gambia",
        "province": "Upper River",
        "population": 242,
        "latitude": 13.416667,
        "longitude": -13.833333
    },
    {
        "name": "Madina Bala",
        "country": "The Gambia",
        "province": "Upper River",
        "population": 185,
        "latitude": 13.416667,
        "longitude": -13.85
    },
    {
        "name": "Madina",
        "country": "The Gambia",
        "province": "Upper River",
        "population": -1,
        "latitude": 13.45,
        "longitude": -14.483333
    },
    {
        "name": "Madina",
        "country": "The Gambia",
        "province": "Upper River",
        "population": -1,
        "latitude": 13.45,
        "longitude": -14.133333
    },
    {
        "name": "Madina",
        "country": "The Gambia",
        "province": "Lower River",
        "population": -1,
        "latitude": 13.3577778,
        "longitude": -16.1716667
    },
    {
        "name": "Madina",
        "country": "The Gambia",
        "province": "Lower River",
        "population": -1,
        "latitude": 13.266667,
        "longitude": -15.9
    },
    {
        "name": "Macca",
        "country": "The Gambia",
        "province": "Lower River",
        "population": -1,
        "latitude": 13.4,
        "longitude": -16.133333
    },
    {
        "name": "Mabali Kotor",
        "country": "The Gambia",
        "province": "Central River",
        "population": -1,
        "latitude": 13.416667,
        "longitude": -14.666667
    },
    {
        "name": "Lohen",
        "country": "The Gambia",
        "province": "North Bank",
        "population": -1,
        "latitude": 13.543889,
        "longitude": -16.364167
    },
    {
        "name": "Limbambulu",
        "country": "The Gambia",
        "province": "Upper River",
        "population": -1,
        "latitude": 13.433333,
        "longitude": -14.116667
    },
    {
        "name": "Limbambulu",
        "country": "The Gambia",
        "province": "Upper River",
        "population": -1,
        "latitude": 13.416667,
        "longitude": -14.133333
    },
    {
        "name": "Limbambulu",
        "country": "The Gambia",
        "province": "Upper River",
        "population": -1,
        "latitude": 13.416667,
        "longitude": -14.116667
    },
    {
        "name": "Leba Mali Mbye",
        "country": "The Gambia",
        "province": "Central River",
        "population": -1,
        "latitude": 13.75,
        "longitude": -15.166667
    },
    {
        "name": "Latri Kunda",
        "country": "The Gambia",
        "province": "Banjul",
        "population": -1,
        "latitude": 13.448611,
        "longitude": -16.685278
    },
    {
        "name": "Lamoi",
        "country": "The Gambia",
        "province": "Central River",
        "population": 121,
        "latitude": 13.433333,
        "longitude": -14.583333
    },
    {
        "name": "Lamin Koto",
        "country": "The Gambia",
        "province": "Central River",
        "population": -1,
        "latitude": 13.55,
        "longitude": -14.766667
    },
    {
        "name": "Lama",
        "country": "The Gambia",
        "province": "Central River",
        "population": 182,
        "latitude": 13.483333,
        "longitude": -14.8
    },
    {
        "name": "Kuyarang",
        "country": "The Gambia",
        "province": "Central River",
        "population": -1,
        "latitude": 13.666667,
        "longitude": -14.833333
    },
    {
        "name": "Kusassa",
        "country": "The Gambia",
        "province": "North Bank",
        "population": -1,
        "latitude": 13.566667,
        "longitude": -15.583333
    },
    {
        "name": "Kurup",
        "country": "The Gambia",
        "province": "Central River",
        "population": -1,
        "latitude": 13.5,
        "longitude": -14.716667
    },
    {
        "name": "Kurau Kemo Arfang",
        "country": "The Gambia",
        "province": "Upper River",
        "population": -1,
        "latitude": 13.4,
        "longitude": -14.416667
    },
    {
        "name": "Kurang Kotor",
        "country": "The Gambia",
        "province": "Lower River",
        "population": -1,
        "latitude": 13.316667,
        "longitude": -16.1
    },
    {
        "name": "Kuoba Kunda",
        "country": "The Gambia",
        "province": "Upper River",
        "population": -1,
        "latitude": 13.316667,
        "longitude": -14.233333
    },
    {
        "name": "Kuntaur Fula Kunda",
        "country": "The Gambia",
        "province": "Central River",
        "population": -1,
        "latitude": 13.65,
        "longitude": -14.866667
    },
    {
        "name": "Kuntair",
        "country": "The Gambia",
        "province": "North Bank",
        "population": -1,
        "latitude": 13.5363889,
        "longitude": -16.2244444
    },
    {
        "name": "Kunong Numu Kunda",
        "country": "The Gambia",
        "province": "Lower River",
        "population": -1,
        "latitude": 13.416667,
        "longitude": -15.716667
    },
    {
        "name": "Kunkujang Jattaya",
        "country": "The Gambia",
        "province": "Western",
        "population": -1,
        "latitude": 13.3472222,
        "longitude": -16.6005556
    },
    {
        "name": "Kunkujang",
        "country": "The Gambia",
        "province": "Western",
        "population": -1,
        "latitude": 13.3047222,
        "longitude": -16.6238889
    },
    {
        "name": "Kundam Demba",
        "country": "The Gambia",
        "province": "Upper River",
        "population": 396,
        "latitude": 13.333333,
        "longitude": -14.116667
    },
    {
        "name": "Kunda",
        "country": "The Gambia",
        "province": "Central River",
        "population": -1,
        "latitude": 13.783333,
        "longitude": -15.116667
    },
    {
        "name": "Kumbaney",
        "country": "The Gambia",
        "province": "Central River",
        "population": -1,
        "latitude": 13.6,
        "longitude": -15.216667
    },
    {
        "name": "Kujew",
        "country": "The Gambia",
        "province": "Central River",
        "population": 206,
        "latitude": 13.55,
        "longitude": -14.7
    },
    {
        "name": "Kucha",
        "country": "The Gambia",
        "province": "Central River",
        "population": 123,
        "latitude": 13.766667,
        "longitude": -15.016667
    },
    {
        "name": "Kubuni",
        "country": "The Gambia",
        "province": "Western",
        "population": -1,
        "latitude": 13.3241667,
        "longitude": -16.6052778
    },
    {
        "name": "Kossemar",
        "country": "The Gambia",
        "province": "Upper River",
        "population": -1,
        "latitude": 13.333333,
        "longitude": -14.383333
    },
    {
        "name": "Korro Jula Kunda",
        "country": "The Gambia",
        "province": "Upper River",
        "population": 323,
        "latitude": 13.35,
        "longitude": -14.483333
    },
    {
        "name": "Konti Kunda Sukoto",
        "country": "The Gambia",
        "province": "North Bank",
        "population": -1,
        "latitude": 13.566667,
        "longitude": -15.8
    },
    {
        "name": "Konti Kunda Niji",
        "country": "The Gambia",
        "province": "North Bank",
        "population": -1,
        "latitude": 13.566667,
        "longitude": -15.783333
    },
    {
        "name": "Koina",
        "country": "The Gambia",
        "province": "Upper River",
        "population": 3870,
        "latitude": 13.483333,
        "longitude": -13.866667
    },
    {
        "name": "Kobotor",
        "country": "The Gambia",
        "province": "Upper River",
        "population": 157,
        "latitude": 13.383333,
        "longitude": -14.083333
    },
    {
        "name": "Kewel",
        "country": "The Gambia",
        "province": "Central River",
        "population": 92,
        "latitude": 13.45,
        "longitude": -14.7
    },
    {
        "name": "Ker Tiern",
        "country": "The Gambia",
        "province": "Central River",
        "population": -1,
        "latitude": 13.75,
        "longitude": -15.4
    },
    {
        "name": "Ker Sirrai",
        "country": "The Gambia",
        "province": "North Bank",
        "population": -1,
        "latitude": 13.5,
        "longitude": -16.35
    },
    {
        "name": "Ker Selleh",
        "country": "The Gambia",
        "province": "North Bank",
        "population": -1,
        "latitude": 13.533333,
        "longitude": -16.280556
    },
    {
        "name": "Ker Samba N’Jabeh",
        "country": "The Gambia",
        "province": "North Bank",
        "population": -1,
        "latitude": 13.504722,
        "longitude": -16.345278
    },
    {
        "name": "Ker Samba",
        "country": "The Gambia",
        "province": "Central River",
        "population": -1,
        "latitude": 13.75,
        "longitude": -15.05
    },
    {
        "name": "Ker Marjow",
        "country": "The Gambia",
        "province": "North Bank",
        "population": -1,
        "latitude": 13.5794444,
        "longitude": -16.16
    },
    {
        "name": "Ker Maka Tukulor",
        "country": "The Gambia",
        "province": "Central River",
        "population": -1,
        "latitude": 13.816667,
        "longitude": -15.066667
    },
    {
        "name": "Ker Mademba",
        "country": "The Gambia",
        "province": "North Bank",
        "population": -1,
        "latitude": 13.418333,
        "longitude": -16.43
    },
    {
        "name": "Ker Jabel",
        "country": "The Gambia",
        "province": "Central River",
        "population": -1,
        "latitude": 13.766667,
        "longitude": -15.05
    },
    {
        "name": "Ker Ibra",
        "country": "The Gambia",
        "province": "Central River",
        "population": -1,
        "latitude": 13.733333,
        "longitude": -15.383333
    },
    {
        "name": "Ker Hardo",
        "country": "The Gambia",
        "province": "North Bank",
        "population": -1,
        "latitude": 13.5788889,
        "longitude": -16.0463889
    },
    {
        "name": "Ker Halli",
        "country": "The Gambia",
        "province": "North Bank",
        "population": -1,
        "latitude": 13.583333,
        "longitude": -15.616667
    },