[
    {
        "name": "Port-au-Prince",
        "country": "Haiti",
        "province": "Ouest",
        "population": 1234742,
        "latitude": 18.54349,
        "longitude": -72.33881
    },
    {
        "name": "Delmas 73",
        "country": "Haiti",
        "province": "Ouest",
        "population": 382920,
        "latitude": 18.5447222,
        "longitude": -72.3027778
    },
    {
        "name": "Carrefour",
        "country": "Haiti",
        "province": "Ouest",
        "population": 442156,
        "latitude": 18.541140148887486,
        "longitude": -72.39921569824219
    },
    {
        "name": "Pétionville",
        "country": "Haiti",
        "province": "Ouest",
        "population": 283052,
        "latitude": 18.5125,
        "longitude": -72.285278
    },
    {
        "name": "Croix-des-Bouquets",
        "country": "Haiti",
        "province": "Ouest",
        "population": 229127,
        "latitude": 18.576766,
        "longitude": -72.226247
    },
    {
        "name": "Les Cayes",
        "country": "Haiti",
        "province": "Sud",
        "population": 125799,
        "latitude": 18.19199,
        "longitude": -73.74948
    },
    {
        "name": "Port-de-Paix",
        "country": "Haiti",
        "province": "Nord-Ouest",
        "population": 306217,
        "latitude": 19.93984,
        "longitude": -72.83037
    },
    {
        "name": "Léogâne",
        "country": "Haiti",
        "province": "Ouest",
        "population": 134190,
        "latitude": 18.511098,
        "longitude": -72.633428
    },
    {
        "name": "Jacmel",
        "country": "Haiti",
        "province": "Sud-Est",
        "population": 137966,
        "latitude": 18.234274,
        "longitude": -72.53539
    },
    {
        "name": "Cap-Haïtien",
        "country": "Haiti",
        "province": "Nord",
        "population": 134815,
        "latitude": 19.759383,
        "longitude": -72.198151
    },
    {
        "name": "Jérémie",
        "country": "Haiti",
        "province": "GrandʼAnse",
        "population": 97503,
        "latitude": 18.65,
        "longitude": -74.116667
    },
    {
        "name": "Gonaïves",
        "country": "Haiti",
        "province": "Artibonite",
        "population": 84961,
        "latitude": 19.44755,
        "longitude": -72.68928
    },
    {
        "name": "Tigwav",
        "country": "Haiti",
        "province": "Ouest",
        "population": 117504,
        "latitude": 18.431174,
        "longitude": -72.865211
    },
    {
        "name": "Miragoâne",
        "country": "Haiti",
        "province": "Nippes",
        "population": 89202,
        "latitude": 18.44599,
        "longitude": -73.08957
    },
    {
        "name": "Thomazeau",
        "country": "Haiti",
        "province": "Ouest",
        "population": 52017,
        "latitude": 18.652974,
        "longitude": -72.093914
    },
    {
        "name": "Saint-Marc",
        "country": "Haiti",
        "province": "Artibonite",
        "population": 66226,
        "latitude": 19.10819000363639,
        "longitude": -72.69378662109375
    },
    {
        "name": "Hinche",
        "country": "Haiti",
        "province": "Centre",
        "population": 18590,
        "latitude": 19.15,
        "longitude": -72.0166667
    },
    {
        "name": "Fort Liberté",
        "country": "Haiti",
        "province": "Nord-Est",
        "population": 11465,
        "latitude": 19.662727,
        "longitude": -71.837984
    },
    {
        "name": "Verrettes",
        "country": "Haiti",
        "province": "Artibonite",
        "population": 48724,
        "latitude": 19.050504,
        "longitude": -72.465849
    },
    {
        "name": "Trou du Nord",
        "country": "Haiti",
        "province": "Nord-Est",
        "population": 10569,
        "latitude": 19.616678,
        "longitude": -72.024419
    },
    {
        "name": "Saint-Raphaël",
        "country": "Haiti",
        "province": "Nord",
        "population": 37739,
        "latitude": 19.438774,
        "longitude": -72.199101
    },
    {
        "name": "Saint-Louis du Nord",
        "country": "Haiti",
        "province": "Nord-Ouest",
        "population": 11849,
        "latitude": 19.933965,
        "longitude": -72.721384
    },
    {
        "name": "Ouanaminthe",
        "country": "Haiti",
        "province": "Nord-Est",
        "population": 10118,
        "latitude": 19.549336,
        "longitude": -71.724751
    },
    {
        "name": "Lenbe",
        "country": "Haiti",
        "province": "Nord",
        "population": 32645,
        "latitude": 19.706035,
        "longitude": -72.403356
    },
    {
        "name": "Borgne",
        "country": "Haiti",
        "province": "Nord",
        "population": 4288,
        "latitude": 19.84507,
        "longitude": -72.523486
    },
    {
        "name": "Kenscoff",
        "country": "Haiti",
        "province": "Ouest",
        "population": 42175,
        "latitude": 18.447727,
        "longitude": -72.283984
    },
    {
        "name": "Gressier",
        "country": "Haiti",
        "province": "Ouest",
        "population": 25947,
        "latitude": 18.540906,
        "longitude": -72.526793
    },
    {
        "name": "Grangwav",
        "country": "Haiti",
        "province": "Ouest",
        "population": 49288,
        "latitude": 18.425903,
        "longitude": -72.769946
    },
    {
        "name": "Dessalines",
        "country": "Haiti",
        "province": "Artibonite",
        "population": 12288,
        "latitude": 19.261768,
        "longitude": -72.516107
    },
    {
        "name": "Torbeck",
        "country": "Haiti",
        "province": "Sud",
        "population": 1918,
        "latitude": 18.163378,
        "longitude": -73.809486
    },
    {
        "name": "Tiburon",
        "country": "Haiti",
        "province": "Sud",
        "population": 3054,
        "latitude": 18.32589,
        "longitude": -74.39598
    },
    {
        "name": "Thiotte",
        "country": "Haiti",
        "province": "Sud-Est",
        "population": 2461,
        "latitude": 18.243837,
        "longitude": -71.841568
    },
    {
        "name": "Saint-Louis du Sud",
        "country": "Haiti",
        "province": "Sud",
        "population": 1528,
        "latitude": 18.262414,
        "longitude": -73.546029
    },
    {
        "name": "Ranquitte",
        "country": "Haiti",
        "province": "Nord",
        "population": 1391,
        "latitude": 19.413269,
        "longitude": -72.080774
    },
    {
        "name": "Quartier Morin",
        "country": "Haiti",
        "province": "Nord",
        "population": 1299,
        "latitude": 19.69696,
        "longitude": -72.157115
    },
    {
        "name": "Port-Margot",
        "country": "Haiti",
        "province": "Nord",
        "population": 3070,
        "latitude": 19.751802,
        "longitude": -72.430062
    },
    {
        "name": "Port-à-Piment",
        "country": "Haiti",
        "province": "Sud",
        "population": 3819,
        "latitude": 18.24963,
        "longitude": -74.0971
    },
    {
        "name": "Plaine du Nord",
        "country": "Haiti",
        "province": "Nord",
        "population": 2492,
        "latitude": 19.677073,
        "longitude": -72.269693
    },
    {
        "name": "Pilate",
        "country": "Haiti",
        "province": "Nord",
        "population": 4227,
        "latitude": 19.667454,
        "longitude": -72.552293
    },
    {
        "name": "Pignon",
        "country": "Haiti",
        "province": "Nord",
        "population": 6731,
        "latitude": 19.33594,
        "longitude": -72.11662
    },
    {
        "name": "Phaëton",
        "country": "Haiti",
        "province": "Nord-Est",
        "population": 2297,
        "latitude": 19.675254,
        "longitude": -71.896908
    },
    {
        "name": "Petit Trou de Nippes",
        "country": "Haiti",
        "province": "Nippes",
        "population": 2130,
        "latitude": 18.525352534582375,
        "longitude": -73.50814819335938
    },
    {
        "name": "Petite Rivière de Nippes",
        "country": "Haiti",
        "province": "Nippes",
        "population": 1794,
        "latitude": 18.476108606839528,
        "longitude": -73.23494911193848
    },
    {
        "name": "Perches",
        "country": "Haiti",
        "province": "Nord-Est",
        "population": 1889,
        "latitude": 19.522011,
        "longitude": -71.923229
    },
    {
        "name": "Montòrganize",
        "country": "Haiti",
        "province": "Nord-Est",
        "population": 2104,
        "latitude": 19.408152,
        "longitude": -71.78132
    },
    {
        "name": "Môle Saint-Nicolas",
        "country": "Haiti",
        "province": "Nord-Ouest",
        "population": 3224,
        "latitude": 19.80794,
        "longitude": -73.37786
    },
    {
        "name": "Mirebalais",
        "country": "Haiti",
        "province": "Centre",
        "population": 9082,
        "latitude": 18.834548,
        "longitude": -72.104803
    },
    {
        "name": "Milot",
        "country": "Haiti",
        "province": "Nord",
        "population": 5534,
        "latitude": 19.608373,
        "longitude": -72.213193
    },
    {
        "name": "Marmelade",
        "country": "Haiti",
        "province": "Artibonite",
        "population": 2184,
        "latitude": 19.51736,
        "longitude": -72.361334
    },
    {
        "name": "Marigot",
        "country": "Haiti",
        "province": "Sud-Est",
        "population": 1698,
        "latitude": 18.231666,
        "longitude": -72.322889
    },
    {
        "name": "Baie de Henne",
        "country": "Haiti",
        "province": "Nord-Ouest",
        "population": 1660,
        "latitude": 19.663066,
        "longitude": -73.209426
    },
    {
        "name": "Bahon",
        "country": "Haiti",
        "province": "Nord",
        "population": 1618,
        "latitude": 19.469593,
        "longitude": -72.114659
    },
    {
        "name": "Arcahaie",
        "country": "Haiti",
        "province": "Ouest",
        "population": -1,
        "latitude": 18.770188,
        "longitude": -72.51226
    },
    {
        "name": "Aquin",
        "country": "Haiti",
        "province": "Sud",
        "population": 5246,
        "latitude": 18.279739,
        "longitude": -73.394328
    },
    {
        "name": "Anse Rouge",
        "country": "Haiti",
        "province": "Artibonite",
        "population": 4437,
        "latitude": 19.63382,
        "longitude": -73.055297
    },
    {
        "name": "Anse-à-Veau",
        "country": "Haiti",
        "province": "GrandʼAnse",
        "population": 1731,
        "latitude": 18.501098617713232,
        "longitude": -73.34489822387695
    },
    {
        "name": "Anse-à-Pitre",
        "country": "Haiti",
        "province": "Sud-Est",
        "population": 1736,
        "latitude": 18.05,
        "longitude": -71.75
    },
    {
        "name": "Anse à Galets",
        "country": "Haiti",
        "province": "Ouest",
        "population": 7178,
        "latitude": 18.834486,
        "longitude": -72.866436
    },
    {
        "name": "Acul du Nord",
        "country": "Haiti",
        "province": "Nord",
        "population": 3454,
        "latitude": 19.68075,
        "longitude": -72.319785
    },
    {
        "name": "Les Abricots",
        "country": "Haiti",
        "province": "GrandʼAnse",
        "population": 1245,
        "latitude": 18.64901,
        "longitude": -74.307859
    },
    {
        "name": "Limonade",
        "country": "Haiti",
        "province": "Nord",
        "population": 3810,
        "latitude": 19.670136,
        "longitude": -72.124297
    },
    {
        "name": "Les Irois",
        "country": "Haiti",
        "province": "GrandʼAnse",
        "population": 2265,
        "latitude": 18.4049,
        "longitude": -74.4528
    },
    {
        "name": "Les Anglais",
        "country": "Haiti",
        "province": "Sud",
        "population": 8247,
        "latitude": 18.305395660518922,
        "longitude": -74.21968460083008
    },
    {
        "name": "Lascahobas",
        "country": "Haiti",
        "province": "Centre",
        "population": 7574,
        "latitude": 18.830475,
        "longitude": -71.935633
    },
    {
        "name": "Jean-Rabel",
        "country": "Haiti",
        "province": "Nord-Ouest",
        "population": 5419,
        "latitude": 19.853787,
        "longitude": -73.19131
    },
    {
        "name": "Gros Morne",
        "country": "Haiti",
        "province": "Artibonite",
        "population": 7294,
        "latitude": 19.670796,
        "longitude": -72.678085
    },
    {
        "name": "Grande Saline",
        "country": "Haiti",
        "province": "Artibonite",
        "population": 1787,
        "latitude": 19.265127996468802,
        "longitude": -72.76897430419922
    },
    {
        "name": "Grande Rivière du Nord",
        "country": "Haiti",
        "province": "Nord",
        "population": 8836,
        "latitude": 19.577444,
        "longitude": -72.16872
    },
    {
        "name": "Fonds Verrettes",
        "country": "Haiti",
        "province": "Ouest",
        "population": 2789,
        "latitude": 18.395662,
        "longitude": -71.856341
    },
    {
        "name": "Fond des Blancs",
        "country": "Haiti",
        "province": "Sud",
        "population": 2653,
        "latitude": 18.277823,
        "longitude": -73.127331
    },
    {
        "name": "Ferrier",
        "country": "Haiti",
        "province": "Nord-Est",
        "population": 3804,
        "latitude": 19.615493,
        "longitude": -71.777924
    },
    {
        "name": "Dondon",
        "country": "Haiti",
        "province": "Nord",
        "population": 5029,
        "latitude": 19.527342,
        "longitude": -72.243369
    },
    {
        "name": "Dame-Marie",
        "country": "Haiti",
        "province": "GrandʼAnse",
        "population": 6036,
        "latitude": 18.56107,
        "longitude": -74.42167
    },
    {
        "name": "Kotdefè",
        "country": "Haiti",
        "province": "Sud-Est",
        "population": 2393,
        "latitude": 18.188722,
        "longitude": -73.002869
    },
    {
        "name": "Koto",
        "country": "Haiti",
        "province": "Sud",
        "population": 2065,
        "latitude": 18.206012,
        "longitude": -74.040134
    },
    {
        "name": "Cornillon",
        "country": "Haiti",
        "province": "Ouest",
        "population": 7572,
        "latitude": 18.67546,
        "longitude": -71.95271
    },
    {
        "name": "Chardonnière",
        "country": "Haiti",
        "province": "Sud",
        "population": 3930,
        "latitude": 18.27483522699113,
        "longitude": -74.1661262512207
    },
    {
        "name": "Chantal",
        "country": "Haiti",
        "province": "Sud",
        "population": 1848,
        "latitude": 18.201688,
        "longitude": -73.889567
    },
    {
        "name": "Cayes-Jacmel",
        "country": "Haiti",
        "province": "Sud-Est",
        "population": 1609,
        "latitude": 18.231097,
        "longitude": -72.395447
    },
    {
        "name": "Cavaillon",
        "country": "Haiti",
        "province": "Sud",
        "population": 1023,
        "latitude": 18.299866,
        "longitude": -73.65455
    },
    {
        "name": "Cabaret",
        "country": "Haiti",
        "province": "Ouest",
        "population": 3951,
        "latitude": 18.735818,
        "longitude": -72.419288
    },
    {
        "name": "Bombardopolis",
        "country": "Haiti",
        "province": "Nord-Ouest",
        "population": 1974,
        "latitude": 19.691417,
        "longitude": -73.337695
    },
    {
        "name": "Zanglais",
        "country": "Haiti",
        "province": "Sud",
        "population": -1,
        "latitude": 18.268334,
        "longitude": -73.452932
    },
    {
        "name": "Vincent",
        "country": "Haiti",
        "province": "GrandʼAnse",
        "population": -1,
        "latitude": 18.5166667,
        "longitude": -74.1166667
    },
    {
        "name": "Vincent",
        "country": "Haiti",
        "province": "Sud",
        "population": -1,
        "latitude": 18.310926,
        "longitude": -73.205078
    },
    {
        "name": "Vieux Bourg d'Aquin",
        "country": "Haiti",
        "province": "Sud",
        "population": -1,
        "latitude": 18.301166,
        "longitude": -73.339448
    },
    {
        "name": "Vallières",
        "country": "Haiti",
        "province": "Nord-Est",
        "population": -1,
        "latitude": 19.435482,
        "longitude": -71.920941
    },
    {
        "name": "Valère",
        "country": "Haiti",
        "province": "Sud",
        "population": -1,
        "latitude": 18.127819,
        "longitude": -73.8556
    },
    {
        "name": "Troupeau",
        "country": "Haiti",
        "province": "GrandʼAnse",
        "population": -1,
        "latitude": 18.53165,
        "longitude": -73.930868
    },
    {
        "name": "Trou Palouse",
        "country": "Haiti",
        "province": "Sud",
        "population": -1,
        "latitude": 18.049292,
        "longitude": -73.79534
    },
    {
        "name": "Trouin",
        "country": "Haiti",
        "province": "Ouest",
        "population": -1,
        "latitude": 18.3166667,
        "longitude": -72.7833333
    },
    {
        "name": "Bonbon",
        "country": "Haiti",
        "province": "GrandʼAnse",
        "population": -1,
        "latitude": 18.665481,
        "longitude": -74.245135
    },
    {
        "name": "Ti Tanyin",
        "country": "Haiti",
        "province": "Ouest",
        "population": -1,
        "latitude": 18.7166667,
        "longitude": -72.35
    },
    {
        "name": "Ti Couloute",
        "country": "Haiti",
        "province": "Ouest",
        "population": -1,
        "latitude": 18.9330556,
        "longitude": -72.6319444
    },
    {
        "name": "Thomonde",
        "country": "Haiti",
        "province": "Centre",
        "population": 3696,
        "latitude": 19.0173,
        "longitude": -71.962348
    },
    {
        "name": "Thomassique",
        "country": "Haiti",
        "province": "Centre",
        "population": 4857,
        "latitude": 19.082095,
        "longitude": -71.838549
    },
    {
        "name": "Thomas",
        "country": "Haiti",
        "province": "Ouest",
        "population": -1,
        "latitude": 18.7675,
        "longitude": -72.4897222
    },
    {
        "name": "Terrier Rouge",
        "country": "Haiti",
        "province": "Nord-Est",
        "population": -1,
        "latitude": 19.636343,
        "longitude": -71.954831
    },
    {
        "name": "Terre Neuve",
        "country": "Haiti",
        "province": "Artibonite",
        "population": 911,
        "latitude": 19.599461,
        "longitude": -72.780885
    },
    {
        "name": "Terre Neuve",
        "country": "Haiti",
        "province": "Sud",
        "population": -1,
        "latitude": 18.28919,
        "longitude": -73.573525
    },
    {
        "name": "Telonge",
        "country": "Haiti",
        "province": "Ouest",
        "population": -1,
        "latitude": 18.40276,
        "longitude": -72.095619
    },
    {
        "name": "Sources Chaudes",
        "country": "Haiti",
        "province": "GrandʼAnse",
        "population": -1,
        "latitude": 18.483917,
        "longitude": -74.286734
    },
    {
        "name": "Source Chaude",
        "country": "Haiti",
        "province": "Artibonite",
        "population": -1,
        "latitude": 19.634497,
        "longitude": -72.917913
    },
    {
        "name": "Source Blanche",
        "country": "Haiti",
        "province": "Sud",
        "population": -1,
        "latitude": 18.2666667,
        "longitude": -73.1833333
    },
    {
        "name": "Sophie",
        "country": "Haiti",
        "province": "Ouest",
        "population": -1,
        "latitude": 18.781131,
        "longitude": -72.388087
    },
    {
        "name": "Sibert",
        "country": "Haiti",
        "province": "Ouest",
        "population": -1,
        "latitude": 18.61684,
        "longitude": -72.304313
    },
    {
        "name": "Sénaille",
        "country": "Haiti",
        "province": "Sud",
        "population": -1,
        "latitude": 18.310805,
        "longitude": -73.499468
    },
    {
        "name": "Scipion",
        "country": "Haiti",
        "province": "Sud",
        "population": -1,
        "latitude": 18.065972,
        "longitude": -73.909265
    },
    {
        "name": "Savanette",
        "country": "Haiti",
        "province": "Ouest",
        "population": -1,
        "latitude": 18.74454,
        "longitude": -71.82089
    },
    {
        "name": "Savane Perrin",
        "country": "Haiti",
        "province": "Ouest",
        "population": -1,
        "latitude": 18.7091667,
        "longitude": -71.9938889
    },
    {
        "name": "Savane Blonde",
        "country": "Haiti",
        "province": "Ouest",
        "population": -1,
        "latitude": 18.6,
        "longitude": -72.2166667
    },
    {
        "name": "Santo",
        "country": "Haiti",
        "province": "Ouest",
        "population": -1,
        "latitude": 18.602534,
        "longitude": -72.263993
    },
    {
        "name": "Saint-Victor",
        "country": "Haiti",
        "province": "GrandʼAnse",
        "population": -1,
        "latitude": 18.63173,
        "longitude": -74.35204
    },
    {
        "name": "Saint-Pierre",
        "country": "Haiti",
        "province": "Ouest",
        "population": -1,
        "latitude": 18.66487,
        "longitude": -71.860106
    },
    {
        "name": "Saint-Phard",
        "country": "Haiti",
        "province": "Ouest",
        "population": -1,
        "latitude": 18.73035,
        "longitude": -72.308467
    },
    {
        "name": "Saint-Michel de l'Atalaye",
        "country": "Haiti",
        "province": "Artibonite",
        "population": -1,
        "latitude": 19.370837,
        "longitude": -72.334718
    },
    {
        "name": "Saint-Médard",
        "country": "Haiti",
        "province": "Ouest",
        "population": -1,
        "latitude": 18.80042,
        "longitude": -72.514351
    },
    {
        "name": "Saint-Jean du Sud",
        "country": "Haiti",
        "province": "Sud",
        "population": 549,
        "latitude": 18.076107,
        "longitude": -73.81254
    },
    {
        "name": "Saint-Félix",
        "country": "Haiti",
        "province": "Sud",
        "population": -1,
        "latitude": 18.2,
        "longitude": -73.8666667
    },
    {
        "name": "Sainte-Suzanne",
        "country": "Haiti",
        "province": "Nord-Est",
        "population": -1,
        "latitude": 19.583448,
        "longitude": -72.088886
    },
    {
        "name": "Saintard",
        "country": "Haiti",
        "province": "Ouest",
        "population": -1,
        "latitude": 18.825304,
        "longitude": -72.549635
    },
    {
        "name": "Roche-à-Bateau",
        "country": "Haiti",
        "province": "Sud",
        "population": 1662,
        "latitude": 18.181822,
        "longitude": -74.003449
    },
    {
        "name": "Raymond",
        "country": "Haiti",
        "province": "Sud",
        "population": -1,
        "latitude": 18.3333333,
        "longitude": -73.4833333
    },
    {
        "name": "Ravine Sèche",
        "country": "Haiti",
        "province": "Artibonite",
        "population": -1,
        "latitude": 19.2166667,
        "longitude": -72.7833333
    },
    {
        "name": "Rato",
        "country": "Haiti",
        "province": "Ouest",
        "population": -1,
        "latitude": 18.661907,
        "longitude": -71.911757
    },
    {
        "name": "Rampe des Lions",
        "country": "Haiti",
        "province": "GrandʼAnse",
        "population": -1,
        "latitude": 18.482509,
        "longitude": -74.114876
    },
    {
        "name": "Raboteau",
        "country": "Haiti",
        "province": "Ouest",
        "population": -1,
        "latitude": 18.3333333,
        "longitude": -72.7333333
    },
    {
        "name": "Quartier",
        "country": "Haiti",
        "province": "Sud",
        "population": -1,
        "latitude": 18.3,
        "longitude": -73.35
    },
    {
        "name": "Puits Chacha",
        "country": "Haiti",
        "province": "Sud",
        "population": -1,
        "latitude": 18.217893,
        "longitude": -73.111985
    },
    {
        "name": "Prévilé",
        "country": "Haiti",
        "province": "GrandʼAnse",
        "population": -1,
        "latitude": 18.536389,
        "longitude": -74.157102
    },
    {
        "name": "Praslin",
        "country": "Haiti",
        "province": "Sud",
        "population": -1,
        "latitude": 18.154629,
        "longitude": -73.864691
    },
    {
        "name": "Port-Salut",
        "country": "Haiti",
        "province": "Sud",
        "population": -1,
        "latitude": 18.077004,
        "longitude": -73.917283
    },
    {
        "name": "Pont Sondé",
        "country": "Haiti",
        "province": "Artibonite",
        "population": -1,
        "latitude": 19.148358,
        "longitude": -72.614359
    },
    {
        "name": "L'Estère",
        "country": "Haiti",
        "province": "Artibonite",
        "population": -1,
        "latitude": 19.303071,
        "longitude": -72.609653
    },
    {
        "name": "Policard",
        "country": "Haiti",
        "province": "Sud",
        "population": -1,
        "latitude": 18.3,
        "longitude": -74.0166667
    },
    {
        "name": "Pointe à Raquettes",
        "country": "Haiti",
        "province": "Ouest",
        "population": -1,
        "latitude": 18.784669,
        "longitude": -73.06167
    },
    {
        "name": "Plic",
        "country": "Haiti",
        "province": "GrandʼAnse",
        "population": -1,
        "latitude": 18.55,
        "longitude": -74.2166667
    },
    {
        "name": "Plaine Martin",
        "country": "Haiti",
        "province": "GrandʼAnse",
        "population": -1,
        "latitude": 18.413456,
        "longitude": -73.888375
    },
    {
        "name": "Petit Paradis",
        "country": "Haiti",
        "province": "Ouest",
        "population": -1,
        "latitude": 18.4833333,
        "longitude": -72.6333333
    },
    {
        "name": "Petit Paradis",
        "country": "Haiti",
        "province": "Ouest",
        "population": -1,
        "latitude": 18.4666667,
        "longitude": -72.6333333
    },
    {
        "name": "Petite Rivière de l'Artibonite",
        "country": "Haiti",
        "province": "Artibonite",
        "population": -1,
        "latitude": 19.124002,
        "longitude": -72.481701
    },
    {
        "name": "Petit Bois",
        "country": "Haiti",
        "province": "Ouest",
        "population": -1,
        "latitude": 18.86392,
        "longitude": -72.513056
    },
    {
        "name": "Pestel",
        "country": "Haiti",
        "province": "GrandʼAnse",
        "population": -1,
        "latitude": 18.541268,
        "longitude": -73.795154
    },
    {
        "name": "Péligrin",
        "country": "Haiti",
        "province": "GrandʼAnse",
        "population": -1,
        "latitude": 18.491127,
        "longitude": -74.412541
    },
    {
        "name": "Passe",
        "country": "Haiti",
        "province": "Ouest",
        "population": -1,
        "latitude": 18.820648,
        "longitude": -72.525936
    },
    {
        "name": "Parc Dubois",
        "country": "Haiti",
        "province": "Ouest",
        "population": -1,
        "latitude": 18.638925,
        "longitude": -71.878743
    },
    {
        "name": "Pâques",
        "country": "Haiti",
        "province": "Ouest",
        "population": -1,
        "latitude": 18.361204,
        "longitude": -72.177279
    },
    {
        "name": "Paillant",
        "country": "Haiti",
        "province": "Nippes",
        "population": -1,
        "latitude": 18.417637,
        "longitude": -73.145699
    },
    {
        "name": "Nan Plingue",
        "country": "Haiti",
        "province": "GrandʼAnse",
        "population": -1,
        "latitude": 18.592324,
        "longitude": -73.987414
    },
    {
        "name": "Nan Palmiste",
        "country": "Haiti",
        "province": "GrandʼAnse",
        "population": -1,
        "latitude": 18.533292,
        "longitude": -73.866105
    },
    {
        "name": "Nan Miel",
        "country": "Haiti",
        "province": "GrandʼAnse",
        "population": -1,
        "latitude": 18.40865,
        "longitude": -74.01159
    },
    {
        "name": "Nan l'Étang",
        "country": "Haiti",
        "province": "Ouest",
        "population": -1,
        "latitude": 18.682132,
        "longitude": -71.842196
    },
    {
        "name": "Nan Garde",
        "country": "Haiti",
        "province": "Sud",
        "population": -1,
        "latitude": 18.028908,
        "longitude": -73.860311
    },
    {
        "name": "Nan Dupin",
        "country": "Haiti",
        "province": "Sud",
        "population": -1,
        "latitude": 18.108388,
        "longitude": -73.930731
    },
    {
        "name": "Nan Cotie",
        "country": "Haiti",
        "province": "Sud",
        "population": -1,
        "latitude": 18.36895,
        "longitude": -73.651538
    },
    {
        "name": "Nan Contrée",
        "country": "Haiti",
        "province": "Sud",
        "population": -1,
        "latitude": 18.3166667,
        "longitude": -73.3666667
    },
    {
        "name": "Nan Citron",
        "country": "Haiti",
        "province": "Sud",
        "population": -1,
        "latitude": 18.282412,
        "longitude": -73.332358
    },
    {
        "name": "Nan Carotte",
        "country": "Haiti",
        "province": "Ouest",
        "population": -1,
        "latitude": 18.381102,
        "longitude": -72.126241
    },
    {
        "name": "Nan Cadastre",
        "country": "Haiti",
        "province": "Ouest",
        "population": -1,
        "latitude": 18.566399,
        "longitude": -72.173234
    },
    {
        "name": "Nan Bois",
        "country": "Haiti",
        "province": "Sud",
        "population": -1,
        "latitude": 18.14456,
        "longitude": -73.938503
    },
    {
        "name": "Mouillage Fouquet",
        "country": "Haiti",
        "province": "Sud",
        "population": -1,
        "latitude": 18.190271,
        "longitude": -73.10325
    },
    {
        "name": "Moron",
        "country": "Haiti",
        "province": "GrandʼAnse",
        "population": 1830,
        "latitude": 18.560394,
        "longitude": -74.257766
    },
    {
        "name": "Morne Louissant",
        "country": "Haiti",
        "province": "GrandʼAnse",
        "population": -1,
        "latitude": 18.584141,
        "longitude": -74.335253
    },
    {
        "name": "Morne Canelle",
        "country": "Haiti",
        "province": "Artibonite",
        "population": -1,
        "latitude": 18.95,
        "longitude": -72.3
    },
    {
        "name": "Morisseau",
        "country": "Haiti",
        "province": "Sud",
        "population": -1,
        "latitude": 18.26934,
        "longitude": -73.412239
    },
    {
        "name": "Morency",
        "country": "Haiti",
        "province": "Sud",
        "population": -1,
        "latitude": 18.373971,
        "longitude": -73.746175
    },
    {
        "name": "Montrouis",
        "country": "Haiti",
        "province": "Ouest",
        "population": -1,
        "latitude": 18.951103,
        "longitude": -72.705663
    },
    {
        "name": "Mombin Crochu",
        "country": "Haiti",
        "province": "Nord-Est",
        "population": -1,
        "latitude": 19.36885,
        "longitude": -71.982434
    },
    {
        "name": "Modeste",
        "country": "Haiti",
        "province": "Ouest",
        "population": -1,
        "latitude": 18.689903,
        "longitude": -71.996569
    },
    {
        "name": "Mitan",
        "country": "Haiti",
        "province": "Ouest",
        "population": -1,
        "latitude": 18.800372,
        "longitude": -72.544006
    },
    {
        "name": "Mille Lieux",
        "country": "Haiti",
        "province": "Ouest",
        "population": -1,
        "latitude": 18.416812,
        "longitude": -72.154637
    },
    {
        "name": "Meyance",
        "country": "Haiti",
        "province": "Sud",
        "population": -1,
        "latitude": 18.25,
        "longitude": -73.4833333
    },
    {
        "name": "Mérotte",
        "country": "Haiti",
        "province": "Ouest",
        "population": -1,
        "latitude": 18.784619,
        "longitude": -72.531227
    },
    {
        "name": "Mercy",
        "country": "Haiti",
        "province": "Sud",
        "population": -1,
        "latitude": 18.255752,
        "longitude": -73.777877
    },
    {
        "name": "Martin",
        "country": "Haiti",
        "province": "Sud",
        "population": -1,
        "latitude": 18.024721,
        "longitude": -73.805276
    },
    {
        "name": "Marotte",
        "country": "Haiti",
        "province": "Ouest",
        "population": -1,
        "latitude": 18.8366667,
        "longitude": -72.5716667
    },
    {
        "name": "Marin",
        "country": "Haiti",
        "province": "Ouest",
        "population": -1,
        "latitude": 18.7166667,
        "longitude": -72.2
    },
    {
        "name": "Marin",
        "country": "Haiti",
        "province": "Ouest",
        "population": -1,
        "latitude": 18.6013889,
        "longitude": -72.2816667
    },
    {
        "name": "Marfranc",
        "country": "Haiti",
        "province": "GrandʼAnse",
        "population": -1,
        "latitude": 18.582468,
        "longitude": -74.218193
    },
    {
        "name": "Mare Minerve",
        "country": "Haiti",
        "province": "Ouest",
        "population": -1,
        "latitude": 18.415857,
        "longitude": -72.115319
    },
    {
        "name": "Mare Citron",
        "country": "Haiti",
        "province": "GrandʼAnse",
        "population": -1,
        "latitude": 18.61473,
        "longitude": -73.760787
    },
    {
        "name": "Marché Léon",
        "country": "Haiti",
        "province": "GrandʼAnse",
        "population": -1,
        "latitude": 18.540462,
        "longitude": -74.117665
    },
    {
        "name": "Marcelin",
        "country": "Haiti",
        "province": "Sud",
        "population": -1,
        "latitude": 18.218514,
        "longitude": -73.615096
    },
    {
        "name": "Maniche",
        "country": "Haiti",
        "province": "Sud",
        "population": -1,
        "latitude": 18.345012,
        "longitude": -73.777214
    },
    {
        "name": "Malpasse",
        "country": "Haiti",
        "province": "Ouest",
        "population": -1,
        "latitude": 18.502404,
        "longitude": -71.890167
    },
    {
        "name": "Maléare",
        "country": "Haiti",
        "province": "Ouest",
        "population": -1,
        "latitude": 18.618242,
        "longitude": -72.32384
    },
    {
        "name": "Malbranche",
        "country": "Haiti",
        "province": "Sud",
        "population": -1,
        "latitude": 18.23383,
        "longitude": -73.232836
    },
    {
        "name": "Maisonneuve",
        "country": "Haiti",
        "province": "Sud",
        "population": -1,
        "latitude": 18.217673,
        "longitude": -73.885649
    },
    {
        "name": "Madame Louis",
        "country": "Haiti",
        "province": "Sud",
        "population": -1,
        "latitude": 18.314306,
        "longitude": -73.528038
    },
    {
        "name": "Madame Jean Pierre",
        "country": "Haiti",
        "province": "Sud",
        "population": -1,
        "latitude": 18.344701,
        "longitude": -73.731114
    },
    {
        "name": "Madame Jean Pierre",
        "country": "Haiti",
        "province": "Sud",
        "population": -1,
        "latitude": 18.29941,
        "longitude": -73.73297
    },
    {
        "name": "Lori",
        "country": "Haiti",
        "province": "Nord",
        "population": -1,
        "latitude": 19.45,
        "longitude": -72.1166667
    },
    {
        "name": "Bel Air",
        "country": "Haiti",
        "province": "Sud",
        "population": -1,
        "latitude": 18.2333333,
        "longitude": -73.65
    },
    {
        "name": "Bélac",
        "country": "Haiti",
        "province": "Ouest",
        "population": -1,
        "latitude": 18.8166667,
        "longitude": -72.3333333
    },
    {
        "name": "Bedo",
        "country": "Haiti",
        "province": "Sud",
        "population": -1,
        "latitude": 18.28212,
        "longitude": -73.65329
    },
    {
        "name": "Beaumont",
        "country": "Haiti",
        "province": "GrandʼAnse",
        "population": -1,
        "latitude": 18.599141,
        "longitude": -74.123882
    },
    {
        "name": "Beaudrouin",
        "country": "Haiti",
        "province": "GrandʼAnse",
        "population": -1,
        "latitude": 18.589409,
        "longitude": -74.093728
    },
    {
        "name": "Bayard",
        "country": "Haiti",
        "province": "Ouest",
        "population": -1,
        "latitude": 18.4422222,
        "longitude": -72.1536111
    },
    {
        "name": "Bassin Bleu",
        "country": "Haiti",
        "province": "Nord-Ouest",
        "population": -1,
        "latitude": 19.78346,
        "longitude": -72.80206
    },
    {
        "name": "Bassin Bleu",
        "country": "Haiti",
        "province": "Sud-Est",
        "population": -1,
        "latitude": 18.234447,
        "longitude": -72.607117
    },
    {
        "name": "Anba Lenbe",
        "country": "Haiti",
        "province": "Nord",
        "population": -1,
        "latitude": 19.768352,
        "longitude": -72.384718
    },
    {
        "name": "Baradères",
        "country": "Haiti",
        "province": "Nippes",
        "population": 1666,
        "latitude": 18.482553,
        "longitude": -73.638835
    },
    {
        "name": "Baptiste",
        "country": "Haiti",
        "province": "Centre",
        "population": -1,
        "latitude": 18.797629,
        "longitude": -71.783083
    },
    {
        "name": "Baptiste",
        "country": "Haiti",
        "province": "Sud",
        "population": -1,
        "latitude": 18.291403,
        "longitude": -73.286166
    },
    {
        "name": "Balou",
        "country": "Haiti",
        "province": "GrandʼAnse",
        "population": -1,
        "latitude": 18.3833333,
        "longitude": -73.55
    },
    {
        "name": "Balangnin",
        "country": "Haiti",
        "province": "Sud",
        "population": -1,
        "latitude": 18.294875,
        "longitude": -73.136987
    },
    {
        "name": "Balandier",
        "country": "Haiti",
        "province": "GrandʼAnse",
        "population": -1,
        "latitude": 18.6166667,
        "longitude": -74.3833333
    },
    {
        "name": "Balandier",
        "country": "Haiti",
        "province": "GrandʼAnse",
        "population": -1,
        "latitude": 18.58931,
        "longitude": -74.40518
    },
    {
        "name": "Bainet",
        "country": "Haiti",
        "province": "Sud-Est",
        "population": -1,
        "latitude": 18.184036,
        "longitude": -72.752297
    },
    {
        "name": "Bahon",
        "country": "Haiti",
        "province": "GrandʼAnse",
        "population": -1,
        "latitude": 18.3666667,
        "longitude": -73.2166667
    },
    {
        "name": "Babino",
        "country": "Haiti",
        "province": "GrandʼAnse",
        "population": -1,
        "latitude": 18.499506,
        "longitude": -74.369972
    },
    {
        "name": "Aubry",
        "country": "Haiti",
        "province": "Ouest",
        "population": -1,
        "latitude": 18.7132,
        "longitude": -72.376975
    },
    {
        "name": "Arniquet",
        "country": "Haiti",
        "province": "Sud",
        "population": -1,
        "latitude": 18.1166667,
        "longitude": -73.9166667
    },
    {
        "name": "Arnaud",
        "country": "Haiti",
        "province": "Nippes",
        "population": -1,
        "latitude": 18.448123,
        "longitude": -73.387027
    },
    {
        "name": "Anse Joseph",
        "country": "Haiti",
        "province": "GrandʼAnse",
        "population": -1,
        "latitude": 18.63804,
        "longitude": -74.35259
    },
    {
        "name": "Anse du Nord",
        "country": "Haiti",
        "province": "GrandʼAnse",
        "population": -1,
        "latitude": 18.63211,
        "longitude": -73.78066
    },
    {
        "name": "Anse du Clerc",
        "country": "Haiti",
        "province": "GrandʼAnse",
        "population": -1,
        "latitude": 18.647901,
        "longitude": -74.277975
    },
    {
        "name": "Anse à Maçon",
        "country": "Haiti",
        "province": "GrandʼAnse",
        "population": -1,
        "latitude": 18.589581,
        "longitude": -73.724301
    },
    {
        "name": "André",
        "country": "Haiti",
        "province": "Ouest",
        "population": -1,
        "latitude": 18.936331,
        "longitude": -72.559928
    },
    {
        "name": "Abricots",
        "country": "Haiti",
        "province": "GrandʼAnse",
        "population": -1,
        "latitude": 18.5,
        "longitude": -73.7833333
    },
    {
        "name": "Ti Port-de-Paix",
        "country": "Haiti",
        "province": "Nord-Ouest",
        "population": 34657,
        "latitude": 19.9333333,
        "longitude": -72.8333333
    },
    {
        "name": "Liancourt",
        "country": "Haiti",
        "province": "Artibonite",
        "population": -1,
        "latitude": 19.124689,
        "longitude": -72.537128
    },
    {
        "name": "L’Homond",
        "country": "Haiti",
        "province": "GrandʼAnse",
        "population": -1,
        "latitude": 18.65,
        "longitude": -74.316667
    },
    {
        "name": "Lévêque",
        "country": "Haiti",
        "province": "Ouest",
        "population": -1,
        "latitude": 18.757065,
        "longitude": -72.451384
    },
    {
        "name": "Les Palmes",
        "country": "Haiti",
        "province": "Sud-Est",
        "population": -1,
        "latitude": 18.3333333,
        "longitude": -72.85
    },
    {
        "name": "Léopold",
        "country": "Haiti",
        "province": "GrandʼAnse",
        "population": -1,
        "latitude": 18.5833333,
        "longitude": -74.2333333
    },
    {
        "name": "Lenaire",
        "country": "Haiti",
        "province": "GrandʼAnse",
        "population": -1,
        "latitude": 18.435342,
        "longitude": -74.26265
    },
    {
        "name": "Lebon",
        "country": "Haiti",
        "province": "Sud",
        "population": -1,
        "latitude": 18.1172222,
        "longitude": -73.9363889
    },
    {
        "name": "La Victoire",
        "country": "Haiti",
        "province": "Nord",
        "population": -1,
        "latitude": 19.337508,
        "longitude": -72.020563
    },
    {
        "name": "La Vallée de Jacmel",
        "country": "Haiti",
        "province": "Sud-Est",
        "population": -1,
        "latitude": 18.269365,
        "longitude": -72.66702
    },
    {
        "name": "Lavalace",
        "country": "Haiti",
        "province": "GrandʼAnse",
        "population": -1,
        "latitude": 18.58011,
        "longitude": -74.25135
    },
    {
        "name": "La Salle",
        "country": "Haiti",
        "province": "GrandʼAnse",
        "population": -1,
        "latitude": 18.524125,
        "longitude": -73.781488
    },
    {
        "name": "Lahoux",
        "country": "Haiti",
        "province": "Ouest",
        "population": -1,
        "latitude": 18.612953,
        "longitude": -72.209636
    },
    {
        "name": "La Rou Pay",
        "country": "Haiti",
        "province": "Sud",
        "population": -1,
        "latitude": 18.2833333,
        "longitude": -73.2833333
    },
    {
        "name": "La Roche",
        "country": "Haiti",
        "province": "GrandʼAnse",
        "population": -1,
        "latitude": 18.532894,
        "longitude": -74.258564
    },
    {
        "name": "La Porte",
        "country": "Haiti",
        "province": "Sud",
        "population": -1,
        "latitude": 18.275784,
        "longitude": -73.704874
    },
    {
        "name": "Le Jardin",
        "country": "Haiti",
        "province": "Ouest",
        "population": -1,
        "latitude": 18.755885,
        "longitude": -72.325903
    },
    {
        "name": "La Marche",
        "country": "Haiti",
        "province": "Sud",
        "population": -1,
        "latitude": 18.244528,
        "longitude": -73.64068
    },
    {
        "name": "Lalane",
        "country": "Haiti",
        "province": "Sud",
        "population": -1,
        "latitude": 18.3,
        "longitude": -73.2666667
    },
    {
        "name": "Layon Fon",
        "country": "Haiti",
        "province": "GrandʼAnse",
        "population": -1,
        "latitude": 18.41594,
        "longitude": -74.0297
    },
    {
        "name": "La Forêt",
        "country": "Haiti",
        "province": "GrandʼAnse",
        "population": -1,
        "latitude": 18.632962,
        "longitude": -74.200457
    },
    {
        "name": "La Force",
        "country": "Haiti",
        "province": "Sud",
        "population": -1,
        "latitude": 18.169112,
        "longitude": -73.862849
    },
    {
        "name": "Lafiteau",
        "country": "Haiti",
        "province": "Ouest",
        "population": -1,
        "latitude": 18.693939,
        "longitude": -72.350035
    },
    {
        "name": "Laferrière",
        "country": "Haiti",
        "province": "GrandʼAnse",
        "population": -1,
        "latitude": 18.57119,
        "longitude": -74.330911
    },
    {
        "name": "La Coude",
        "country": "Haiti",
        "province": "GrandʼAnse",
        "population": -1,
        "latitude": 18.5666667,
        "longitude": -74.3166667
    },
    {
        "name": "La Chapelle",
        "country": "Haiti",
        "province": "Artibonite",
        "population": -1,
        "latitude": 18.910988,
        "longitude": -72.312143
    },
    {
        "name": "Laborde",
        "country": "Haiti",
        "province": "Sud",
        "population": -1,
        "latitude": 18.282023,
        "longitude": -73.80314
    },
    {
        "name": "Labadee",
        "country": "Haiti",
        "province": "Nord",
        "population": -1,
        "latitude": 19.77172,
        "longitude": -72.245286
    },
    {
        "name": "Joly Guibert",
        "country": "Haiti",
        "province": "GrandʼAnse",
        "population": -1,
        "latitude": 18.480603,
        "longitude": -73.834916
    },
    {
        "name": "Inviter",
        "country": "Haiti",
        "province": "Ouest",
        "population": -1,
        "latitude": 18.375291,
        "longitude": -72.160505
    },
    {
        "name": "Houck",
        "country": "Haiti",
        "province": "Sud",
        "population": -1,
        "latitude": 18.147283,
        "longitude": -73.83713
    },
    {
        "name": "Haut Saut d'Eau",
        "country": "Haiti",
        "province": "Centre",
        "population": -1,
        "latitude": 18.823762,
        "longitude": -72.217699
    },
    {
        "name": "Hatte Lathan",
        "country": "Haiti",
        "province": "Ouest",
        "population": -1,
        "latitude": 18.6455556,
        "longitude": -72.2594444
    },
    {
        "name": "Guldive Garre",
        "country": "Haiti",
        "province": "Ouest",
        "population": -1,
        "latitude": 18.7202778,
        "longitude": -72.4263889
    },
    {
        "name": "Grosse Chaudière",
        "country": "Haiti",
        "province": "Sud",
        "population": -1,
        "latitude": 18.29329,
        "longitude": -74.34367
    },
    {
        "name": "Gros Morne",
        "country": "Haiti",
        "province": "Ouest",
        "population": -1,
        "latitude": 18.885596,
        "longitude": -72.554679
    },
    {
        "name": "Gros Figuie",
        "country": "Haiti",
        "province": "Ouest",
        "population": -1,
        "latitude": 18.5166667,
        "longitude": -72.0833333
    },
    {
        "name": "Granger",
        "country": "Haiti",
        "province": "GrandʼAnse",
        "population": -1,
        "latitude": 18.5333333,
        "longitude": -74.3166667
    },
    {
        "name": "Grand Gosier",
        "country": "Haiti",
        "province": "Sud-Est",
        "population": -1,
        "latitude": 18.185427,
        "longitude": -71.918201
    },
    {
        "name": "Grande Ravine",
        "country": "Haiti",
        "province": "Ouest",
        "population": -1,
        "latitude": 18.4666667,
        "longitude": -72.1166667
    },
    {
        "name": "Grande Ravine",
        "country": "Haiti",
        "province": "Ouest",
        "population": -1,
        "latitude": 18.3633333,
        "longitude": -72.1430556
    },
    {
        "name": "Grande Plaine",
        "country": "Haiti",
        "province": "GrandʼAnse",
        "population": -1,
        "latitude": 18.5166667,
        "longitude": -74.3166667
    },
    {
        "name": "Grand Boucan",
        "country": "Haiti",
        "province": "Nippes",
        "population": -1,
        "latitude": 18.553497,
        "longitude": -73.5915
    },
    {
        "name": "Grand Bois",
        "country": "Haiti",
        "province": "Sud",
        "population": -1,
        "latitude": 18.226748,
        "longitude": -73.646293
    },
    {
        "name": "Gomier",
        "country": "Haiti",
        "province": "GrandʼAnse",
        "population": -1,
        "latitude": 18.60928,
        "longitude": -74.062967
    },
    {
        "name": "Gomier",
        "country": "Haiti",
        "province": "GrandʼAnse",
        "population": -1,
        "latitude": 18.6166667,
        "longitude": -74.15
    },
    {
        "name": "Godefroy",
        "country": "Haiti",
        "province": "Sud",
        "population": -1,
        "latitude": 18.205234,
        "longitude": -73.816016
    },
    {
        "name": "Gobert",
        "country": "Haiti",
        "province": "Ouest",
        "population": -1,
        "latitude": 18.6975,
        "longitude": -71.9647222
    },
    {
        "name": "Gelée",
        "country": "Haiti",
        "province": "Sud",
        "population": -1,
        "latitude": 18.180644,
        "longitude": -73.770259
    },
    {
        "name": "Gaman",
        "country": "Haiti",
        "province": "Ouest",
        "population": -1,
        "latitude": 18.5372222,
        "longitude": -72.1802778
    },
    {
        "name": "Galette Sèche",
        "country": "Haiti",
        "province": "Sud",
        "population": -1,
        "latitude": 18.3833333,
        "longitude": -74.2833333
    },
    {
        "name": "Furcy",
        "country": "Haiti",
        "province": "Ouest",
        "population": -1,
        "latitude": 18.425018,
        "longitude": -72.288611
    },
    {
        "name": "Formont",
        "country": "Haiti",
        "province": "Sud",
        "population": -1,
        "latitude": 18.175556,
        "longitude": -73.800557
    },
    {
        "name": "Fond Ragé",
        "country": "Haiti",
        "province": "GrandʼAnse",
        "population": -1,
        "latitude": 18.527356,
        "longitude": -73.971003
    },
    {
        "name": "Fond d'Icaque",
        "country": "Haiti",
        "province": "GrandʼAnse",
        "population": -1,
        "latitude": 18.537251,
        "longitude": -73.962464
    },
    {
        "name": "Fond Cochon",
        "country": "Haiti",
        "province": "GrandʼAnse",
        "population": -1,
        "latitude": 18.45,
        "longitude": -74.05
    },
    {
        "name": "Fond Blanc",
        "country": "Haiti",
        "province": "Ouest",
        "population": -1,
        "latitude": 18.82131,
        "longitude": -72.375762
    },
    {
        "name": "Flandre",
        "country": "Haiti",
        "province": "GrandʼAnse",
        "population": -1,
        "latitude": 18.508343,
        "longitude": -73.983848
    },
    {
        "name": "Fèvre",
        "country": "Haiti",
        "province": "Nippes",
        "population": -1,
        "latitude": 18.354733,
        "longitude": -73.553637
    },
    {
        "name": "Les Étroits",
        "country": "Haiti",
        "province": "Ouest",
        "population": -1,
        "latitude": 18.86289,
        "longitude": -72.948257
    },
    {
        "name": "Escamel",
        "country": "Haiti",
        "province": "GrandʼAnse",
        "population": -1,
        "latitude": 18.45927,
        "longitude": -74.41392
    },
    {
        "name": "Ennery",
        "country": "Haiti",
        "province": "Artibonite",
        "population": 1511,
        "latitude": 19.483416,
        "longitude": -72.485368
    },
    {
        "name": "Duvineau",
        "country": "Haiti",
        "province": "GrandʼAnse",
        "population": -1,
        "latitude": 18.5166667,
        "longitude": -74.4166667
    },
    {
        "name": "Duvet",
        "country": "Haiti",
        "province": "GrandʼAnse",
        "population": -1,
        "latitude": 18.55,
        "longitude": -74.0666667
    },
    {
        "name": "Durocher",
        "country": "Haiti",
        "province": "GrandʼAnse",
        "population": -1,
        "latitude": 18.595262,
        "longitude": -74.373872
    },
    {
        "name": "Durissy",
        "country": "Haiti",
        "province": "Ouest",
        "population": -1,
        "latitude": 18.3833333,
        "longitude": -72.8333333
    },
    {
        "name": "Duranton",
        "country": "Haiti",
        "province": "GrandʼAnse",
        "population": -1,
        "latitude": 18.550552,
        "longitude": -74.150308
    },
    {
        "name": "Duplantin",
        "country": "Haiti",
        "province": "Sud",
        "population": -1,
        "latitude": 18.347481,
        "longitude": -74.073431
    },
    {
        "name": "Dube",
        "country": "Haiti",
        "province": "Ouest",
        "population": -1,
        "latitude": 18.55,
        "longitude": -72.1666667
    },
    {
        "name": "Dossous",
        "country": "Haiti",
        "province": "GrandʼAnse",
        "population": -1,
        "latitude": 18.4275,
        "longitude": -74.46563
    },
    {
        "name": "Dolian",
        "country": "Haiti",
        "province": "Sud",
        "population": -1,
        "latitude": 18.286277,
        "longitude": -74.09926
    },
    {
        "name": "Ditto",
        "country": "Haiti",
        "province": "Ouest",
        "population": -1,
        "latitude": 18.45,
        "longitude": -72.1666667
    },
    {
        "name": "Diondion",
        "country": "Haiti",
        "province": "Nord-Ouest",
        "population": -1,
        "latitude": 19.8522222,
        "longitude": -73.2144444
    },
    {
        "name": "Digo Solon",
        "country": "Haiti",
        "province": "Sud",
        "population": -1,
        "latitude": 18.299355,
        "longitude": -73.686368
    },
    {
        "name": "Dieuron",
        "country": "Haiti",
        "province": "Ouest",
        "population": -1,
        "latitude": 18.5888889,
        "longitude": -72.1891667
    },
    {
        "name": "Diablette",
        "country": "Haiti",
        "province": "Ouest",
        "population": -1,
        "latitude": 18.3669444,
        "longitude": -72.1630556
    },
    {
        "name": "Dessources",
        "country": "Haiti",
        "province": "Ouest",
        "population": -1,
        "latitude": 18.6244444,
        "longitude": -72.2294444
    },
    {
        "name": "Désormeaux",
        "country": "Haiti",
        "province": "GrandʼAnse",
        "population": -1,
        "latitude": 18.624776,
        "longitude": -74.23862
    },
    {
        "name": "Desdunes",
        "country": "Haiti",
        "province": "Artibonite",
        "population": -1,
        "latitude": 19.292403,
        "longitude": -72.644831
    },
    {
        "name": "Deschapelles",
        "country": "Haiti",
        "province": "Artibonite",
        "population": -1,
        "latitude": 19.073554,
        "longitude": -72.491772
    },
    {
        "name": "Deschapelle",
        "country": "Haiti",
        "province": "Ouest",
        "population": -1,
        "latitude": 18.7316667,
        "longitude": -72.4283333
    },
    {
        "name": "Dépas",
        "country": "Haiti",
        "province": "Sud",
        "population": -1,
        "latitude": 18.27217,
        "longitude": -74.0346
    },
    {
        "name": "Délice",
        "country": "Haiti",
        "province": "Ouest",
        "population": -1,
        "latitude": 18.819759,
        "longitude": -72.495408
    },
    {
        "name": "Décotelette",
        "country": "Haiti",
        "province": "GrandʼAnse",
        "population": -1,
        "latitude": 18.433342,
        "longitude": -74.337784
    },
    {
        "name": "Débauché",
        "country": "Haiti",
        "province": "Nord-Ouest",
        "population": -1,
        "latitude": 19.896313,
        "longitude": -72.700994
    },
    {
        "name": "Dayere",
        "country": "Haiti",
        "province": "GrandʼAnse",
        "population": -1,
        "latitude": 18.5166667,
        "longitude": -74.1833333
    },
    {
        "name": "Dasse",
        "country": "Haiti",
        "province": "Ouest",
        "population": -1,
        "latitude": 18.8091667,
        "longitude": -72.5575
    },
    {
        "name": "Corridor Gangny",
        "country": "Haiti",
        "province": "Ouest",
        "population": -1,
        "latitude": 18.822715,
        "longitude": -72.567698
    },
    {
        "name": "Corail-Henry",
        "country": "Haiti",
        "province": "Sud",
        "population": -1,
        "latitude": 18.296618,
        "longitude": -73.555263
    },
    {
        "name": "Conete",
        "country": "Haiti",
        "province": "Sud",
        "population": -1,
        "latitude": 18.319192,
        "longitude": -74.334221
    },
    {
        "name": "Chiedent",
        "country": "Haiti",
        "province": "Sud",
        "population": -1,
        "latitude": 18.0263889,
        "longitude": -73.8691667
    },
    {
        "name": "Chérette",
        "country": "Haiti",
        "province": "Sud",
        "population": -1,
        "latitude": 18.288585,
        "longitude": -73.518783
    },
    {
        "name": "Chanterelle",
        "country": "Haiti",
        "province": "Sud",
        "population": -1,
        "latitude": 18.35,
        "longitude": -74.1833333
    },
    {
        "name": "Chansolme",
        "country": "Haiti",
        "province": "Nord-Ouest",
        "population": -1,
        "latitude": 19.883176,
        "longitude": -72.835459
    },
    {
        "name": "Cerca la Source",
        "country": "Haiti",
        "province": "Centre",
        "population": 2792,
        "latitude": 19.16696,
        "longitude": -71.790147
    },
    {
        "name": "Cerca Carvajal",
        "country": "Haiti",
        "province": "Centre",
        "population": -1,
        "latitude": 19.269627,
        "longitude": -71.93865
    },
    {
        "name": "Ca Vilason",
        "country": "Haiti",
        "province": "Sud",
        "population": -1,
        "latitude": 18.037574,
        "longitude": -73.791493
    },
    {
        "name": "Casale",
        "country": "Haiti",
        "province": "Ouest",
        "population": -1,
        "latitude": 18.799855,
        "longitude": -72.382787
    },
    {
        "name": "Carrefour Sanon",
        "country": "Haiti",
        "province": "GrandʼAnse",
        "population": -1,
        "latitude": 18.6333333,
        "longitude": -74.1833333
    },
    {
        "name": "Carrefour Méridien",
        "country": "Haiti",
        "province": "Sud",
        "population": -1,
        "latitude": 18.1602778,
        "longitude": -73.8219444
    },
    {
        "name": "Carrefour Malette",
        "country": "Haiti",
        "province": "GrandʼAnse",
        "population": -1,
        "latitude": 18.55,
        "longitude": -74.3666667
    },
    {
        "name": "Carpentier",
        "country": "Haiti",
        "province": "Sud",
        "population": -1,
        "latitude": 18.13223,
        "longitude": -73.947334
    },
    {
        "name": "Carice",
        "country": "Haiti",
        "province": "Nord-Est",
        "population": 2104,
        "latitude": 19.377948,
        "longitude": -71.830299
    },
    {
        "name": "Caracol",
        "country": "Haiti",
        "province": "Nord-Est",
        "population": 1549,
        "latitude": 19.692741,
        "longitude": -72.017326
    },
    {
        "name": "Ca Pierre",
        "country": "Haiti",
        "province": "Ouest",
        "population": -1,
        "latitude": 18.898271,
        "longitude": -72.558625
    },
    {
        "name": "Cangé",
        "country": "Haiti",
        "province": "Centre",
        "population": -1,
        "latitude": 18.9166667,
        "longitude": -71.9833333
    },
    {
        "name": "Camp Perrin",
        "country": "Haiti",
        "province": "Sud",
        "population": 967,
        "latitude": 18.326481,
        "longitude": -73.867336
    },
    {
        "name": "Campagne",
        "country": "Haiti",
        "province": "GrandʼAnse",
        "population": -1,
        "latitude": 18.5333333,
        "longitude": -74.2
    },
    {
        "name": "Calalo",
        "country": "Haiti",
        "province": "Ouest",
        "population": -1,
        "latitude": 18.3816667,
        "longitude": -71.9930556
    },
    {
        "name": "Ca Élie",
        "country": "Haiti",
        "province": "Ouest",
        "population": -1,
        "latitude": 18.6847222,
        "longitude": -72.0494444
    },
    {
        "name": "Cadette",
        "country": "Haiti",
        "province": "GrandʼAnse",
        "population": -1,
        "latitude": 18.55,
        "longitude": -74.3166667
    },
    {
        "name": "KaKok",
        "country": "Haiti",
        "province": "Sud",
        "population": -1,
        "latitude": 18.10507,
        "longitude": -73.69253
    },
    {
        "name": "Boutin",
        "country": "Haiti",
        "province": "Ouest",
        "population": -1,
        "latitude": 18.606541,
        "longitude": -72.160652
    },
    {
        "name": "Boucan Greffin",
        "country": "Haiti",
        "province": "Ouest",
        "population": -1,
        "latitude": 18.3936111,
        "longitude": -72.0586111
    },
    {
        "name": "Boukan Kare",
        "country": "Haiti",
        "province": "Centre",
        "population": -1,
        "latitude": 18.966667,
        "longitude": -72.2
    },
    {
        "name": "Bord-de-Mer de Jean-Rabel",
        "country": "Haiti",
        "province": "Nord-Ouest",
        "population": -1,
        "latitude": 19.906742,
        "longitude": -73.194644
    },
    {
        "name": "Bon Pas",
        "country": "Haiti",
        "province": "Sud",
        "population": -1,
        "latitude": 18.299915,
        "longitude": -74.281422
    },
    {
        "name": "Bonne Fin",
        "country": "Haiti",
        "province": "Sud",
        "population": -1,
        "latitude": 18.391625,
        "longitude": -73.612177
    },
    {
        "name": "Bois Sec",
        "country": "Haiti",
        "province": "GrandʼAnse",
        "population": -1,
        "latitude": 18.45657,
        "longitude": -74.05665
    },
    {
        "name": "Bois Lame",
        "country": "Haiti",
        "province": "Ouest",
        "population": -1,
        "latitude": 18.350945,
        "longitude": -72.130391
    },
    {
        "name": "Bois Délai",
        "country": "Haiti",
        "province": "Sud",
        "population": -1,
        "latitude": 18.361741,
        "longitude": -74.12614
    },
    {
        "name": "Boco",
        "country": "Haiti",
        "province": "Sud",
        "population": -1,
        "latitude": 18.321683,
        "longitude": -74.167625
    },
    {
        "name": "Berger",
        "country": "Haiti",
        "province": "Sud",
        "population": -1,
        "latitude": 18.1513889,
        "longitude": -73.9288889
    },
    {
        "name": "Béraud",
        "country": "Haiti",
        "province": "Sud",
        "population": -1,
        "latitude": 18.204995,
        "longitude": -73.859242
    },
    {
        "name": "Belle Vue",
        "country": "Haiti",
        "province": "Sud",
        "population": -1,
        "latitude": 18.198153,
        "longitude": -73.866902
    },
    {
        "name": "Belle Fontaine",
        "country": "Haiti",
        "province": "Ouest",
        "population": -1,
        "latitude": 18.451733,
        "longitude": -72.133037
    },
    {
        "name": "Belle-Anse",
        "country": "Haiti",
        "province": "Sud-Est",
        "population": 2611,
        "latitude": 18.237685,
        "longitude": -72.066382
    },
    {
        "name": "Carrefour",
        "country": "Haiti",
        "province": "Ouest",
        "population": -1,
        "latitude": 18.5333333,
        "longitude": -72.4
    },
    {
        "name": "Pointe Sable",
        "country": "Haiti",
        "province": "GrandʼAnse",
        "population": -1,
        "latitude": 18.604821,
        "longitude": -73.79601
    },
    {
        "name": "Plaine Griffe",
        "country": "Haiti",
        "province": "GrandʼAnse",
        "population": -1,
        "latitude": 18.513439,
        "longitude": -74.427202
    },
    {
        "name": "L'Îlet",
        "country": "Haiti",
        "province": "Sud",
        "population": -1,
        "latitude": 18.229226,
        "longitude": -73.668793
    },
    {
        "name": "Ville Bonheur",
        "country": "Haiti",
        "province": "Centre",
        "population": -1,
        "latitude": 18.815976,
        "longitude": -72.20193
    },
    {
        "name": "Villars",
        "country": "Haiti",
        "province": "Artibonite",
        "population": -1,
        "latitude": 19.201085,
        "longitude": -72.596367
    },
    {
        "name": "Vieux Bourg de Jérémie",
        "country": "Haiti",
        "province": "GrandʼAnse",
        "population": -1,
        "latitude": 18.61609,
        "longitude": -74.082962
    },
    {
        "name": "Verbouc",
        "country": "Haiti",
        "province": "Nord-Est",
        "population": -1,
        "latitude": 19.621354,
        "longitude": -71.828963
    },
    {
        "name": "Fond Trouin",
        "country": "Haiti",
        "province": "Ouest",
        "population": -1,
        "latitude": 18.365097,
        "longitude": -72.655732
    },
    {
        "name": "Ti Desdunes",
        "country": "Haiti",
        "province": "Artibonite",
        "population": -1,
        "latitude": 19.325357,
        "longitude": -72.649705
    },
    {
        "name": "Ti Charute",
        "country": "Haiti",
        "province": "Nord",
        "population": -1,
        "latitude": 19.716644,
        "longitude": -72.169892
    },
    {
        "name": "Tête Grande Ravine",
        "country": "Haiti",
        "province": "Centre",
        "population": -1,
        "latitude": 18.916667,
        "longitude": -71.85
    },
    {
        "name": "Terre Rouge",
        "country": "Haiti",
        "province": "Centre",
        "population": -1,
        "latitude": 18.710601,
        "longitude": -72.15719
    },
    {
        "name": "Terre Mouscadie",
        "country": "Haiti",
        "province": "Centre",
        "population": -1,
        "latitude": 18.978843,
        "longitude": -71.925833
    },
    {
        "name": "Teinturiers",
        "country": "Haiti",
        "province": "Nippes",
        "population": -1,
        "latitude": 18.463039,
        "longitude": -73.237854
    },
    {
        "name": "Tabarre",
        "country": "Haiti",
        "province": "Ouest",
        "population": -1,
        "latitude": 18.5833333,
        "longitude": -72.2666667
    },
    {
        "name": "Sinaï",
        "country": "Haiti",
        "province": "Nippes",
        "population": -1,
        "latitude": 18.41635,
        "longitude": -73.433263
    },
    {
        "name": "Sigueneau",
        "country": "Haiti",
        "province": "Ouest",
        "population": -1,
        "latitude": 18.51812,
        "longitude": -72.600946
    },
    {
        "name": "Savane Zombi",
        "country": "Haiti",
        "province": "Sud-Est",
        "population": -1,
        "latitude": 18.278912,
        "longitude": -71.808712
    },
    {
        "name": "Roye-Sec",
        "country": "Haiti",
        "province": "Centre",
        "population": -1,
        "latitude": 18.892961,
        "longitude": -71.837424
    },
    {
        "name": "Roy Canot",
        "country": "Haiti",
        "province": "Centre",
        "population": -1,
        "latitude": 18.891066,
        "longitude": -71.894915
    },
    {
        "name": "Rosier",
        "country": "Haiti",
        "province": "Sud",
        "population": -1,
        "latitude": 18.1833333,
        "longitude": -73.9833333
    },
    {
        "name": "Roche Mulâtre",
        "country": "Haiti",
        "province": "Centre",
        "population": -1,
        "latitude": 18.88701,
        "longitude": -71.978629
    },
    {
        "name": "Rang",
        "country": "Haiti",
        "province": "Artibonite",
        "population": -1,
        "latitude": 19.403433,
        "longitude": -72.263401
    },
    {
        "name": "Poty",
        "country": "Haiti",
        "province": "Sud",
        "population": -1,
        "latitude": 18.329385,
        "longitude": -74.082487
    },
    {
        "name": "Plaisance",
        "country": "Haiti",
        "province": "Nord",
        "population": 4152,
        "latitude": 19.597953,
        "longitude": -72.469936
    },
    {
        "name": "Plaisance",
        "country": "Haiti",
        "province": "Nippes",
        "population": -1,
        "latitude": 18.428876,
        "longitude": -73.614276
    },
    {
        "name": "Plaine aux Pins",
        "country": "Haiti",
        "province": "Nippes",
        "population": -1,
        "latitude": 18.444846,
        "longitude": -73.563142
    },
    {
        "name": "Peye",
        "country": "Haiti",
        "province": "Artibonite",
        "population": -1,
        "latitude": 19.166118,
        "longitude": -72.599202
    },
    {
        "name": "Pémel",
        "country": "Haiti",
        "province": "Nippes",
        "population": -1,
        "latitude": 18.363903,
        "longitude": -73.196449
    },
    {
        "name": "Pavajonc",
        "country": "Haiti",
        "province": "Artibonite",
        "population": -1,
        "latitude": 19.00634,
        "longitude": -72.61638
    },
    {
        "name": "Paul",
        "country": "Haiti",
        "province": "Artibonite",
        "population": -1,
        "latitude": 19.30581,
        "longitude": -72.425592
    },
    {
        "name": "Nicolon",
        "country": "Haiti",
        "province": "Nippes",
        "population": -1,
        "latitude": 18.441873,
        "longitude": -73.762437
    },
    {
        "name": "Nansinte",
        "country": "Haiti",
        "province": "Sud",
        "population": -1,
        "latitude": 18.34964,
        "longitude": -74.43877
    },
    {
        "name": "Nan Sévré",
        "country": "Haiti",
        "province": "Sud",
        "population": -1,
        "latitude": 18.341635,
        "longitude": -74.296856
    },
    {
        "name": "Nan Gris",
        "country": "Haiti",
        "province": "Nord-Ouest",
        "population": -1,
        "latitude": 20.031552,
        "longitude": -72.851638
    },
    {
        "name": "Nan Georges",
        "country": "Haiti",
        "province": "Sud-Est",
        "population": -1,
        "latitude": 18.248272,
        "longitude": -72.856808
    },
    {
        "name": "Nan Fourc",
        "country": "Haiti",
        "province": "Ouest",
        "population": -1,
        "latitude": 18.430465,
        "longitude": -72.4375
    },
    {
        "name": "Nan Citron",
        "country": "Haiti",
        "province": "Sud-Est",
        "population": -1,
        "latitude": 18.2780556,
        "longitude": -72.2675
    },
    {
        "name": "Nan Bébé",
        "country": "Haiti",
        "province": "Ouest",
        "population": -1,
        "latitude": 18.739606,
        "longitude": -72.806938
    },
    {
        "name": "Meyer",
        "country": "Haiti",
        "province": "Sud-Est",
        "population": -1,
        "latitude": 18.230801,
        "longitude": -72.482652
    },
    {
        "name": "Méyence",
        "country": "Haiti",
        "province": "Nord-Ouest",
        "population": -1,
        "latitude": 19.900537,
        "longitude": -72.635648
    },
    {
        "name": "Mexi",
        "country": "Haiti",
        "province": "Sud",
        "population": -1,
        "latitude": 18.21865,
        "longitude": -73.06929
    },
    {
        "name": "Mayotte",
        "country": "Haiti",
        "province": "Ouest",
        "population": -1,
        "latitude": 18.514694,
        "longitude": -72.267413
    },
    {
        "name": "Mare Terrienne",
        "country": "Haiti",
        "province": "Nord-Ouest",
        "population": -1,
        "latitude": 20.052813,
        "longitude": -72.797526
    },
    {
        "name": "Mare Jolie",
        "country": "Haiti",
        "province": "Sud-Est",
        "population": -1,
        "latitude": 18.3,
        "longitude": -72.05
    },
    {
        "name": "Marche à Terre",
        "country": "Haiti",
        "province": "Sud",
        "population": -1,
        "latitude": 18.029919,
        "longitude": -73.886878
    },
    {
        "name": "Marcelline",
        "country": "Haiti",
        "province": "Sud",
        "population": -1,
        "latitude": 18.361826,
        "longitude": -73.874254
    },
    {
        "name": "Marc Aurèle",
        "country": "Haiti",
        "province": "Nord-Ouest",
        "population": -1,
        "latitude": 19.86057,
        "longitude": -72.61718
    },
    {
        "name": "Mayisad",
        "country": "Haiti",
        "province": "Centre",
        "population": 5204,
        "latitude": 19.176073,
        "longitude": -72.139576
    },
    {
        "name": "Maillette",
        "country": "Haiti",
        "province": "Ouest",
        "population": -1,
        "latitude": 18.499591,
        "longitude": -72.468686
    },
    {
        "name": "Louis",
        "country": "Haiti",
        "province": "Ouest",
        "population": -1,
        "latitude": 18.665889,
        "longitude": -71.934529
    },
    {
        "name": "Lottore",
        "country": "Haiti",
        "province": "Ouest",
        "population": -1,
        "latitude": 18.781987,
        "longitude": -73.011239
    },
    {
        "name": "Belladère",
        "country": "Haiti",
        "province": "Centre",
        "population": -1,
        "latitude": 18.867915,
        "longitude": -71.762207
    },
    {
        "name": "Bayeux",
        "country": "Haiti",
        "province": "Nord",
        "population": -1,
        "latitude": 19.808023,
        "longitude": -72.432107
    },
    {
        "name": "Bassan",
        "country": "Haiti",
        "province": "Ouest",
        "population": -1,
        "latitude": 18.610734,
        "longitude": -72.32527
    },
    {
        "name": "Bas de Sault",
        "country": "Haiti",
        "province": "Artibonite",
        "population": -1,
        "latitude": 19.448123,
        "longitude": -72.322199
    },
    {
        "name": "Barrière Battant",
        "country": "Haiti",
        "province": "Nord",
        "population": -1,
        "latitude": 19.623692,
        "longitude": -72.197697
    },
    {
        "name": "Bariadelle",
        "country": "Haiti",
        "province": "GrandʼAnse",
        "population": -1,
        "latitude": 18.51888,
        "longitude": -74.43982
    },
    {
        "name": "Bacillier",
        "country": "Haiti",
        "province": "Sud",
        "population": -1,
        "latitude": 18.365571,
        "longitude": -74.159349
    },
    {
        "name": "Bac d'Aquin",
        "country": "Haiti",
        "province": "Artibonite",
        "population": -1,
        "latitude": 19.229827,
        "longitude": -72.630772
    },
    {
        "name": "Les Palmistes",
        "country": "Haiti",
        "province": "Nord-Ouest",
        "population": -1,
        "latitude": 20.01774,
        "longitude": -72.723477
    },
    {
        "name": "Au Parc",
        "country": "Haiti",
        "province": "Ouest",
        "population": -1,
        "latitude": 18.722195,
        "longitude": -72.837074
    },
    {
        "name": "Anse à Pirogue",
        "country": "Haiti",
        "province": "Artibonite",
        "population": -1,
        "latitude": 19.034219,
        "longitude": -72.810059
    },
    {
        "name": "Anse d’Azur",
        "country": "Haiti",
        "province": "GrandʼAnse",
        "population": -1,
        "latitude": 18.66001,
        "longitude": -74.14745
    },
    {
        "name": "Anse-à-Foleur",
        "country": "Haiti",
        "province": "Nord-Ouest",
        "population": -1,
        "latitude": 19.892604,
        "longitude": -72.620145
    },
    {
        "name": "Acul Samedi",
        "country": "Haiti",
        "province": "Nord-Est",
        "population": 765,
        "latitude": 19.518812,
        "longitude": -71.882137
    },
    {
        "name": "Cité Soleil",
        "country": "Haiti",
        "province": "Ouest",
        "population": -1,
        "latitude": 18.5802778,
        "longitude": -72.3380556
    },
    {
        "name": "Lilette",
        "country": "Haiti",
        "province": "GrandʼAnse",
        "population": -1,
        "latitude": 18.469964,
        "longitude": -74.453456
    },
    {
        "name": "L’Îlet",
        "country": "Haiti",
        "province": "Sud-Est",
        "population": -1,
        "latitude": 18.197287,
        "longitude": -72.793592
    },
    {
        "name": "Poteaux",
        "country": "Haiti",
        "province": "Artibonite",
        "population": -1,
        "latitude": 19.513605,
        "longitude": -72.616837
    },
    {
        "name": "L'Ermitte",
        "country": "Haiti",
        "province": "Artibonite",
        "population": -1,
        "latitude": 19.254903,
        "longitude": -72.286431
    },
    {
        "name": "Lépinard",
        "country": "Haiti",
        "province": "Artibonite",
        "population": -1,
        "latitude": 18.898085,
        "longitude": -72.260599
    },
    {
        "name": "Lebrun",
        "country": "Haiti",
        "province": "Nippes",
        "population": -1,
        "latitude": 18.432246,
        "longitude": -73.156242
    },
    {
        "name": "La Yaye",
        "country": "Haiti",
        "province": "Centre",
        "population": -1,
        "latitude": 18.965805,
        "longitude": -71.83571
    },
    {
        "name": "Laville",
        "country": "Haiti",
        "province": "Artibonite",
        "population": -1,
        "latitude": 19.155831,
        "longitude": -72.516609
    },
    {
        "name": "La Verte",
        "country": "Haiti",
        "province": "Nord-Ouest",
        "population": -1,
        "latitude": 19.839435,
        "longitude": -72.649913
    },
    {
        "name": "L'Autre Bord de l'Eau",
        "country": "Haiti",
        "province": "Ouest",
        "population": -1,
        "latitude": 18.75039,
        "longitude": -72.877855
    },
    {
        "name": "L'Asile",
        "country": "Haiti",
        "province": "Nippes",
        "population": 778,
        "latitude": 18.383984,
        "longitude": -73.414351
    },
    {
        "name": "La Salle Petite Place",
        "country": "Haiti",
        "province": "Ouest",
        "population": -1,
        "latitude": 18.5419444,
        "longitude": -72.5502778
    },
    {
        "name": "La Revoir",
        "country": "Haiti",
        "province": "Sud-Est",
        "population": -1,
        "latitude": 18.148981,
        "longitude": -72.811833
    },
    {
        "name": "Laplante",
        "country": "Haiti",
        "province": "Sud",
        "population": -1,
        "latitude": 18.414933,
        "longitude": -73.656903
    },
    {
        "name": "Lan Gaïac",
        "country": "Haiti",
        "province": "Ouest",
        "population": -1,
        "latitude": 18.884683,
        "longitude": -73.2036
    },
    {
        "name": "La Hatte Foucault",
        "country": "Haiti",
        "province": "GrandʼAnse",
        "population": -1,
        "latitude": 18.469081,
        "longitude": -73.809956
    },
    {
        "name": "La Garenne",
        "country": "Haiti",
        "province": "Nord-Est",
        "population": -1,
        "latitude": 19.472387,
        "longitude": -71.756675
    },
    {
        "name": "La Garenne",
        "country": "Haiti",
        "province": "Artibonite",
        "population": -1,
        "latitude": 19.080634,
        "longitude": -72.619301
    },
    {
        "name": "La Cour Paletot",
        "country": "Haiti",
        "province": "Artibonite",
        "population": -1,
        "latitude": 19.618519,
        "longitude": -72.769635
    },
    {
        "name": "La Branle",
        "country": "Haiti",
        "province": "Artibonite",
        "population": -1,
        "latitude": 19.610306,
        "longitude": -72.616048
    },
    {
        "name": "Juampas",
        "country": "Haiti",
        "province": "Centre",
        "population": -1,
        "latitude": 18.852808,
        "longitude": -71.924274
    },
    {
        "name": "Jo Fourneau",
        "country": "Haiti",
        "province": "Sud-Est",
        "population": -1,
        "latitude": 18.1861111,
        "longitude": -72.8366667
    },
    {
        "name": "Jean Bellune",
        "country": "Haiti",
        "province": "GrandʼAnse",
        "population": -1,
        "latitude": 18.479003,
        "longitude": -73.786294
    },
    {
        "name": "Jacquesil",
        "country": "Haiti",
        "province": "Nord-Est",
        "population": -1,
        "latitude": 19.684803,
        "longitude": -71.991438
    },
    {
        "name": "Hautes Feuilles",
        "country": "Haiti",
        "province": "Artibonite",
        "population": -1,
        "latitude": 19.272062,
        "longitude": -72.572091
    },
    {
        "name": "Gullouette",
        "country": "Haiti",
        "province": "Nord-Est",
        "population": -1,
        "latitude": 19.444389,
        "longitude": -71.821245
    },
    {
        "name": "Guibert",
        "country": "Haiti",
        "province": "Ouest",
        "population": -1,
        "latitude": 18.946667,
        "longitude": -72.649167
    },
    {
        "name": "Grosse Chaudière",
        "country": "Haiti",
        "province": "Artibonite",
        "population": -1,
        "latitude": 19.148647,
        "longitude": -72.504584
    },
    {
        "name": "Grand Port",
        "country": "Haiti",
        "province": "Artibonite",
        "population": -1,
        "latitude": 19.6066667,
        "longitude": -73.0022222
    },
    {
        "name": "Grande Place Leroy",
        "country": "Haiti",
        "province": "Ouest",
        "population": -1,
        "latitude": 18.585466,
        "longitude": -72.078834
    },
    {
        "name": "Garde l’Acul",
        "country": "Haiti",
        "province": "Ouest",
        "population": -1,
        "latitude": 18.416667,
        "longitude": -72.9
    },
    {
        "name": "Ganthier",
        "country": "Haiti",
        "province": "Ouest",
        "population": -1,
        "latitude": 18.531588,
        "longitude": -72.063345
    },
    {
        "name": "Gaillard",
        "country": "Haiti",
        "province": "Sud-Est",
        "population": -1,
        "latitude": 18.2661111,
        "longitude": -72.3908333
    },
    {
        "name": "Frécineau",
        "country": "Haiti",
        "province": "Artibonite",
        "population": -1,
        "latitude": 19.091254,
        "longitude": -72.723403
    },
    {
        "name": "François Mort",
        "country": "Haiti",
        "province": "Artibonite",
        "population": -1,
        "latitude": 18.991589,
        "longitude": -72.516094
    },
    {
        "name": "Fond Rémosin",
        "country": "Haiti",
        "province": "Artibonite",
        "population": -1,
        "latitude": 18.997201,
        "longitude": -72.543218
    },
    {
        "name": "Fonds Pite",
        "country": "Haiti",
        "province": "Ouest",
        "population": -1,
        "latitude": 18.647257,
        "longitude": -72.02895
    },
    {
        "name": "Fond Parisien",
        "country": "Haiti",
        "province": "Ouest",
        "population": -1,
        "latitude": 18.5166667,
        "longitude": -71.9833333
    },
    {
        "name": "Fond Parisien",
        "country": "Haiti",
        "province": "Ouest",
        "population": 18256,
        "latitude": 18.505469,
        "longitude": -71.981221
    },
    {
        "name": "Fon Dè Nèg",
        "country": "Haiti",
        "province": "Nippes",
        "population": -1,
        "latitude": 18.360771,
        "longitude": -73.23411
    },
    {
        "name": "Fond Châtelain",
        "country": "Haiti",
        "province": "Artibonite",
        "population": -1,
        "latitude": 19.61117,
        "longitude": -72.573395
    },
    {
        "name": "Fond Bassin Bleu",
        "country": "Haiti",
        "province": "Nord-Ouest",
        "population": 1184,
        "latitude": 19.794446,
        "longitude": -72.79949
    },
    {
        "name": "Flandé",
        "country": "Haiti",
        "province": "Centre",
        "population": -1,
        "latitude": 18.796395,
        "longitude": -71.963763
    },
    {
        "name": "Fauché",
        "country": "Haiti",
        "province": "Ouest",
        "population": -1,
        "latitude": 18.423362,
        "longitude": -72.738128
    },
    {
        "name": "Duverneuille",
        "country": "Haiti",
        "province": "Artibonite",
        "population": -1,
        "latitude": 19.673407,
        "longitude": -72.90674
    },
    {
        "name": "Duplessis",
        "country": "Haiti",
        "province": "Nord",
        "population": -1,
        "latitude": 19.634004,
        "longitude": -72.330746
    },
    {
        "name": "Dunère",
        "country": "Haiti",
        "province": "Artibonite",
        "population": -1,
        "latitude": 18.984046,
        "longitude": -72.553071
    },
    {
        "name": "Dubedou",
        "country": "Haiti",
        "province": "Artibonite",
        "population": -1,
        "latitude": 19.565656,
        "longitude": -72.630506
    },
    {
        "name": "Douzil",
        "country": "Haiti",
        "province": "Sud-Est",
        "population": -1,
        "latitude": 18.203475,
        "longitude": -72.739954
    },
    {
        "name": "Dosmont",
        "country": "Haiti",
        "province": "Nord-Est",
        "population": -1,
        "latitude": 19.519395,
        "longitude": -71.730475
    },
    {
        "name": "Dolant",
        "country": "Haiti",
        "province": "Artibonite",
        "population": -1,
        "latitude": 19.579896,
        "longitude": -72.545181
    },
    {
        "name": "Dimulseau",
        "country": "Haiti",
        "province": "Ouest",
        "population": -1,
        "latitude": 18.60835,
        "longitude": -72.129807
    },
    {
        "name": "Dévarieux",
        "country": "Haiti",
        "province": "Centre",
        "population": -1,
        "latitude": 18.8,
        "longitude": -72.05
    },
    {
        "name": "Chevreau des Cloches",
        "country": "Haiti",
        "province": "Artibonite",
        "population": -1,
        "latitude": 19.204052,
        "longitude": -72.609742
    },
    {
        "name": "Désarmes",
        "country": "Haiti",
        "province": "Artibonite",
        "population": -1,
        "latitude": 19,
        "longitude": -72.3833333
    },
    {
        "name": "Désarmes",
        "country": "Haiti",
        "province": "Artibonite",
        "population": 15594,
        "latitude": 18.993451,
        "longitude": -72.390576
    },
    {
        "name": "Dérac",
        "country": "Haiti",
        "province": "Nord-Est",
        "population": 1855,
        "latitude": 19.654761,
        "longitude": -71.814507
    },
    {
        "name": "De l’Eau Noire",
        "country": "Haiti",
        "province": "Centre",
        "population": -1,
        "latitude": 19.049928,
        "longitude": -71.786372
    },
    {
        "name": "De l’Eau Coq",
        "country": "Haiti",
        "province": "Centre",
        "population": -1,
        "latitude": 19.114816,
        "longitude": -71.882155
    },
    {
        "name": "Darang",
        "country": "Haiti",
        "province": "Artibonite",
        "population": -1,
        "latitude": 19.548617,
        "longitude": -72.758023
    },
    {
        "name": "Dame-Jeanne Cassée",
        "country": "Haiti",
        "province": "Centre",
        "population": -1,
        "latitude": 18.9,
        "longitude": -71.783333
    },
    {
        "name": "Damassins",
        "country": "Haiti",
        "province": "Sud",
        "population": -1,
        "latitude": 18.2333333,
        "longitude": -74.0666667
    },
    {
        "name": "Croix-Mulâtresse",
        "country": "Haiti",
        "province": "Artibonite",
        "population": -1,
        "latitude": 19.15,
        "longitude": -72.666667
    },
    {
        "name": "Corail Lhérisson",
        "country": "Haiti",
        "province": "Sud",
        "population": -1,
        "latitude": 18.227043,
        "longitude": -73.033322
    },
    {
        "name": "Corail",
        "country": "Haiti",
        "province": "GrandʼAnse",
        "population": 2782,
        "latitude": 18.567663,
        "longitude": -73.889421
    },
    {
        "name": "Citroniers",
        "country": "Haiti",
        "province": "Ouest",
        "population": -1,
        "latitude": 18.406445,
        "longitude": -72.55668
    },
    {
        "name": "Chaumont",
        "country": "Haiti",
        "province": "Artibonite",
        "population": -1,
        "latitude": 19.5333333,
        "longitude": -72.75
    },
    {
        "name": "Changieux",
        "country": "Haiti",
        "province": "Nippes",
        "population": -1,
        "latitude": 18.372576,
        "longitude": -73.524709
    },
    {
        "name": "Chambellan",
        "country": "Haiti",
        "province": "GrandʼAnse",
        "population": 1397,
        "latitude": 18.550375,
        "longitude": -74.31317
    },
    {
        "name": "Cercadie",
        "country": "Haiti",
        "province": "Centre",
        "population": -1,
        "latitude": 19.000875,
        "longitude": -71.815792
    },
    {
        "name": "Castor",
        "country": "Haiti",
        "province": "Artibonite",
        "population": -1,
        "latitude": 19.424695,
        "longitude": -72.511557
    },
    {
        "name": "Cassourde",
        "country": "Haiti",
        "province": "Sud-Est",
        "population": -1,
        "latitude": 18.120895,
        "longitude": -71.762523
    },
    {
        "name": "Carrefour Moussignac",
        "country": "Haiti",
        "province": "Nippes",
        "population": -1,
        "latitude": 18.383333,
        "longitude": -73.1
    },
    {
        "name": "Carrefour Kanse",
        "country": "Haiti",
        "province": "Sud",
        "population": -1,
        "latitude": 18.2333333,
        "longitude": -73.8
    },
    {
        "name": "Carrefour Joffre",
        "country": "Haiti",
        "province": "Artibonite",
        "population": -1,
        "latitude": 19.4833333,
        "longitude": -72.65
    },
    {
        "name": "Carrefour des Pères",
        "country": "Haiti",
        "province": "Nord",
        "population": -1,
        "latitude": 19.685,
        "longitude": -72.2047222
    },
    {
        "name": "Capotille",
        "country": "Haiti",
        "province": "Nord-Est",
        "population": -1,
        "latitude": 19.447988,
        "longitude": -71.692886
    },
    {
        "name": "Ca Martin",
        "country": "Haiti",
        "province": "Artibonite",
        "population": -1,
        "latitude": 19.632635,
        "longitude": -72.649872
    },
    {
        "name": "Ca-Ira",
        "country": "Haiti",
        "province": "Ouest",
        "population": -1,
        "latitude": 18.520137,
        "longitude": -72.644464
    },
    {
        "name": "Caille Piti",
        "country": "Haiti",
        "province": "Ouest",
        "population": -1,
        "latitude": 18.516832,
        "longitude": -72.468207
    },
    {
        "name": "Cafétanal",
        "country": "Haiti",
        "province": "Centre",
        "population": -1,
        "latitude": 18.756771,
        "longitude": -71.745171
    },
    {
        "name": "Ca Berthe",
        "country": "Haiti",
        "province": "Nippes",
        "population": -1,
        "latitude": 18.505445,
        "longitude": -73.395489
    },
    {
        "name": "Bousinette",
        "country": "Haiti",
        "province": "Ouest",
        "population": -1,
        "latitude": 18.865557,
        "longitude": -73.086204
    },
    {
        "name": "Bourrouque",
        "country": "Haiti",
        "province": "Centre",
        "population": -1,
        "latitude": 19.221766,
        "longitude": -71.683434
    },
    {
        "name": "Boucan Légume",
        "country": "Haiti",
        "province": "Ouest",
        "population": -1,
        "latitude": 18.761365,
        "longitude": -72.83075
    },
    {
        "name": "Boucan Ferdinand",
        "country": "Haiti",
        "province": "Ouest",
        "population": -1,
        "latitude": 18.337277,
        "longitude": -71.713331
    },
    {
        "name": "Boroc",
        "country": "Haiti",
        "province": "Nord",
        "population": -1,
        "latitude": 19.293505,
        "longitude": -72.069016
    },
    {
        "name": "Bord de Mer de Limonade",
        "country": "Haiti",
        "province": "Nord",
        "population": -1,
        "latitude": 19.728204,
        "longitude": -72.114237
    },
    {
        "name": "Bongars",
        "country": "Haiti",
        "province": "Ouest",
        "population": -1,
        "latitude": 18.440727,
        "longitude": -72.351711
    },
    {
        "name": "Bon Fond",
        "country": "Haiti",
        "province": "Nord-Est",
        "population": -1,
        "latitude": 19.5666667,
        "longitude": -71.95
    },
    {
        "name": "Bois",
        "country": "Haiti",
        "province": "Ouest",
        "population": -1,
        "latitude": 18.945497,
        "longitude": -72.504296
    },
    {
        "name": "Bocozel",
        "country": "Haiti",
        "province": "Artibonite",
        "population": -1,
        "latitude": 19.20832,
        "longitude": -72.639562
    },
    {
        "name": "Billiguy",
        "country": "Haiti",
        "province": "Centre",
        "population": -1,
        "latitude": 19.245589,
        "longitude": -72.216212
    },
    {
        "name": "Bellangé",
        "country": "Haiti",
        "province": "Artibonite",
        "population": -1,
        "latitude": 19.114288,
        "longitude": -72.519171
    },
    {
        "name": "Bois Moquette",
        "country": "Haiti",
        "province": "Ouest",
        "population": -1,
        "latitude": 18.275,
        "longitude": -72.5041667
    },
    {
        "name": "Bois Verna",
        "country": "Haiti",
        "province": "Ouest",
        "population": -1,
        "latitude": 18.5363889,
        "longitude": -72.33
    },
    {
        "name": "Zoranger",
        "country": "Haiti",
        "province": "Ouest",
        "population": -1,
        "latitude": 18.8833333,
        "longitude": -73.1833333
    },
    {
        "name": "Yvra",
        "country": "Haiti",
        "province": "Ouest",
        "population": -1,
        "latitude": 18.952952,
        "longitude": -72.660716
    },
    {
        "name": "Welch",
        "country": "Haiti",
        "province": "Nord-Est",
        "population": -1,
        "latitude": 19.453641,
        "longitude": -71.719997
    },
    {
        "name": "Voûte l’Église",
        "country": "Haiti",
        "province": "Nord-Ouest",
        "population": -1,
        "latitude": 20.077385,
        "longitude": -72.794634
    },
    {
        "name": "Vivant",
        "country": "Haiti",
        "province": "Nippes",
        "population": -1,
        "latitude": 18.416667,
        "longitude": -73.166667
    },
    {
        "name": "Vilellot",
        "country": "Haiti",
        "province": "Artibonite",
        "population": -1,
        "latitude": 19.05,
        "longitude": -72.4833333
    },
    {
        "name": "Vieux Gaille",
        "country": "Haiti",
        "province": "Nord-Est",
        "population": -1,
        "latitude": 19.455893,
        "longitude": -71.831269
    },
    {
        "name": "Vieux Caille",
        "country": "Haiti",
        "province": "Nord-Ouest",
        "population": -1,
        "latitude": 19.8833333,
        "longitude": -72.5833333
    },
    {
        "name": "Vieux Boucan",
        "country": "Haiti",
        "province": "Sud",
        "population": -1,
        "latitude": 18.3,
        "longitude": -74.35
    },
    {
        "name": "Viette",
        "country": "Haiti",
        "province": "Centre",
        "population": -1,
        "latitude": 18.9333333,
        "longitude": -72.1
    },
    {
        "name": "Viellot",
        "country": "Haiti",
        "province": "Artibonite",
        "population": -1,
        "latitude": 19.065831,
        "longitude": -72.581679
    },
    {
        "name": "Vieille Terre",
        "country": "Haiti",
        "province": "Nord-Ouest",
        "population": -1,
        "latitude": 19.8291667,
        "longitude": -73.0144444
    },
    {
        "name": "Vieille Terre",
        "country": "Haiti",
        "province": "Nord",
        "population": -1,
        "latitude": 19.5833333,
        "longitude": -72.4166667
    },
    {
        "name": "Vieillard",
        "country": "Haiti",
        "province": "Nippes",
        "population": -1,
        "latitude": 18.416667,
        "longitude": -73.2
    },