[
    {
        "name": "Budapest",
        "country": "Hungary",
        "province": "Budapest",
        "population": 1741041,
        "latitude": 47.49835,
        "longitude": 19.04045
    },
    {
        "name": "Zugló",
        "country": "Hungary",
        "province": "Budapest",
        "population": 130000,
        "latitude": 47.517575,
        "longitude": 19.105494
    },
    {
        "name": "Budapest XI. kerület",
        "country": "Hungary",
        "province": "Budapest",
        "population": 139049,
        "latitude": 47.47602772129793,
        "longitude": 19.03604507446289
    },
    {
        "name": "Pécs",
        "country": "Hungary",
        "province": "Baranya",
        "population": 145347,
        "latitude": 46.0725,
        "longitude": 18.230833
    },
    {
        "name": "Kecskemét",
        "country": "Hungary",
        "province": "Bács-Kiskun",
        "population": 109847,
        "latitude": 46.9061837801476,
        "longitude": 19.691276550293
    },
    {
        "name": "Kaposvár",
        "country": "Hungary",
        "province": "Somogy",
        "population": 64280,
        "latitude": 46.366667,
        "longitude": 17.8
    },
    {
        "name": "Győr",
        "country": "Hungary",
        "province": "Győr-Moson-Sopron",
        "population": 129301,
        "latitude": 47.683332247339834,
        "longitude": 17.635116577148438
    },
    {
        "name": "Zalaegerszeg",
        "country": "Hungary",
        "province": "Zala",
        "population": 61898,
        "latitude": 46.84,
        "longitude": 16.8438889
    },
    {
        "name": "Veszprém",
        "country": "Hungary",
        "province": "Veszprém",
        "population": 56927,
        "latitude": 47.09326676640354,
        "longitude": 17.91149139404297
    },
    {
        "name": "Szombathely",
        "country": "Hungary",
        "province": "Vas",
        "population": 78025,
        "latitude": 47.230876214413,
        "longitude": 16.6215527057648
    },
    {
        "name": "Székesfehérvár",
        "country": "Hungary",
        "province": "Fejér",
        "population": 101600,
        "latitude": 47.1899457768574,
        "longitude": 18.4103393554688
    },
    {
        "name": "Szolnok",
        "country": "Hungary",
        "province": "Jász-Nagykun-Szolnok",
        "population": 71285,
        "latitude": 47.1833333,
        "longitude": 20.2
    },
    {
        "name": "Szeged",
        "country": "Hungary",
        "province": "Csongrád",
        "population": 160766,
        "latitude": 46.2529981022004,
        "longitude": 20.1482391357422
    },
    {
        "name": "Nyíregyháza",
        "country": "Hungary",
        "province": "Szabolcs-Szatmár-Bereg",
        "population": 117689,
        "latitude": 47.955386780756804,
        "longitude": 21.71670913696289
    },
    {
        "name": "Miskolc",
        "country": "Hungary",
        "province": "Borsod-Abaúj-Zemplén",
        "population": 154521,
        "latitude": 48.103056,
        "longitude": 20.778056
    },
    {
        "name": "Eger",
        "country": "Hungary",
        "province": "Heves",
        "population": 53876,
        "latitude": 47.9026492759859,
        "longitude": 20.373287200927734
    },
    {
        "name": "Debrecen",
        "country": "Hungary",
        "province": "Hajdú-Bihar",
        "population": 202402,
        "latitude": 47.531667,
        "longitude": 21.624444
    },
    {
        "name": "Békéscsaba",
        "country": "Hungary",
        "province": "Bekes County",
        "population": 59732,
        "latitude": 46.683333,
        "longitude": 21.1
    },
    {
        "name": "Budapest III. kerület",
        "country": "Hungary",
        "province": "Budapest",
        "population": 123723,
        "latitude": 47.54157031630567,
        "longitude": 19.04501438140869
    },
    {
        "name": "Sopron",
        "country": "Hungary",
        "province": "Győr-Moson-Sopron",
        "population": 62246,
        "latitude": 47.68500794461099,
        "longitude": 16.590492725372314
    },
    {
        "name": "Salgótarján",
        "country": "Hungary",
        "province": "Nógrád",
        "population": 34627,
        "latitude": 48.0987189894286,
        "longitude": 19.8030281066895
    },
    {
        "name": "Tatabánya",
        "country": "Hungary",
        "province": "Komárom-Esztergom",
        "population": 65849,
        "latitude": 47.584941,
        "longitude": 18.393253
    },
    {
        "name": "Szekszárd",
        "country": "Hungary",
        "province": "Tolna",
        "population": 34174,
        "latitude": 46.350137,
        "longitude": 18.709051
    },
    {
        "name": "Nagykanizsa",
        "country": "Hungary",
        "province": "Zala",
        "population": 47349,
        "latitude": 46.4534701094454,
        "longitude": 16.9910430908203
    },
    {
        "name": "Esztergom",
        "country": "Hungary",
        "province": "Komárom-Esztergom",
        "population": 28785,
        "latitude": 47.7928,
        "longitude": 18.741476
    },
    {
        "name": "Érd",
        "country": "Hungary",
        "province": "Pest",
        "population": 62408,
        "latitude": 47.394886,
        "longitude": 18.913605
    },
    {
        "name": "Dunaújváros",
        "country": "Hungary",
        "province": "Fejér",
        "population": 50084,
        "latitude": 46.96479,
        "longitude": 18.93974
    },
    {
        "name": "Vác",
        "country": "Hungary",
        "province": "Pest",
        "population": 35108,
        "latitude": 47.775905959241214,
        "longitude": 19.136123657226562
    },
    {
        "name": "Siófok",
        "country": "Hungary",
        "province": "Somogy",
        "population": 23028,
        "latitude": 46.904125,
        "longitude": 18.058002
    },
    {
        "name": "Paradsasvar",
        "country": "Hungary",
        "province": "Heves",
        "population": 76000,
        "latitude": 47.9126027792907,
        "longitude": 19.9770927429199
    },
    {
        "name": "Pápa",
        "country": "Hungary",
        "province": "Veszprém",
        "population": 32990,
        "latitude": 47.330044,
        "longitude": 17.467398
    },
    {
        "name": "Mosonmagyaróvár",
        "country": "Hungary",
        "province": "Győr-Moson-Sopron",
        "population": 30359,
        "latitude": 47.867885,
        "longitude": 17.269935
    },
    {
        "name": "Mohács",
        "country": "Hungary",
        "province": "Baranya",
        "population": 18711,
        "latitude": 45.9902,
        "longitude": 18.68621
    },
    {
        "name": "Komárom",
        "country": "Hungary",
        "province": "Komárom-Esztergom",
        "population": 18805,
        "latitude": 47.743184,
        "longitude": 18.11913
    },
    {
        "name": "Kőbánya",
        "country": "Hungary",
        "province": "Budapest",
        "population": 78414,
        "latitude": 47.484269,
        "longitude": 19.139135
    },
    {
        "name": "Gyöngyös",
        "country": "Hungary",
        "province": "Heves",
        "population": 32938,
        "latitude": 47.782571,
        "longitude": 19.928003
    },
    {
        "name": "Gödöllő",
        "country": "Hungary",
        "province": "Pest",
        "population": 32374,
        "latitude": 47.596574,
        "longitude": 19.355151
    },
    {
        "name": "Erzsébetváros",
        "country": "Hungary",
        "province": "Budapest",
        "population": 62000,
        "latitude": 47.502069032331924,
        "longitude": 19.072179794311523
    },
    {
        "name": "Ecser",
        "country": "Hungary",
        "province": "Pest",
        "population": 3333,
        "latitude": 47.443893,
        "longitude": 19.324505
    },
    {
        "name": "Dorog",
        "country": "Hungary",
        "province": "Komárom-Esztergom",
        "population": 12658,
        "latitude": 47.72095,
        "longitude": 18.736405
    },
    {
        "name": "Cegléd",
        "country": "Hungary",
        "province": "Pest",
        "population": 39287,
        "latitude": 47.172663,
        "longitude": 19.799524
    },
    {
        "name": "Budaörs",
        "country": "Hungary",
        "province": "Pest",
        "population": 25089,
        "latitude": 47.46181265222575,
        "longitude": 18.958454132080078
    },
    {
        "name": "Visegrád",
        "country": "Hungary",
        "province": "Pest",
        "population": 1841,
        "latitude": 47.78526,
        "longitude": 18.970897
    },
    {
        "name": "Törökbálint",
        "country": "Hungary",
        "province": "Pest",
        "population": 11658,
        "latitude": 47.4293066283785,
        "longitude": 18.9135646820068
    },
    {
        "name": "Tata",
        "country": "Hungary",
        "province": "Komárom-Esztergom",
        "population": 23217,
        "latitude": 47.652891,
        "longitude": 18.31838
    },
    {
        "name": "Szentendre",
        "country": "Hungary",
        "province": "Pest",
        "population": 23606,
        "latitude": 47.669433442209,
        "longitude": 19.0756130218506
    },
    {
        "name": "Baja",
        "country": "Hungary",
        "province": "Bács-Kiskun",
        "population": 37714,
        "latitude": 46.18299,
        "longitude": 18.95307
    },
    {
        "name": "Ajka",
        "country": "Hungary",
        "province": "Veszprém",
        "population": 31407,
        "latitude": 47.101963,
        "longitude": 17.558923
    },
    {
        "name": "Sátoraljaújhely",
        "country": "Hungary",
        "province": "Borsod-Abaúj-Zemplén",
        "population": 18052,
        "latitude": 48.394919,
        "longitude": 21.658712
    },
    {
        "name": "Ózd",
        "country": "Hungary",
        "province": "Borsod-Abaúj-Zemplén",
        "population": 38476,
        "latitude": 48.216667,
        "longitude": 20.3
    },
    {
        "name": "Makó",
        "country": "Hungary",
        "province": "Csongrád",
        "population": 25135,
        "latitude": 46.216667,
        "longitude": 20.483333
    },
    {
        "name": "Hódmezővásárhely",
        "country": "Hungary",
        "province": "Csongrád",
        "population": 44009,
        "latitude": 46.4166667,
        "longitude": 20.3333333
    },
    {
        "name": "Gyula",
        "country": "Hungary",
        "province": "Bekes County",
        "population": 32269,
        "latitude": 46.65,
        "longitude": 21.283333
    },
    {
        "name": "Békés",
        "country": "Hungary",
        "province": "Bekes County",
        "population": 21198,
        "latitude": 46.766667,
        "longitude": 21.133333
    },
    {
        "name": "Budapest VIII. kerület",
        "country": "Hungary",
        "province": "Budapest",
        "population": 82222,
        "latitude": 47.48919498674291,
        "longitude": 19.070119857788086
    },
    {
        "name": "Budapest XIII. kerület",
        "country": "Hungary",
        "province": "Budapest",
        "population": 113531,
        "latitude": 47.52977810989586,
        "longitude": 19.080677032470703
    },
    {
        "name": "Budapest XV. kerület",
        "country": "Hungary",
        "province": "Budapest",
        "population": 80218,
        "latitude": 47.5626274374099,
        "longitude": 19.116811752319336
    },
    {
        "name": "Budapest XVIII. kerület",
        "country": "Hungary",
        "province": "Budapest",
        "population": 93225,
        "latitude": 47.44416901747819,
        "longitude": 19.175949096679688
    },
    {
        "name": "Budapest XXI. kerület",
        "country": "Hungary",
        "province": "Budapest",
        "population": 76339,
        "latitude": 47.43046790369992,
        "longitude": 19.07097816467285
    },
    {
        "name": "Budapest XVII. kerület",
        "country": "Hungary",
        "province": "Budapest",
        "population": 78250,
        "latitude": 47.47997244661376,
        "longitude": 19.253883361816406
    },
    {
        "name": "Budapest II. kerület",
        "country": "Hungary",
        "province": "Budapest",
        "population": 88729,
        "latitude": 47.51984,
        "longitude": 19.02218
    },
    {
        "name": "Siklós",
        "country": "Hungary",
        "province": "Baranya",
        "population": 10180,
        "latitude": 45.854992,
        "longitude": 18.297523
    },
    {
        "name": "Sárvár",
        "country": "Hungary",
        "province": "Vas",
        "population": 15343,
        "latitude": 47.25395124476649,
        "longitude": 16.935253143310547
    },
    {
        "name": "Sárbogárd",
        "country": "Hungary",
        "province": "Fejér",
        "population": 13424,
        "latitude": 46.8869173765647,
        "longitude": 18.620409965515137
    },
    {
        "name": "Pomáz",
        "country": "Hungary",
        "province": "Pest",
        "population": 14917,
        "latitude": 47.642272,
        "longitude": 19.027839
    },
    {
        "name": "Pilisvörösvár",
        "country": "Hungary",
        "province": "Pest",
        "population": 14274,
        "latitude": 47.613859057300296,
        "longitude": 18.9089298248291
    },
    {
        "name": "Pilis",
        "country": "Hungary",
        "province": "Pest",
        "population": 11102,
        "latitude": 47.289043,
        "longitude": 19.548477
    },
    {
        "name": "Pest",
        "country": "Hungary",
        "province": "Budapest",
        "population": -1,
        "latitude": 47.5,
        "longitude": 19.0833333
    },
    {
        "name": "Pécel",
        "country": "Hungary",
        "province": "Pest",
        "population": 13193,
        "latitude": 47.489615,
        "longitude": 19.341624
    },
    {
        "name": "Pannonhalma",
        "country": "Hungary",
        "province": "Győr-Moson-Sopron",
        "population": 4089,
        "latitude": 47.549465,
        "longitude": 17.755354
    },
    {
        "name": "Nagycenk",
        "country": "Hungary",
        "province": "Győr-Moson-Sopron",
        "population": 1856,
        "latitude": 47.604351,
        "longitude": 16.697322
    },
    {
        "name": "Nagyatád",
        "country": "Hungary",
        "province": "Somogy",
        "population": 10348,
        "latitude": 46.22960929685016,
        "longitude": 17.35788345336914
    },
    {
        "name": "Maglód",
        "country": "Hungary",
        "province": "Pest",
        "population": 10144,
        "latitude": 47.442576,
        "longitude": 19.364383
    },
    {
        "name": "Lajosmizse",
        "country": "Hungary",
        "province": "Bács-Kiskun",
        "population": 11034,
        "latitude": 47.021331,
        "longitude": 19.561707
    },
    {
        "name": "Kőszeg",
        "country": "Hungary",
        "province": "Vas",
        "population": 11500,
        "latitude": 47.389223,
        "longitude": 16.541001
    },
    {
        "name": "Körmend",
        "country": "Hungary",
        "province": "Vas",
        "population": 12368,
        "latitude": 47.0109572154826,
        "longitude": 16.605963706970215
    },
    {
        "name": "Komló",
        "country": "Hungary",
        "province": "Baranya",
        "population": 26924,
        "latitude": 46.19278438783632,
        "longitude": 18.264942169189453
    },
    {
        "name": "Kispest",
        "country": "Hungary",
        "province": "Budapest",
        "population": 61453,
        "latitude": 47.451498,
        "longitude": 19.140169
    },
    {
        "name": "Kiskunhalas",
        "country": "Hungary",
        "province": "Bács-Kiskun",
        "population": 29354,
        "latitude": 46.434025,
        "longitude": 19.484795
    },
    {
        "name": "Kiskunfélegyháza",
        "country": "Hungary",
        "province": "Bács-Kiskun",
        "population": 31720,
        "latitude": 46.712131,
        "longitude": 19.844576
    },
    {
        "name": "Kimle",
        "country": "Hungary",
        "province": "Győr-Moson-Sopron",
        "population": 2312,
        "latitude": 47.817256,
        "longitude": 17.366424
    },
    {
        "name": "Keszthely",
        "country": "Hungary",
        "province": "Zala",
        "population": 19652,
        "latitude": 46.768121,
        "longitude": 17.24317
    },
    {
        "name": "Kistarcsa",
        "country": "Hungary",
        "province": "Pest",
        "population": 12645,
        "latitude": 47.547566809336,
        "longitude": 19.2624664306641
    },
    {
        "name": "Kalocsa",
        "country": "Hungary",
        "province": "Bács-Kiskun",
        "population": 18242,
        "latitude": 46.52981,
        "longitude": 18.97283
    },
    {
        "name": "Jászberény",
        "country": "Hungary",
        "province": "Jász-Nagykun-Szolnok",
        "population": 27439,
        "latitude": 47.5,
        "longitude": 19.916667
    },
    {
        "name": "Jánossomorja",
        "country": "Hungary",
        "province": "Győr-Moson-Sopron",
        "population": 6283,
        "latitude": 47.786207,
        "longitude": 17.136033
    },
    {
        "name": "Isaszeg",
        "country": "Hungary",
        "province": "Pest",
        "population": 11402,
        "latitude": 47.530111,
        "longitude": 19.402054
    },
    {
        "name": "Hosszúhetény",
        "country": "Hungary",
        "province": "Baranya",
        "population": 3299,
        "latitude": 46.16413893185584,
        "longitude": 18.350772857666016
    },
    {
        "name": "Hollókő",
        "country": "Hungary",
        "province": "Nógrád",
        "population": -1,
        "latitude": 47.998001,
        "longitude": 19.594099
    },
    {
        "name": "Hidas",
        "country": "Hungary",
        "province": "Baranya",
        "population": 2274,
        "latitude": 46.25679635768958,
        "longitude": 18.495397567749023
    },
    {
        "name": "Hévíz",
        "country": "Hungary",
        "province": "Zala",
        "population": 4438,
        "latitude": 46.7903052187399,
        "longitude": 17.1840763092041
    },
    {
        "name": "Herend",
        "country": "Hungary",
        "province": "Veszprém",
        "population": 3385,
        "latitude": 47.1333333,
        "longitude": 17.75
    },
    {
        "name": "Harkány",
        "country": "Hungary",
        "province": "Baranya",
        "population": 3450,
        "latitude": 45.850016,
        "longitude": 18.236679
    },
    {
        "name": "Halászi",
        "country": "Hungary",
        "province": "Győr-Moson-Sopron",
        "population": 2850,
        "latitude": 47.889301,
        "longitude": 17.326147
    },
    {
        "name": "Hajós",
        "country": "Hungary",
        "province": "Bács-Kiskun",
        "population": 3520,
        "latitude": 46.3986111,
        "longitude": 19.1205556
    },
    {
        "name": "Gyömrő",
        "country": "Hungary",
        "province": "Pest",
        "population": 14155,
        "latitude": 47.427327,
        "longitude": 19.401333
    },
    {
        "name": "Göd",
        "country": "Hungary",
        "province": "Pest",
        "population": 15874,
        "latitude": 47.683241,
        "longitude": 19.134171
    },
    {
        "name": "Fót",
        "country": "Hungary",
        "province": "Pest",
        "population": 16770,
        "latitude": 47.617703,
        "longitude": 19.188701
    },
    {
        "name": "Fertőd",
        "country": "Hungary",
        "province": "Győr-Moson-Sopron",
        "population": 3360,
        "latitude": 47.62172749394823,
        "longitude": 16.870880126953125
    },
    {
        "name": "Dunavecse",
        "country": "Hungary",
        "province": "Bács-Kiskun",
        "population": 4201,
        "latitude": 46.91478,
        "longitude": 18.97127
    },
    {
        "name": "Dunavarsány",
        "country": "Hungary",
        "province": "Pest",
        "population": 8341,
        "latitude": 47.278588,
        "longitude": 19.066168
    },
    {
        "name": "Dunaszekcső",
        "country": "Hungary",
        "province": "Baranya",
        "population": 2151,
        "latitude": 46.0874,
        "longitude": 18.7587
    },
    {
        "name": "Dunakeszi",
        "country": "Hungary",
        "province": "Pest",
        "population": 30246,
        "latitude": 47.636405,
        "longitude": 19.13864
    },
    {
        "name": "Dunaharaszti",
        "country": "Hungary",
        "province": "Pest",
        "population": 16973,
        "latitude": 47.354495,
        "longitude": 19.098223
    },
    {
        "name": "Dunaföldvár",
        "country": "Hungary",
        "province": "Tolna",
        "population": 9073,
        "latitude": 46.80713,
        "longitude": 18.92763
    },
    {
        "name": "Diósd",
        "country": "Hungary",
        "province": "Pest",
        "population": 6168,
        "latitude": 47.409497,
        "longitude": 18.948976
    },
    {
        "name": "Csepreg",
        "country": "Hungary",
        "province": "Vas",
        "population": 3241,
        "latitude": 47.400982,
        "longitude": 16.708814
    },
    {
        "name": "Celldömölk",
        "country": "Hungary",
        "province": "Vas",
        "population": 11421,
        "latitude": 47.257125,
        "longitude": 17.150274
    },
    {
        "name": "Buda",
        "country": "Hungary",
        "province": "Budapest",
        "population": -1,
        "latitude": 47.5,
        "longitude": 19.0333333
    },
    {
        "name": "Bonyhád",
        "country": "Hungary",
        "province": "Tolna",
        "population": 14184,
        "latitude": 46.29921210698028,
        "longitude": 18.530244827270508
    },
    {
        "name": "Barcs",
        "country": "Hungary",
        "province": "Somogy",
        "population": 12116,
        "latitude": 45.96,
        "longitude": 17.458611
    },
    {
        "name": "Zsámbék",
        "country": "Hungary",
        "province": "Pest",
        "population": 5479,
        "latitude": 47.548138,
        "longitude": 18.720112
    },
    {
        "name": "Zichyújfalu",
        "country": "Hungary",
        "province": "Fejér",
        "population": -1,
        "latitude": 47.1333333,
        "longitude": 18.6833333
    },
    {
        "name": "Veresegyház",
        "country": "Hungary",
        "province": "Pest",
        "population": 18122,
        "latitude": 47.645899,
        "longitude": 19.295355
    },
    {
        "name": "Üllő",
        "country": "Hungary",
        "province": "Pest",
        "population": 12185,
        "latitude": 47.387711,
        "longitude": 19.35533
    },
    {
        "name": "Tököl",
        "country": "Hungary",
        "province": "Pest",
        "population": 10164,
        "latitude": 47.3217778463573,
        "longitude": 18.9624881744385
    },
    {
        "name": "Tihany",
        "country": "Hungary",
        "province": "Veszprém",
        "population": 1438,
        "latitude": 46.9136890587271,
        "longitude": 17.8891754150391
    },
    {
        "name": "Szigetvár",
        "country": "Hungary",
        "province": "Baranya",
        "population": 11267,
        "latitude": 46.04865,
        "longitude": 17.805536
    },
    {
        "name": "Szigethalom",
        "country": "Hungary",
        "province": "Pest",
        "population": 13092,
        "latitude": 47.322283,
        "longitude": 19.002622
    },
    {
        "name": "Szentgotthárd",
        "country": "Hungary",
        "province": "Vas",
        "population": 8862,
        "latitude": 46.9526058252274,
        "longitude": 16.2735843658447
    },
    {
        "name": "Százhalombatta",
        "country": "Hungary",
        "province": "Pest",
        "population": 17566,
        "latitude": 47.32949,
        "longitude": 18.93878
    },
    {
        "name": "Balatonfüred",
        "country": "Hungary",
        "province": "Veszprém",
        "population": 13138,
        "latitude": 46.96188,
        "longitude": 17.871866
    },
    {
        "name": "Balassagyarmat",
        "country": "Hungary",
        "province": "Nógrád",
        "population": 15058,
        "latitude": 48.07296,
        "longitude": 19.296138
    },
    {
        "name": "Angyalföld",
        "country": "Hungary",
        "province": "Budapest",
        "population": 62006,
        "latitude": 47.547648,
        "longitude": 19.079726
    },
    {
        "name": "Albertirsa",
        "country": "Hungary",
        "province": "Pest",
        "population": 11864,
        "latitude": 47.243147,
        "longitude": 19.616858
    },
    {
        "name": "Szarvas",
        "country": "Hungary",
        "province": "Bekes County",
        "population": 18170,
        "latitude": 46.866667,
        "longitude": 20.55
    },
    {
        "name": "Sárospatak",
        "country": "Hungary",
        "province": "Borsod-Abaúj-Zemplén",
        "population": 11886,
        "latitude": 48.324498,
        "longitude": 21.57383
    },
    {
        "name": "Sajószentpéter",
        "country": "Hungary",
        "province": "Borsod-Abaúj-Zemplén",
        "population": 11679,
        "latitude": 48.2166667,
        "longitude": 20.7166667
    },
    {
        "name": "Orosháza",
        "country": "Hungary",
        "province": "Bekes County",
        "population": 31373,
        "latitude": 46.566667,
        "longitude": 20.666667
    },
    {
        "name": "Nyékládháza",
        "country": "Hungary",
        "province": "Borsod-Abaúj-Zemplén",
        "population": 4939,
        "latitude": 47.983333,
        "longitude": 20.833333
    },
    {
        "name": "Nagykálló",
        "country": "Hungary",
        "province": "Szabolcs-Szatmár-Bereg",
        "population": 10796,
        "latitude": 47.874907453605935,
        "longitude": 21.8408203125
    },
    {
        "name": "Mezőberény",
        "country": "Hungary",
        "province": "Bekes County",
        "population": 11306,
        "latitude": 46.8166667,
        "longitude": 21.0333333
    },
    {
        "name": "Kisújszállás",
        "country": "Hungary",
        "province": "Jász-Nagykun-Szolnok",
        "population": 12661,
        "latitude": 47.2166667,
        "longitude": 20.7666667
    },
    {
        "name": "Kazincbarcika",
        "country": "Hungary",
        "province": "Borsod-Abaúj-Zemplén",
        "population": 32396,
        "latitude": 48.25,
        "longitude": 20.633333
    },
    {
        "name": "Heves",
        "country": "Hungary",
        "province": "Heves",
        "population": 11311,
        "latitude": 47.6,
        "longitude": 20.283333
    },
    {
        "name": "Hajdúsámson",
        "country": "Hungary",
        "province": "Hajdú-Bihar",
        "population": 10854,
        "latitude": 47.6,
        "longitude": 21.7666667
    },
    {
        "name": "Hajdúdorog",
        "country": "Hungary",
        "province": "Hajdú-Bihar",
        "population": 9514,
        "latitude": 47.8166667,
        "longitude": 21.5
    },
    {
        "name": "Hajdúböszörmény",
        "country": "Hungary",
        "province": "Hajdú-Bihar",
        "population": 31957,
        "latitude": 47.666667,
        "longitude": 21.516667
    },
    {
        "name": "Dombrád",
        "country": "Hungary",
        "province": "Szabolcs-Szatmár-Bereg",
        "population": 4276,
        "latitude": 48.2333333,
        "longitude": 21.9333333
    },
    {
        "name": "Dévaványa",
        "country": "Hungary",
        "province": "Bekes County",
        "population": 8796,
        "latitude": 47.0333333,
        "longitude": 20.9666667
    },
    {
        "name": "Deszk",
        "country": "Hungary",
        "province": "Csongrád",
        "population": 4048,
        "latitude": 46.218024,
        "longitude": 20.243217
    },
    {
        "name": "Demecser",
        "country": "Hungary",
        "province": "Szabolcs-Szatmár-Bereg",
        "population": 4205,
        "latitude": 48.116482,
        "longitude": 21.926238
    },
    {
        "name": "Berettyóújfalu",
        "country": "Hungary",
        "province": "Hajdú-Bihar",
        "population": 14614,
        "latitude": 47.22362,
        "longitude": 21.53656
    },
    {
        "name": "Abony",
        "country": "Hungary",
        "province": "Pest",
        "population": 16342,
        "latitude": 47.1899,
        "longitude": 20.004759
    },
    {
        "name": "Abaújszántó",
        "country": "Hungary",
        "province": "Borsod-Abaúj-Zemplén",
        "population": 3147,
        "latitude": 48.2833333,
        "longitude": 21.2
    },
    {
        "name": "Újfehértó",
        "country": "Hungary",
        "province": "Szabolcs-Szatmár-Bereg",
        "population": 13542,
        "latitude": 47.8,
        "longitude": 21.6833333
    },
    {
        "name": "Túrkeve",
        "country": "Hungary",
        "province": "Jász-Nagykun-Szolnok",
        "population": 10016,
        "latitude": 47.1,
        "longitude": 20.75
    },
    {
        "name": "Tokaj",
        "country": "Hungary",
        "province": "Borsod-Abaúj-Zemplén",
        "population": 4155,
        "latitude": 48.117173,
        "longitude": 21.409224
    },
    {
        "name": "Tiszaújváros",
        "country": "Hungary",
        "province": "Borsod-Abaúj-Zemplén",
        "population": 17295,
        "latitude": 47.933333,
        "longitude": 21.083333
    },
    {
        "name": "Tiszakécske",
        "country": "Hungary",
        "province": "Bács-Kiskun",
        "population": 11745,
        "latitude": 46.932615,
        "longitude": 20.103487
    },
    {
        "name": "Tiszafüred",
        "country": "Hungary",
        "province": "Jász-Nagykun-Szolnok",
        "population": 10872,
        "latitude": 47.616667,
        "longitude": 20.766667
    },
    {
        "name": "Tiszaföldvár",
        "country": "Hungary",
        "province": "Jász-Nagykun-Szolnok",
        "population": 11873,
        "latitude": 46.9833333,
        "longitude": 20.25
    },
    {
        "name": "Budapest XII. kerület",
        "country": "Hungary",
        "province": "Budapest",
        "population": 56544,
        "latitude": 47.4919208363557,
        "longitude": 19.0149307250977
    },
    {
        "name": "Budapest VI. kerület",
        "country": "Hungary",
        "province": "Budapest",
        "population": 42120,
        "latitude": 47.50369256167534,
        "longitude": 19.065828323364258
    },
    {
        "name": "Budapest XVI. kerület",
        "country": "Hungary",
        "province": "Budapest",
        "population": 68484,
        "latitude": 47.51482398174022,
        "longitude": 19.170284271240234
    },
    {
        "name": "Budapest XXII. kerület",
        "country": "Hungary",
        "province": "Budapest",
        "population": 50499,
        "latitude": 47.426984000866646,
        "longitude": 19.040164947509766
    },
    {
        "name": "Budapest XX. kerület",
        "country": "Hungary",
        "province": "Budapest",
        "population": 63371,
        "latitude": 47.436738347674854,
        "longitude": 19.100933074951172
    },
    {
        "name": "Tiszaalpár",
        "country": "Hungary",
        "province": "Bács-Kiskun",
        "population": 5070,
        "latitude": 46.812788,
        "longitude": 19.998411
    },
    {
        "name": "Soponya",
        "country": "Hungary",
        "province": "Fejér",
        "population": 1996,
        "latitude": 47.014847,
        "longitude": 18.453426
    },
    {
        "name": "Somoskőújfalu",
        "country": "Hungary",
        "province": "Nógrád",
        "population": 2296,
        "latitude": 48.1637382463152,
        "longitude": 19.8230266571045
    },
    {
        "name": "Somogyvár",
        "country": "Hungary",
        "province": "Somogy",
        "population": 2023,
        "latitude": 46.581404,
        "longitude": 17.662886
    },
    {
        "name": "Solymár",
        "country": "Hungary",
        "province": "Pest",
        "population": 9242,
        "latitude": 47.592457,
        "longitude": 18.932122
    },
    {
        "name": "Soltvadkert",
        "country": "Hungary",
        "province": "Bács-Kiskun",
        "population": 7695,
        "latitude": 46.578889,
        "longitude": 19.39389
    },
    {
        "name": "Solt",
        "country": "Hungary",
        "province": "Bács-Kiskun",
        "population": 6984,
        "latitude": 46.80101,
        "longitude": 19.00098
    },
    {
        "name": "Sióagárd",
        "country": "Hungary",
        "province": "Tolna",
        "population": 1268,
        "latitude": 46.392715,
        "longitude": 18.653362
    },
    {
        "name": "Simontornya",
        "country": "Hungary",
        "province": "Tolna",
        "population": 4536,
        "latitude": 46.754623,
        "longitude": 18.554903
    },
    {
        "name": "Seregélyes",
        "country": "Hungary",
        "province": "Fejér",
        "population": 4539,
        "latitude": 47.110504,
        "longitude": 18.565
    },
    {
        "name": "Segesd",
        "country": "Hungary",
        "province": "Somogy",
        "population": 2674,
        "latitude": 46.34142,
        "longitude": 17.35132
    },
    {
        "name": "Sárszentmihály",
        "country": "Hungary",
        "province": "Fejér",
        "population": 2824,
        "latitude": 47.153212,
        "longitude": 18.338794
    },
    {
        "name": "Sárosd",
        "country": "Hungary",
        "province": "Fejér",
        "population": 3474,
        "latitude": 47.042731,
        "longitude": 18.643569
    },
    {
        "name": "Sármellék",
        "country": "Hungary",
        "province": "Zala",
        "population": 1836,
        "latitude": 46.712212,
        "longitude": 17.168647
    },
    {
        "name": "Sárkeresztúr",
        "country": "Hungary",
        "province": "Fejér",
        "population": 2443,
        "latitude": 47.005401,
        "longitude": 18.543906
    },
    {
        "name": "Sárisáp",
        "country": "Hungary",
        "province": "Komárom-Esztergom",
        "population": 2911,
        "latitude": 47.677001,
        "longitude": 18.679329
    },
    {
        "name": "Ruzsa",
        "country": "Hungary",
        "province": "Csongrád",
        "population": 2764,
        "latitude": 46.288057,
        "longitude": 19.747137
    },
    {
        "name": "Romhány",
        "country": "Hungary",
        "province": "Nógrád",
        "population": 2421,
        "latitude": 47.9261778821189,
        "longitude": 19.257230758667
    },
    {
        "name": "Rimóc",
        "country": "Hungary",
        "province": "Nógrád",
        "population": 1874,
        "latitude": 48.03695,
        "longitude": 19.530097
    },
    {
        "name": "Révfülöp",
        "country": "Hungary",
        "province": "Veszprém",
        "population": 1127,
        "latitude": 46.8257292923893,
        "longitude": 17.6196670532227
    },
    {
        "name": "Rétság",
        "country": "Hungary",
        "province": "Nógrád",
        "population": 3004,
        "latitude": 47.92816207966491,
        "longitude": 19.13719654083252
    },
    {
        "name": "Répcelak",
        "country": "Hungary",
        "province": "Vas",
        "population": 2644,
        "latitude": 47.421052,
        "longitude": 17.017946
    },
    {
        "name": "Rajka",
        "country": "Hungary",
        "province": "Győr-Moson-Sopron",
        "population": 2601,
        "latitude": 47.996427,
        "longitude": 17.198214
    },
    {
        "name": "Ráckeresztúr",
        "country": "Hungary",
        "province": "Fejér",
        "population": 3117,
        "latitude": 47.273597,
        "longitude": 18.833426
    },
    {
        "name": "Rácalmás",
        "country": "Hungary",
        "province": "Fejér",
        "population": 4148,
        "latitude": 47.022632,
        "longitude": 18.940556
    },
    {
        "name": "Rábapatona",
        "country": "Hungary",
        "province": "Győr-Moson-Sopron",
        "population": 2497,
        "latitude": 47.632237,
        "longitude": 17.480044
    },
    {
        "name": "Pusztavám",
        "country": "Hungary",
        "province": "Fejér",
        "population": 2521,
        "latitude": 47.429478,
        "longitude": 18.22648
    },
    {
        "name": "Pusztaszer",
        "country": "Hungary",
        "province": "Csongrád",
        "population": 1642,
        "latitude": 46.550832,
        "longitude": 19.988235
    },
    {
        "name": "Pusztaszabolcs",
        "country": "Hungary",
        "province": "Fejér",
        "population": 6355,
        "latitude": 47.137181,
        "longitude": 18.76704
    },
    {
        "name": "Pincehely",
        "country": "Hungary",
        "province": "Tolna",
        "population": 2548,
        "latitude": 46.680951,
        "longitude": 18.439353
    },
    {
        "name": "Pilisszentkereszt",
        "country": "Hungary",
        "province": "Pest",
        "population": 2224,
        "latitude": 47.691434,
        "longitude": 18.905028
    },
    {
        "name": "Pilisszentiván",
        "country": "Hungary",
        "province": "Pest",
        "population": 4218,
        "latitude": 47.60963506983505,
        "longitude": 18.899402618408203
    },
    {
        "name": "Pilisszántó",
        "country": "Hungary",
        "province": "Pest",
        "population": 2245,
        "latitude": 47.669088,
        "longitude": 18.887617
    },
    {
        "name": "Pilismarót",
        "country": "Hungary",
        "province": "Komárom-Esztergom",
        "population": 1952,
        "latitude": 47.784636,
        "longitude": 18.875388
    },
    {
        "name": "Piliscsév",
        "country": "Hungary",
        "province": "Komárom-Esztergom",
        "population": 2310,
        "latitude": 47.679236,
        "longitude": 18.818716
    },
    {
        "name": "Piliscsaba",
        "country": "Hungary",
        "province": "Pest",
        "population": 6468,
        "latitude": 47.634172,
        "longitude": 18.828864
    },
    {
        "name": "Pilisborosjenő",
        "country": "Hungary",
        "province": "Pest",
        "population": 3180,
        "latitude": 47.60743614681766,
        "longitude": 18.993215560913086
    },
    {
        "name": "Petőfibánya",
        "country": "Hungary",
        "province": "Heves",
        "population": 3061,
        "latitude": 47.7696,
        "longitude": 19.69988
    },
    {
        "name": "Pétfürdő",
        "country": "Hungary",
        "province": "Veszprém",
        "population": 4877,
        "latitude": 47.1666667,
        "longitude": 18.1166667
    },
    {
        "name": "Péteri",
        "country": "Hungary",
        "province": "Pest",
        "population": 1970,
        "latitude": 47.391042,
        "longitude": 19.409814
    },
    {
        "name": "Perkáta",
        "country": "Hungary",
        "province": "Fejér",
        "population": 4166,
        "latitude": 47.047006,
        "longitude": 18.787336
    },
    {
        "name": "Perbál",
        "country": "Hungary",
        "province": "Pest",
        "population": 2167,
        "latitude": 47.589572,
        "longitude": 18.760988
    },
    {
        "name": "Pér",
        "country": "Hungary",
        "province": "Győr-Moson-Sopron",
        "population": 2372,
        "latitude": 47.611528,
        "longitude": 17.806317
    },
    {
        "name": "Pellérd",
        "country": "Hungary",
        "province": "Baranya",
        "population": 1881,
        "latitude": 46.03438,
        "longitude": 18.154026
    },
    {
        "name": "Pécsvárad",
        "country": "Hungary",
        "province": "Baranya",
        "population": 4024,
        "latitude": 46.160334263527304,
        "longitude": 18.423213958740234
    },
    {
        "name": "Pázmánd",
        "country": "Hungary",
        "province": "Fejér",
        "population": 1985,
        "latitude": 47.287547,
        "longitude": 18.653557
    },
    {
        "name": "Páty",
        "country": "Hungary",
        "province": "Pest",
        "population": 5475,
        "latitude": 47.517086,
        "longitude": 18.828514
    },
    {
        "name": "Pásztó",
        "country": "Hungary",
        "province": "Nógrád",
        "population": 10119,
        "latitude": 47.920189,
        "longitude": 19.698287
    },
    {
        "name": "Pánd",
        "country": "Hungary",
        "province": "Pest",
        "population": 2041,
        "latitude": 47.353331,
        "longitude": 19.635712
    },
    {
        "name": "Pálmonostora",
        "country": "Hungary",
        "province": "Bács-Kiskun",
        "population": 2052,
        "latitude": 46.624171,
        "longitude": 19.951564
    },
    {
        "name": "Paks",
        "country": "Hungary",
        "province": "Tolna",
        "population": 20638,
        "latitude": 46.6221,
        "longitude": 18.85569
    },
    {
        "name": "Pákozd",
        "country": "Hungary",
        "province": "Fejér",
        "population": 2721,
        "latitude": 47.213694,
        "longitude": 18.533055
    },
    {
        "name": "Pacsa",
        "country": "Hungary",
        "province": "Zala",
        "population": 1878,
        "latitude": 46.719808,
        "longitude": 17.01401
    },
    {
        "name": "Ozora",
        "country": "Hungary",
        "province": "Tolna",
        "population": 1742,
        "latitude": 46.751333,
        "longitude": 18.400095
    },
    {
        "name": "Öttevény",
        "country": "Hungary",
        "province": "Győr-Moson-Sopron",
        "population": 2725,
        "latitude": 47.719463363720905,
        "longitude": 17.4847412109375
    },
    {
        "name": "Ősi",
        "country": "Hungary",
        "province": "Veszprém",
        "population": 2146,
        "latitude": 47.147216,
        "longitude": 18.188329
    },
    {
        "name": "Oroszlány",
        "country": "Hungary",
        "province": "Komárom-Esztergom",
        "population": 20271,
        "latitude": 47.486706,
        "longitude": 18.31225
    },
    {
        "name": "Örkény",
        "country": "Hungary",
        "province": "Pest",
        "population": 5119,
        "latitude": 47.129906,
        "longitude": 19.433238
    },
    {
        "name": "Orgovány",
        "country": "Hungary",
        "province": "Bács-Kiskun",
        "population": 3472,
        "latitude": 46.750867,
        "longitude": 19.472586
    },
    {
        "name": "Őrbottyán",
        "country": "Hungary",
        "province": "Pest",
        "population": 5495,
        "latitude": 47.687107,
        "longitude": 19.282394
    },
    {
        "name": "Őcsény",
        "country": "Hungary",
        "province": "Tolna",
        "population": 2536,
        "latitude": 46.313697,
        "longitude": 18.757493
    },
    {
        "name": "Ócsa",
        "country": "Hungary",
        "province": "Pest",
        "population": 9097,
        "latitude": 47.299862,
        "longitude": 19.230569
    },
    {
        "name": "Óbuda",
        "country": "Hungary",
        "province": "Budapest",
        "population": -1,
        "latitude": 47.55,
        "longitude": 19.0333333
    },
    {
        "name": "Nyúl",
        "country": "Hungary",
        "province": "Győr-Moson-Sopron",
        "population": 3816,
        "latitude": 47.590471,
        "longitude": 17.689043
    },
    {
        "name": "Nyergesújfalu",
        "country": "Hungary",
        "province": "Komárom-Esztergom",
        "population": 7667,
        "latitude": 47.7602720656677,
        "longitude": 18.5569381713867
    },
    {
        "name": "Nyárlőrinc",
        "country": "Hungary",
        "province": "Bács-Kiskun",
        "population": 2384,
        "latitude": 46.860171,
        "longitude": 19.878358
    },
    {
        "name": "Nyáregyháza",
        "country": "Hungary",
        "province": "Pest",
        "population": 3770,
        "latitude": 47.261751,
        "longitude": 19.501458
    },
    {
        "name": "Nógrád",
        "country": "Hungary",
        "province": "Nógrád",
        "population": 1395,
        "latitude": 47.908522,
        "longitude": 19.048061
    },
    {
        "name": "Neszmély",
        "country": "Hungary",
        "province": "Komárom-Esztergom",
        "population": 1480,
        "latitude": 47.735854,
        "longitude": 18.359664
    },
    {
        "name": "Németkér",
        "country": "Hungary",
        "province": "Tolna",
        "population": 1901,
        "latitude": 46.716371,
        "longitude": 18.763114
    },
    {
        "name": "Nemesvámos",
        "country": "Hungary",
        "province": "Veszprém",
        "population": 2508,
        "latitude": 47.05514,
        "longitude": 17.874767
    },
    {
        "name": "Nemesnádudvar",
        "country": "Hungary",
        "province": "Bács-Kiskun",
        "population": 2041,
        "latitude": 46.340505,
        "longitude": 19.051153
    },
    {
        "name": "Naszály",
        "country": "Hungary",
        "province": "Komárom-Esztergom",
        "population": 2239,
        "latitude": 47.703293,
        "longitude": 18.257512
    },
    {
        "name": "Nagytarcsa",
        "country": "Hungary",
        "province": "Pest",
        "population": 2846,
        "latitude": 47.531282,
        "longitude": 19.283426
    },
    {
        "name": "Nagyoroszi",
        "country": "Hungary",
        "province": "Nógrád",
        "population": 2250,
        "latitude": 48.005028,
        "longitude": 19.090503
    },
    {
        "name": "Nagymaros",
        "country": "Hungary",
        "province": "Pest",
        "population": 4629,
        "latitude": 47.792797,
        "longitude": 18.959841
    },
    {
        "name": "Nagymányok",
        "country": "Hungary",
        "province": "Tolna",
        "population": 2504,
        "latitude": 46.27910579592006,
        "longitude": 18.454885482788086
    },
    {
        "name": "Nagykőrös",
        "country": "Hungary",
        "province": "Pest",
        "population": 23517,
        "latitude": 47.034189,
        "longitude": 19.778574
    },
    {
        "name": "Nagykáta",
        "country": "Hungary",
        "province": "Pest",
        "population": 13322,
        "latitude": 47.415144,
        "longitude": 19.744099
    },
    {
        "name": "Nagyigmánd",
        "country": "Hungary",
        "province": "Komárom-Esztergom",
        "population": 3132,
        "latitude": 47.640935,
        "longitude": 18.081298
    },
    {
        "name": "Nagydorog",
        "country": "Hungary",
        "province": "Tolna",
        "population": 2787,
        "latitude": 46.627488,
        "longitude": 18.655647
    },
    {
        "name": "Nagybaracska",
        "country": "Hungary",
        "province": "Bács-Kiskun",
        "population": 2445,
        "latitude": 46.042481,
        "longitude": 18.905901
    },
    {
        "name": "Nagybajom",
        "country": "Hungary",
        "province": "Somogy",
        "population": 3532,
        "latitude": 46.392325,
        "longitude": 17.51147
    },
    {
        "name": "Murakeresztúr",
        "country": "Hungary",
        "province": "Zala",
        "population": 1969,
        "latitude": 46.364215,
        "longitude": 16.881767
    },
    {
        "name": "Mór",
        "country": "Hungary",
        "province": "Fejér",
        "population": 14690,
        "latitude": 47.377872,
        "longitude": 18.203534
    },
    {
        "name": "Monor",
        "country": "Hungary",
        "province": "Pest",
        "population": 21720,
        "latitude": 47.351333,
        "longitude": 19.447335
    },
    {
        "name": "Mogyoród",
        "country": "Hungary",
        "province": "Pest",
        "population": 4949,
        "latitude": 47.597484,
        "longitude": 19.240703
    },
    {
        "name": "Mocsa",
        "country": "Hungary",
        "province": "Komárom-Esztergom",
        "population": 2265,
        "latitude": 47.669987,
        "longitude": 18.185046
    },
    {
        "name": "Mihályi",
        "country": "Hungary",
        "province": "Győr-Moson-Sopron",
        "population": 1137,
        "latitude": 47.513835,
        "longitude": 17.095067
    },
    {
        "name": "Mezőszilas",
        "country": "Hungary",
        "province": "Fejér",
        "population": 2309,
        "latitude": 46.811093,
        "longitude": 18.477891
    },
    {
        "name": "Mezőfalva",
        "country": "Hungary",
        "province": "Fejér",
        "population": 4910,
        "latitude": 46.93184,
        "longitude": 18.771774
    },
    {
        "name": "Mende",
        "country": "Hungary",
        "province": "Pest",
        "population": 4250,
        "latitude": 47.431325,
        "longitude": 19.456282
    },
    {
        "name": "Mélykút",
        "country": "Hungary",
        "province": "Bács-Kiskun",
        "population": 5766,
        "latitude": 46.215088,
        "longitude": 19.381024
    },
    {
        "name": "Mecseknádasd",
        "country": "Hungary",
        "province": "Baranya",
        "population": 1660,
        "latitude": 46.2246809420526,
        "longitude": 18.4707641601562
    },
    {
        "name": "Mátraverebély",
        "country": "Hungary",
        "province": "Nógrád",
        "population": 2197,
        "latitude": 47.974209,
        "longitude": 19.78049
    },
    {
        "name": "Mátraterenye",
        "country": "Hungary",
        "province": "Nógrád",
        "population": 1995,
        "latitude": 48.032667,
        "longitude": 19.947621
    },
    {
        "name": "Mátranovák",
        "country": "Hungary",
        "province": "Nógrád",
        "population": 1972,
        "latitude": 48.038092,
        "longitude": 19.982571
    },
    {
        "name": "Marcali",
        "country": "Hungary",
        "province": "Somogy",
        "population": 11216,
        "latitude": 46.584983,
        "longitude": 17.411965
    },
    {
        "name": "Mány",
        "country": "Hungary",
        "province": "Fejér",
        "population": 2294,
        "latitude": 47.53352,
        "longitude": 18.656273
    },
    {
        "name": "Mágocs",
        "country": "Hungary",
        "province": "Baranya",
        "population": 2652,
        "latitude": 46.349983,
        "longitude": 18.232405
    },
    {
        "name": "Madocsa",
        "country": "Hungary",
        "province": "Tolna",
        "population": 1935,
        "latitude": 46.687901,
        "longitude": 18.957911
    },
    {
        "name": "Madaras",
        "country": "Hungary",
        "province": "Bács-Kiskun",
        "population": 3246,
        "latitude": 46.0587,
        "longitude": 19.26121
    },
    {
        "name": "Lovasberény",
        "country": "Hungary",
        "province": "Fejér",
        "population": 2674,
        "latitude": 47.309972,
        "longitude": 18.551771
    },
    {
        "name": "Lőrinci",
        "country": "Hungary",
        "province": "Heves",
        "population": 6089,
        "latitude": 47.732952,
        "longitude": 19.678669
    },
    {
        "name": "Litér",
        "country": "Hungary",
        "province": "Veszprém",
        "population": 2010,
        "latitude": 47.101044,
        "longitude": 18.004541
    },
    {
        "name": "Lepsény",
        "country": "Hungary",
        "province": "Fejér",
        "population": 3224,
        "latitude": 46.990363,
        "longitude": 18.243575
    },
    {
        "name": "Lenti",
        "country": "Hungary",
        "province": "Zala",
        "population": 8399,
        "latitude": 46.624027,
        "longitude": 16.538631
    },
    {
        "name": "Lengyeltóti",
        "country": "Hungary",
        "province": "Somogy",
        "population": 3380,
        "latitude": 46.670132,
        "longitude": 17.643978
    },
    {
        "name": "Lébény",
        "country": "Hungary",
        "province": "Győr-Moson-Sopron",
        "population": 3221,
        "latitude": 47.7357445026443,
        "longitude": 17.3907566070557
    },
    {
        "name": "Leányfalu",
        "country": "Hungary",
        "province": "Pest",
        "population": 2534,
        "latitude": 47.717785,
        "longitude": 19.085847
    },
    {
        "name": "Lánycsók",
        "country": "Hungary",
        "province": "Baranya",
        "population": 2707,
        "latitude": 46.00542790223731,
        "longitude": 18.625259399414062
    },
    {
        "name": "Lakitelek",
        "country": "Hungary",
        "province": "Bács-Kiskun",
        "population": 4435,
        "latitude": 46.876009,
        "longitude": 19.995042
    },
    {
        "name": "Lajoskomárom",
        "country": "Hungary",
        "province": "Fejér",
        "population": 2365,
        "latitude": 46.842005,
        "longitude": 18.337627
    },
    {
        "name": "Lábod",
        "country": "Hungary",
        "province": "Somogy",
        "population": 2244,
        "latitude": 46.205351,
        "longitude": 17.454187
    },
    {
        "name": "Lábatlan",
        "country": "Hungary",
        "province": "Komárom-Esztergom",
        "population": 5357,
        "latitude": 47.74735,
        "longitude": 18.496226
    },
    {
        "name": "Kunfehértó",
        "country": "Hungary",
        "province": "Bács-Kiskun",
        "population": 2281,
        "latitude": 46.360914,
        "longitude": 19.41454
    },
    {
        "name": "Kozármisleny",
        "country": "Hungary",
        "province": "Baranya",
        "population": 4093,
        "latitude": 46.029669,
        "longitude": 18.292097
    },
    {
        "name": "Kosd",
        "country": "Hungary",
        "province": "Pest",
        "population": 2371,
        "latitude": 47.807912,
        "longitude": 19.178213
    },
    {
        "name": "Környe",
        "country": "Hungary",
        "province": "Komárom-Esztergom",
        "population": 4359,
        "latitude": 47.546681,
        "longitude": 18.320805
    },
    {
        "name": "Kóny",
        "country": "Hungary",
        "province": "Győr-Moson-Sopron",
        "population": 2609,
        "latitude": 47.630531,
        "longitude": 17.357167
    },
    {
        "name": "Kóka",
        "country": "Hungary",
        "province": "Pest",
        "population": 4376,
        "latitude": 47.485522,
        "longitude": 19.578764
    },
    {
        "name": "Kocsér",
        "country": "Hungary",
        "province": "Pest",
        "population": 2096,
        "latitude": 47.001654,
        "longitude": 19.920666
    },
    {
        "name": "Kocs",
        "country": "Hungary",
        "province": "Komárom-Esztergom",
        "population": 2655,
        "latitude": 47.607495,
        "longitude": 18.215168
    },
    {
        "name": "Kisszállás",
        "country": "Hungary",
        "province": "Bács-Kiskun",
        "population": 2846,
        "latitude": 46.28009,
        "longitude": 19.489544
    },
    {
        "name": "Kisláng",
        "country": "Hungary",
        "province": "Fejér",
        "population": 2641,
        "latitude": 46.957438,
        "longitude": 18.388127
    },
    {
        "name": "Kiskunmajsa",
        "country": "Hungary",
        "province": "Bács-Kiskun",
        "population": 11955,
        "latitude": 46.490278,
        "longitude": 19.74
    },
    {
        "name": "Kiskunlacháza",
        "country": "Hungary",
        "province": "Pest",
        "population": 8980,
        "latitude": 47.188388,
        "longitude": 19.0093
    },
    {
        "name": "Kiskőrös",
        "country": "Hungary",
        "province": "Bács-Kiskun",
        "population": 15091,
        "latitude": 46.621389,
        "longitude": 19.285281
    },
    {
        "name": "Kincsesbánya",
        "country": "Hungary",
        "province": "Fejér",
        "population": 1506,
        "latitude": 47.2644365724884,
        "longitude": 18.2779026031494
    },
    {
        "name": "Kéthely",
        "country": "Hungary",
        "province": "Somogy",
        "population": 2408,
        "latitude": 46.646051,
        "longitude": 17.393616
    },
    {
        "name": "Kesztölc",
        "country": "Hungary",
        "province": "Komárom-Esztergom",
        "population": 2559,
        "latitude": 47.712664,
        "longitude": 18.801769
    },
    {
        "name": "Kerekegyháza",
        "country": "Hungary",
        "province": "Bács-Kiskun",
        "population": 5983,
        "latitude": 46.9372222,
        "longitude": 19.4780556
    },
    {
        "name": "Kelebia",
        "country": "Hungary",
        "province": "Bács-Kiskun",
        "population": 2985,
        "latitude": 46.196802,
        "longitude": 19.616592
    },
    {
        "name": "Kecskéd",
        "country": "Hungary",
        "province": "Komárom-Esztergom",
        "population": 1908,
        "latitude": 47.522985,
        "longitude": 18.309386
    },
    {
        "name": "Kecel",
        "country": "Hungary",
        "province": "Bács-Kiskun",
        "population": 9155,
        "latitude": 46.5252778,
        "longitude": 19.2519444
    },
    {
        "name": "Kazár",
        "country": "Hungary",
        "province": "Nógrád",
        "population": 2080,
        "latitude": 48.049524,
        "longitude": 19.861432
    },
    {
        "name": "Katymár",
        "country": "Hungary",
        "province": "Bács-Kiskun",
        "population": 2374,
        "latitude": 46.03398,
        "longitude": 19.209353
    },
    {
        "name": "Kartal",
        "country": "Hungary",
        "province": "Pest",
        "population": 6017,
        "latitude": 47.671331,
        "longitude": 19.542005
    },
    {
        "name": "Karancslapujtő",
        "country": "Hungary",
        "province": "Nógrád",
        "population": 2845,
        "latitude": 48.15,
        "longitude": 19.7333333
    },
    {
        "name": "Karancskeszi",
        "country": "Hungary",
        "province": "Nógrád",
        "population": 1924,
        "latitude": 48.163526,
        "longitude": 19.696859
    },
    {
        "name": "Karád",
        "country": "Hungary",
        "province": "Somogy",
        "population": 1733,
        "latitude": 46.690758,
        "longitude": 17.841356
    },
    {
        "name": "Kapuvár",
        "country": "Hungary",
        "province": "Győr-Moson-Sopron",
        "population": 10661,
        "latitude": 47.592235,
        "longitude": 17.028857
    },
    {
        "name": "Kaposmérő",
        "country": "Hungary",
        "province": "Somogy",
        "population": 2506,
        "latitude": 46.361672,
        "longitude": 17.703997
    },
    {
        "name": "Kápolnásnyék",
        "country": "Hungary",
        "province": "Fejér",
        "population": 3224,
        "latitude": 47.240037,
        "longitude": 18.675636
    },
    {
        "name": "Káloz",
        "country": "Hungary",
        "province": "Fejér",
        "population": 2527,
        "latitude": 46.954645,
        "longitude": 18.482588
    },
    {
        "name": "Kakucs",
        "country": "Hungary",
        "province": "Pest",
        "population": 2707,
        "latitude": 47.242005,
        "longitude": 19.364668
    },
    {
        "name": "Kadarkút",
        "country": "Hungary",
        "province": "Somogy",
        "population": 2740,
        "latitude": 46.236232,
        "longitude": 17.620138
    },
    {
        "name": "Jobbágyi",
        "country": "Hungary",
        "province": "Nógrád",
        "population": 2329,
        "latitude": 47.832381,
        "longitude": 19.677622
    },
    {
        "name": "Jászszentlászló",
        "country": "Hungary",
        "province": "Bács-Kiskun",
        "population": 2602,
        "latitude": 46.566854,
        "longitude": 19.760649
    },
    {
        "name": "Jászárokszállás",
        "country": "Hungary",
        "province": "Jász-Nagykun-Szolnok",
        "population": 8107,
        "latitude": 47.642375,
        "longitude": 19.980382
    },
    {
        "name": "Jánosháza",
        "country": "Hungary",
        "province": "Vas",
        "population": 2754,
        "latitude": 47.119367,
        "longitude": 17.165031
    },
    {
        "name": "Fülöpjakab",
        "country": "Hungary",
        "province": "Bács-Kiskun",
        "population": 1162,
        "latitude": 46.7422133799639,
        "longitude": 19.7213172912598
    },
    {
        "name": "Ják",
        "country": "Hungary",
        "province": "Vas",
        "population": 2310,
        "latitude": 47.142495,
        "longitude": 16.581478
    },
    {
        "name": "Izsák",
        "country": "Hungary",
        "province": "Bács-Kiskun",
        "population": 6117,
        "latitude": 46.804542,
        "longitude": 19.351723
    },
    {
        "name": "Iváncsa",
        "country": "Hungary",
        "province": "Fejér",
        "population": 2807,
        "latitude": 47.156704,
        "longitude": 18.820298
    },
    {
        "name": "Iregszemcse",
        "country": "Hungary",
        "province": "Tolna",
        "population": 2772,
        "latitude": 46.692857,
        "longitude": 18.185813
    },
    {
        "name": "Inárcs",
        "country": "Hungary",
        "province": "Pest",
        "population": 4262,
        "latitude": 47.262001,
        "longitude": 19.327
    },
    {
        "name": "Iklad",
        "country": "Hungary",
        "province": "Pest",
        "population": 2194,
        "latitude": 47.665335,
        "longitude": 19.436104
    },
    {
        "name": "Hort",
        "country": "Hungary",
        "province": "Heves",
        "population": 3797,
        "latitude": 47.69081468588478,
        "longitude": 19.789295196533203
    },
    {
        "name": "Hőgyész",
        "country": "Hungary",
        "province": "Tolna",
        "population": 3029,
        "latitude": 46.496974231448355,
        "longitude": 18.418407440185547
    },
    {
        "name": "Himesháza",
        "country": "Hungary",
        "province": "Baranya",
        "population": -1,
        "latitude": 46.0882336848671,
        "longitude": 18.569984436035156
    },
    {
        "name": "Hévízgyörk",
        "country": "Hungary",
        "province": "Pest",
        "population": 3101,
        "latitude": 47.6333333,
        "longitude": 19.5166667
    },
    {
        "name": "Hetvehely",
        "country": "Hungary",
        "province": "Baranya",
        "population": -1,
        "latitude": 46.133124,
        "longitude": 18.043771
    },
    {
        "name": "Hernád",
        "country": "Hungary",
        "province": "Pest",
        "population": 3689,
        "latitude": 47.162384,
        "longitude": 19.432952
    },
    {
        "name": "Hercegszántó",
        "country": "Hungary",
        "province": "Bács-Kiskun",
        "population": 2308,
        "latitude": 45.95,
        "longitude": 18.9391667
    },
    {
        "name": "Helvécia",
        "country": "Hungary",
        "province": "Bács-Kiskun",
        "population": 3918,
        "latitude": 46.836614,
        "longitude": 19.622512
    },
    {
        "name": "Hegykő",
        "country": "Hungary",
        "province": "Győr-Moson-Sopron",
        "population": -1,
        "latitude": 47.618738,
        "longitude": 16.796955
    },
    {
        "name": "Hegyeshalom",
        "country": "Hungary",
        "province": "Győr-Moson-Sopron",
        "population": -1,
        "latitude": 47.913379,
        "longitude": 17.153879
    },
    {
        "name": "Hatvan",
        "country": "Hungary",
        "province": "Heves",
        "population": 20228,
        "latitude": 47.666667,
        "longitude": 19.683333
    },
    {
        "name": "Harta",
        "country": "Hungary",
        "province": "Bács-Kiskun",
        "population": 3716,
        "latitude": 46.69758,
        "longitude": 19.0311
    },
    {
        "name": "Hárskút",
        "country": "Hungary",
        "province": "Veszprém",
        "population": -1,
        "latitude": 47.188365,
        "longitude": 17.816988
    },
    {
        "name": "Harka",
        "country": "Hungary",
        "province": "Győr-Moson-Sopron",
        "population": -1,
        "latitude": 47.633333,
        "longitude": 16.6
    },
    {
        "name": "Halásztelek",
        "country": "Hungary",
        "province": "Pest",
        "population": 7245,
        "latitude": 47.361733,
        "longitude": 18.981191
    },
    {
        "name": "Hajmáskér",
        "country": "Hungary",
        "province": "Veszprém",
        "population": 2793,
        "latitude": 47.14513099485615,
        "longitude": 18.019638061523438
    },
    {
        "name": "Győrújbarát",
        "country": "Hungary",
        "province": "Győr-Moson-Sopron",
        "population": 4603,
        "latitude": 47.606425,
        "longitude": 17.648751
    },
    {
        "name": "Győrszemere",
        "country": "Hungary",
        "province": "Győr-Moson-Sopron",
        "population": 2964,
        "latitude": 47.552558,
        "longitude": 17.563561
    },
    {
        "name": "Gyönk",
        "country": "Hungary",
        "province": "Tolna",
        "population": 2148,
        "latitude": 46.55602736725248,
        "longitude": 18.476943969726562
    },
    {
        "name": "Gyöngyöspata",
        "country": "Hungary",
        "province": "Heves",
        "population": 2724,
        "latitude": 47.815049,
        "longitude": 19.789245
    },
    {
        "name": "Gyöngyöshalász",
        "country": "Hungary",
        "province": "Heves",
        "population": 2585,
        "latitude": 47.741613,
        "longitude": 19.928764
    },
    {
        "name": "Gyenesdiás",
        "country": "Hungary",
        "province": "Zala",
        "population": 2796,
        "latitude": 46.770585,
        "longitude": 17.286603
    },
    {
        "name": "Gyál",
        "country": "Hungary",
        "province": "Pest",
        "population": 21937,
        "latitude": 47.384493,
        "longitude": 19.221395
    },
    {
        "name": "Gomba",
        "country": "Hungary",
        "province": "Pest",
        "population": 2861,
        "latitude": 47.37095,
        "longitude": 19.530573
    },
    {
        "name": "Gencsapáti",
        "country": "Hungary",
        "province": "Vas",
        "population": 2580,
        "latitude": 47.28496432450573,
        "longitude": 16.595749855041504
    },
    {
        "name": "Gárdony",
        "country": "Hungary",
        "province": "Fejér",
        "population": 8105,
        "latitude": 47.209423741859,
        "longitude": 18.6360740661621
    },
    {
        "name": "Gara",
        "country": "Hungary",
        "province": "Bács-Kiskun",
        "population": 2656,
        "latitude": 46.0319444,
        "longitude": 19.0427778
    },
    {
        "name": "Galgamácsa",
        "country": "Hungary",
        "province": "Pest",
        "population": 2061,
        "latitude": 47.695622,
        "longitude": 19.387235
    },
    {
        "name": "Galgahévíz",
        "country": "Hungary",
        "province": "Pest",
        "population": 2641,
        "latitude": 47.6166667,
        "longitude": 19.5666667
    },
    {
        "name": "Fülöpszállás",
        "country": "Hungary",
        "province": "Bács-Kiskun",
        "population": 2503,
        "latitude": 46.820752,
        "longitude": 19.237483
    },
    {
        "name": "Forráskút",
        "country": "Hungary",
        "province": "Csongrád",
        "population": 2287,
        "latitude": 46.36528,
        "longitude": 19.90973
    },
    {
        "name": "Fertőszentmiklós",
        "country": "Hungary",
        "province": "Győr-Moson-Sopron",
        "population": 3877,
        "latitude": 47.58995720851129,
        "longitude": 16.875171661376953
    },
    {
        "name": "Fertőrákos",
        "country": "Hungary",
        "province": "Győr-Moson-Sopron",
        "population": 2179,
        "latitude": 47.720170717515245,
        "longitude": 16.650402545928955
    },
    {
        "name": "Felsőszentiván",
        "country": "Hungary",
        "province": "Bács-Kiskun",
        "population": 1998,
        "latitude": 46.197127,
        "longitude": 19.186855
    },
    {
        "name": "Felsőpakony",
        "country": "Hungary",
        "province": "Pest",
        "population": 3040,
        "latitude": 47.343285,
        "longitude": 19.236984
    },
    {
        "name": "Fehérvárcsurgó",
        "country": "Hungary",
        "province": "Fejér",
        "population": 1886,
        "latitude": 47.29349337407015,
        "longitude": 18.264598846435547
    },
    {
        "name": "Farmos",
        "country": "Hungary",
        "province": "Pest",
        "population": 3793,
        "latitude": 47.360671,
        "longitude": 19.846193
    },
    {
        "name": "Farád",
        "country": "Hungary",
        "province": "Győr-Moson-Sopron",
        "population": 1936,
        "latitude": 47.606333,
        "longitude": 17.200244
    },
    {
        "name": "Fadd",
        "country": "Hungary",
        "province": "Tolna",
        "population": 4442,
        "latitude": 46.464764,
        "longitude": 18.819246
    },
    {
        "name": "Etyek",
        "country": "Hungary",
        "province": "Fejér",
        "population": 3626,
        "latitude": 47.44794,
        "longitude": 18.753278
    },
    {
        "name": "Érsekvadkert",
        "country": "Hungary",
        "province": "Nógrád",
        "population": 3762,
        "latitude": 47.996187,
        "longitude": 19.202312
    },
    {
        "name": "Érsekcsanád",
        "country": "Hungary",
        "province": "Bács-Kiskun",
        "population": 2863,
        "latitude": 46.253522,
        "longitude": 18.98457
    },
    {
        "name": "Erdőkertes",
        "country": "Hungary",
        "province": "Pest",
        "population": 5996,
        "latitude": 47.672609,
        "longitude": 19.30786
    },
    {
        "name": "Ercsi",
        "country": "Hungary",
        "province": "Fejér",
        "population": 8383,
        "latitude": 47.251944,
        "longitude": 18.89623
    },
    {
        "name": "Előszállás",
        "country": "Hungary",
        "province": "Fejér",
        "population": 2556,
        "latitude": 46.830945,
        "longitude": 18.834809
    },
    {
        "name": "Ecséd",
        "country": "Hungary",
        "province": "Heves",
        "population": 3457,
        "latitude": 47.732667,
        "longitude": 19.766962
    },
    {
        "name": "Dusnok",
        "country": "Hungary",
        "province": "Bács-Kiskun",
        "population": 3284,
        "latitude": 46.390852,
        "longitude": 18.962955
    },
    {
        "name": "Dunasziget",
        "country": "Hungary",
        "province": "Győr-Moson-Sopron",
        "population": -1,
        "latitude": 47.940275,
        "longitude": 17.352661
    },
    {
        "name": "Dunaszentgyörgy",
        "country": "Hungary",
        "province": "Tolna",
        "population": 2624,
        "latitude": 46.528522,
        "longitude": 18.81771
    },
    {
        "name": "Dunaremete",
        "country": "Hungary",
        "province": "Győr-Moson-Sopron",
        "population": -1,
        "latitude": 47.876999,
        "longitude": 17.436134
    },
    {
        "name": "Dunapataj",
        "country": "Hungary",
        "province": "Bács-Kiskun",
        "population": 3693,
        "latitude": 46.643997,
        "longitude": 18.996321
    },
    {
        "name": "Dunakiliti",
        "country": "Hungary",
        "province": "Győr-Moson-Sopron",
        "population": -1,
        "latitude": 47.965449,
        "longitude": 17.286621
    },
    {
        "name": "Dunabogdány",
        "country": "Hungary",
        "province": "Pest",
        "population": 3059,
        "latitude": 47.790517,
        "longitude": 19.041247
    },
    {
        "name": "Dunaalmás",
        "country": "Hungary",
        "province": "Komárom-Esztergom",
        "population": 1479,
        "latitude": 47.728675,
        "longitude": 18.322347
    },
    {
        "name": "Dömsöd",
        "country": "Hungary",
        "province": "Pest",
        "population": 5942,
        "latitude": 47.090047,
        "longitude": 19.011058
    },
    {
        "name": "Dömös",
        "country": "Hungary",
        "province": "Komárom-Esztergom",
        "population": -1,
        "latitude": 47.761625,
        "longitude": 18.913099
    },
    {
        "name": "Domony",
        "country": "Hungary",
        "province": "Pest",
        "population": 2031,
        "latitude": 47.65552,
        "longitude": 19.432286
    },
    {
        "name": "Dombóvár",
        "country": "Hungary",
        "province": "Tolna",
        "population": 20748,
        "latitude": 46.376568,
        "longitude": 18.136962
    },
    {
        "name": "Döbrököz",
        "country": "Hungary",
        "province": "Tolna",
        "population": 2120,
        "latitude": 46.42178,
        "longitude": 18.239525
    },
    {
        "name": "Diósjenő",
        "country": "Hungary",
        "province": "Nógrád",
        "population": 2746,
        "latitude": 47.939683,
        "longitude": 19.043174
    },
    {
        "name": "Devecser",
        "country": "Hungary",
        "province": "Veszprém",
        "population": 5140,
        "latitude": 47.103163,
        "longitude": 17.438023
    },
    {
        "name": "Délegyháza",
        "country": "Hungary",
        "province": "Pest",
        "population": 2506,
        "latitude": 47.241351,
        "longitude": 19.090186
    },
    {
        "name": "Dég",
        "country": "Hungary",
        "province": "Fejér",
        "population": 2354,
        "latitude": 46.868068,
        "longitude": 18.45042
    },
    {
        "name": "Decs",
        "country": "Hungary",
        "province": "Tolna",
        "population": 4210,
        "latitude": 46.284285,
        "longitude": 18.760005
    },
    {
        "name": "Dávod",
        "country": "Hungary",
        "province": "Bács-Kiskun",
        "population": 2240,
        "latitude": 45.995,
        "longitude": 18.9172222
    },
    {
        "name": "Dány",
        "country": "Hungary",
        "province": "Pest",
        "population": 4378,
        "latitude": 47.519998,
        "longitude": 19.544004
    },
    {
        "name": "Dánszentmiklós",
        "country": "Hungary",
        "province": "Pest",
        "population": 2838,
        "latitude": 47.214859,
        "longitude": 19.546954
    },
    {
        "name": "Dabas",
        "country": "Hungary",
        "province": "Pest",
        "population": 16590,
        "latitude": 47.185938,
        "longitude": 19.310908
    },
    {
        "name": "Csorna",
        "country": "Hungary",
        "province": "Győr-Moson-Sopron",
        "population": 10825,
        "latitude": 47.611552,
        "longitude": 17.250122
    },
    {
        "name": "Csopak",
        "country": "Hungary",
        "province": "Veszprém",
        "population": 1604,
        "latitude": 46.9770901285977,
        "longitude": 17.9181861877441
    },
    {
        "name": "Csömör",
        "country": "Hungary",
        "province": "Pest",
        "population": 7544,
        "latitude": 47.55,
        "longitude": 19.2333333
    },
    {
        "name": "Csolnok",
        "country": "Hungary",
        "province": "Komárom-Esztergom",
        "population": 3381,
        "latitude": 47.691155,
        "longitude": 18.716109
    },
    {
        "name": "Csokonyavisonta",
        "country": "Hungary",
        "province": "Somogy",
        "population": 1546,
        "latitude": 46.077052,
        "longitude": 17.443719
    },
    {
        "name": "Csobánka",
        "country": "Hungary",
        "province": "Pest",
        "population": 2881,
        "latitude": 47.64636655125989,
        "longitude": 18.96188735961914
    },
    {
        "name": "Csetény",
        "country": "Hungary",
        "province": "Veszprém",
        "population": 2039,
        "latitude": 47.318059,
        "longitude": 17.992076
    },
    {
        "name": "Csesznek",
        "country": "Hungary",
        "province": "Veszprém",
        "population": -1,
        "latitude": 47.356639,
        "longitude": 17.885153
    },
    {
        "name": "Cserszegtomaj",
        "country": "Hungary",
        "province": "Zala",
        "population": 1941,
        "latitude": 46.80165,
        "longitude": 17.220957
    },
    {
        "name": "Csengőd",
        "country": "Hungary",
        "province": "Bács-Kiskun",
        "population": 2291,
        "latitude": 46.715434,
        "longitude": 19.268024
    },
    {
        "name": "Csengele",
        "country": "Hungary",
        "province": "Csongrád",
        "population": 2004,
        "latitude": 46.542336,
        "longitude": 19.863584
    },
    {
        "name": "Csemő",
        "country": "Hungary",
        "province": "Pest",
        "population": 4411,
        "latitude": 47.117993,
        "longitude": 19.690923
    },
    {
        "name": "Csávoly",
        "country": "Hungary",
        "province": "Bács-Kiskun",
        "population": 2080,
        "latitude": 46.189167,
        "longitude": 19.146667
    },
    {
        "name": "Császártöltés",
        "country": "Hungary",
        "province": "Bács-Kiskun",
        "population": 2649,
        "latitude": 46.4219444,
        "longitude": 19.1836111
    },
    {
        "name": "Császár",
        "country": "Hungary",
        "province": "Komárom-Esztergom",
        "population": 1922,
        "latitude": 47.498001,
        "longitude": 18.142719
    },
    {
        "name": "Csány",
        "country": "Hungary",
        "province": "Heves",
        "population": 2279,
        "latitude": 47.648287,
        "longitude": 19.829716
    },
    {
        "name": "Csákvár",
        "country": "Hungary",
        "province": "Fejér",
        "population": 5259,
        "latitude": 47.39184176086316,
        "longitude": 18.46501350402832
    },
    {
        "name": "Csabrendek",
        "country": "Hungary",
        "province": "Veszprém",
        "population": 2948,
        "latitude": 47.013558,
        "longitude": 17.291083
    },
    {
        "name": "Ceglédbercel",
        "country": "Hungary",
        "province": "Pest",
        "population": 4710,
        "latitude": 47.223696,
        "longitude": 19.66828
    },
    {
        "name": "Cece",
        "country": "Hungary",
        "province": "Fejér",
        "population": 2843,
        "latitude": 46.77055630972415,
        "longitude": 18.628263473510742
    },
    {
        "name": "Bükkösd",
        "country": "Hungary",
        "province": "Baranya",
        "population": 1132,
        "latitude": 46.107507,
        "longitude": 17.9882
    },
    {
        "name": "Bük",
        "country": "Hungary",
        "province": "Vas",
        "population": 3174,
        "latitude": 47.38486,
        "longitude": 16.750654
    },
    {
        "name": "Buják",
        "country": "Hungary",
        "province": "Nógrád",
        "population": 2343,
        "latitude": 47.883523,
        "longitude": 19.543813
    },
    {
        "name": "Bugyi",
        "country": "Hungary",
        "province": "Pest",
        "population": 5412,
        "latitude": 47.227478,
        "longitude": 19.146645
    },
    {
        "name": "Bugac",
        "country": "Hungary",
        "province": "Bács-Kiskun",
        "population": 3066,
        "latitude": 46.687039,
        "longitude": 19.680739
    },
    {
        "name": "Budakeszi",
        "country": "Hungary",
        "province": "Pest",
        "population": 14330,
        "latitude": 47.510832,
        "longitude": 18.927171
    },
    {
        "name": "Budakalász",
        "country": "Hungary",
        "province": "Pest",
        "population": 1003,
        "latitude": 47.6166667,
        "longitude": 19.05
    },
    {
        "name": "Aszód",
        "country": "Hungary",
        "province": "Pest",
        "population": 6186,
        "latitude": 47.6517439554704,
        "longitude": 19.4785022735596
    },
    {
        "name": "Bősárkány",
        "country": "Hungary",
        "province": "Győr-Moson-Sopron",
        "population": 2208,
        "latitude": 47.688205,
        "longitude": 17.25
    },
    {
        "name": "Bordány",
        "country": "Hungary",
        "province": "Csongrád",
        "population": 3097,
        "latitude": 46.31843,
        "longitude": 19.923058
    },
    {
        "name": "Bőny",
        "country": "Hungary",
        "province": "Győr-Moson-Sopron",
        "population": 2225,
        "latitude": 47.65,
        "longitude": 17.869772
    },
    {
        "name": "Boldog",
        "country": "Hungary",
        "province": "Heves",
        "population": 3131,
        "latitude": 47.602855,
        "longitude": 19.688388
    },
    {
        "name": "Bölcske",
        "country": "Hungary",
        "province": "Tolna",
        "population": 2946,
        "latitude": 46.741023,
        "longitude": 18.967357
    },
    {
        "name": "Bokod",
        "country": "Hungary",
        "province": "Komárom-Esztergom",
        "population": 2229,
        "latitude": 47.491862,
        "longitude": 18.24743
    },
    {
        "name": "Bogyiszló",
        "country": "Hungary",
        "province": "Tolna",
        "population": 2348,
        "latitude": 46.386378,
        "longitude": 18.829621
    },
    {
        "name": "Bodajk",
        "country": "Hungary",
        "province": "Fejér",
        "population": 4069,
        "latitude": 47.32352,
        "longitude": 18.233119
    },
    {
        "name": "Bicske",
        "country": "Hungary",
        "province": "Fejér",
        "population": 11072,
        "latitude": 47.484189,
        "longitude": 18.644038
    },
    {
        "name": "Biatorbágy",
        "country": "Hungary",
        "province": "Pest",
        "population": 8632,
        "latitude": 47.4706,
        "longitude": 18.818915
    },
    {
        "name": "Berzence",
        "country": "Hungary",
        "province": "Somogy",
        "population": 2694,
        "latitude": 46.209075,
        "longitude": 17.148103
    },
    {
        "name": "Berhida",
        "country": "Hungary",
        "province": "Veszprém",
        "population": 5822,
        "latitude": 47.111313,
        "longitude": 18.129478
    },
    {
        "name": "Beremend",
        "country": "Hungary",
        "province": "Baranya",
        "population": 2775,
        "latitude": 45.791084,
        "longitude": 18.432628
    },
    {
        "name": "Bercel",
        "country": "Hungary",
        "province": "Nógrád",
        "population": 1991,
        "latitude": 47.87057,
        "longitude": 19.407149
    },
    {
        "name": "Beled",
        "country": "Hungary",
        "province": "Győr-Moson-Sopron",
        "population": 2933,
        "latitude": 47.465936,
        "longitude": 17.092936
    },
    {
        "name": "Becsehely",
        "country": "Hungary",
        "province": "Zala",
        "population": 2255,
        "latitude": 46.447551,
        "longitude": 16.777103
    },
    {
        "name": "Bátya",
        "country": "Hungary",
        "province": "Bács-Kiskun",
        "population": 2190,
        "latitude": 46.487997,
        "longitude": 18.954188
    },
    {
        "name": "Bátonyterenye",
        "country": "Hungary",
        "province": "Nógrád",
        "population": 14214,
        "latitude": 47.969618,
        "longitude": 19.840757
    },
    {
        "name": "Bátaszék",
        "country": "Hungary",
        "province": "Tolna",
        "population": 6820,
        "latitude": 46.193726,
        "longitude": 18.723074
    },
    {
        "name": "Báta",
        "country": "Hungary",
        "province": "Tolna",
        "population": 1891,
        "latitude": 46.128641,
        "longitude": 18.770267
    },
    {
        "name": "Zsombó",
        "country": "Hungary",
        "province": "Csongrád",
        "population": 3268,
        "latitude": 46.325656,
        "longitude": 19.974638
    },
    {
        "name": "Zsira",
        "country": "Hungary",
        "province": "Győr-Moson-Sopron",
        "population": -1,
        "latitude": 47.457608,
        "longitude": 16.677279
    },
    {
        "name": "Zsámbok",
        "country": "Hungary",
        "province": "Pest",
        "population": 2474,
        "latitude": 47.543813,
        "longitude": 19.610481
    },
    {
        "name": "Zomba",
        "country": "Hungary",
        "province": "Tolna",
        "population": 2286,
        "latitude": 46.410838,
        "longitude": 18.565767
    },
    {
        "name": "Zirc",
        "country": "Hungary",
        "province": "Veszprém",
        "population": 7314,
        "latitude": 47.26362112146958,
        "longitude": 17.87372589111328
    },
    {
        "name": "Zánka",
        "country": "Hungary",
        "province": "Veszprém",
        "population": 1003,
        "latitude": 46.87145819560722,
        "longitude": 17.68472671508789
    },
    {
        "name": "Zámoly",
        "country": "Hungary",
        "province": "Fejér",
        "population": 2194,
        "latitude": 47.316667,
        "longitude": 18.408101
    },
    {
        "name": "Zamárdi",
        "country": "Hungary",
        "province": "Somogy",
        "population": 2211,
        "latitude": 46.884884,
        "longitude": 17.953657
    },
    {
        "name": "Zalaszentgrót",
        "country": "Hungary",
        "province": "Zala",
        "population": 7796,
        "latitude": 46.944739,
        "longitude": 17.079253
    },
    {
        "name": "Zalalövő",
        "country": "Hungary",
        "province": "Zala",
        "population": 3195,
        "latitude": 46.848016,
        "longitude": 16.587496
    },
    {
        "name": "Zalakomár",
        "country": "Hungary",
        "province": "Zala",
        "population": 3103,
        "latitude": 46.537955,
        "longitude": 17.18094
    },
    {
        "name": "Zákányszék",
        "country": "Hungary",
        "province": "Csongrád",
        "population": 2747,
        "latitude": 46.274529,
        "longitude": 19.889751
    },
    {
        "name": "Vonyarcvashegy",
        "country": "Hungary",
        "province": "Zala",
        "population": 1902,
        "latitude": 46.757425,
        "longitude": 17.311717
    },
    {
        "name": "Villány",
        "country": "Hungary",
        "province": "Baranya",
        "population": 2738,
        "latitude": 45.8688889,
        "longitude": 18.4538889
    },
    {
        "name": "Vértesszőlős",
        "country": "Hungary",
        "province": "Komárom-Esztergom",
        "population": 2747,
        "latitude": 47.621057,
        "longitude": 18.381298
    },
    {
        "name": "Verőce",
        "country": "Hungary",
        "province": "Pest",
        "population": 3352,
        "latitude": 47.8246811661612,
        "longitude": 19.0348434448242
    },
    {
        "name": "Vép",
        "country": "Hungary",
        "province": "Vas",
        "population": 3460,
        "latitude": 47.230409948610514,
        "longitude": 16.72247886657715
    },
    {
        "name": "Velence",
        "country": "Hungary",
        "province": "Fejér",
        "population": 4832,
        "latitude": 47.238547,
        "longitude": 18.654842
    },
    {
        "name": "Vecsés",
        "country": "Hungary",
        "province": "Pest",
        "population": 19327,
        "latitude": 47.407047,
        "longitude": 19.286483
    },
    {
        "name": "Vasvár",
        "country": "Hungary",
        "province": "Vas",
        "population": 4613,
        "latitude": 47.0492842404522,
        "longitude": 16.799544095993
    },
    {
        "name": "Vaskút",
        "country": "Hungary",
        "province": "Bács-Kiskun",
        "population": 3613,
        "latitude": 46.107816,
        "longitude": 18.985141
    },
    {
        "name": "Várpalota",
        "country": "Hungary",
        "province": "Veszprém",
        "population": 21299,
        "latitude": 47.199358,
        "longitude": 18.139543
    },
    {
        "name": "Városföld",
        "country": "Hungary",
        "province": "Bács-Kiskun",
        "population": 2248,
        "latitude": 46.8167433033052,
        "longitude": 19.7566795349121
    },
    {
        "name": "Vámosgyörk",
        "country": "Hungary",
        "province": "Heves",
        "population": 2020,
        "latitude": 47.684285,
        "longitude": 19.92924
    },
    {
        "name": "Valkó",
        "country": "Hungary",
        "province": "Pest",
        "population": 2461,
        "latitude": 47.563907,
        "longitude": 19.51267
    },
    {
        "name": "Vál",
        "country": "Hungary",
        "province": "Fejér",
        "population": 2348,
        "latitude": 47.36264,
        "longitude": 18.679306
    },
    {
        "name": "Vajszló",
        "country": "Hungary",
        "province": "Baranya",
        "population": 1888,
        "latitude": 45.859575,
        "longitude": 17.984056
    },
    {
        "name": "Vácszentlászló",
        "country": "Hungary",
        "province": "Pest",
        "population": 2085,
        "latitude": 47.574005,
        "longitude": 19.537711
    },
    {
        "name": "Üröm",
        "country": "Hungary",
        "province": "Pest",
        "population": 4753,
        "latitude": 47.596741,
        "longitude": 19.015829
    },
    {
        "name": "Úrkút",
        "country": "Hungary",
        "province": "Veszprém",
        "population": 2178,
        "latitude": 47.085046,
        "longitude": 17.643933
    },
    {
        "name": "Úri",
        "country": "Hungary",
        "province": "Pest",
        "population": 2718,
        "latitude": 47.414288,
        "longitude": 19.527622
    },
    {
        "name": "Üllés",
        "country": "Hungary",
        "province": "Csongrád",
        "population": 3145,
        "latitude": 46.336114,
        "longitude": 19.844544
    },
    {
        "name": "Mosonudvar",
        "country": "Hungary",
        "province": "Győr-Moson-Sopron",
        "population": -1,
        "latitude": 47.843929,
        "longitude": 17.227385
    },
    {
        "name": "Újszilvás",
        "country": "Hungary",
        "province": "Pest",
        "population": 2722,
        "latitude": 47.274767,
        "longitude": 19.924767
    },
    {
        "name": "Újhartyán",
        "country": "Hungary",
        "province": "Pest",
        "population": 2852,
        "latitude": 47.219808,
        "longitude": 19.386378
    },
    {
        "name": "Türje",
        "country": "Hungary",
        "province": "Zala",
        "population": 1868,
        "latitude": 46.98366,
        "longitude": 17.107417
    },
    {
        "name": "Tura",
        "country": "Hungary",
        "province": "Pest",
        "population": 8294,
        "latitude": 47.609242,
        "longitude": 19.60279
    },
    {
        "name": "Törtel",
        "country": "Hungary",
        "province": "Pest",
        "population": 4733,
        "latitude": 47.122092,
        "longitude": 19.93714
    },
    {
        "name": "Tompa",
        "country": "Hungary",
        "province": "Bács-Kiskun",
        "population": 4844,
        "latitude": 46.206054,
        "longitude": 19.539101
    },
    {
        "name": "Töltéstava",
        "country": "Hungary",
        "province": "Győr-Moson-Sopron",
        "population": 1902,
        "latitude": 47.62609,
        "longitude": 17.733761
    },
    {
        "name": "Tolna",
        "country": "Hungary",
        "province": "Tolna",
        "population": 12011,
        "latitude": 46.426765,
        "longitude": 18.782476
    },
    {
        "name": "Tokod",
        "country": "Hungary",
        "province": "Komárom-Esztergom",
        "population": 4271,
        "latitude": 47.722768,
        "longitude": 18.658887
    },
    {
        "name": "Tóalmás",
        "country": "Hungary",
        "province": "Pest",
        "population": 3434,
        "latitude": 47.507816,
        "longitude": 19.666572
    },
    {
        "name": "Tengelic",
        "country": "Hungary",
        "province": "Tolna",
        "population": 2445,
        "latitude": 46.528784,
        "longitude": 18.711166
    },
    {
        "name": "Telki",
        "country": "Hungary",
        "province": "Pest",
        "population": 2071,
        "latitude": 47.547905,
        "longitude": 18.828165
    },
    {
        "name": "Tázlár",
        "country": "Hungary",
        "province": "Bács-Kiskun",
        "population": 1984,
        "latitude": 46.548241,
        "longitude": 19.514358
    },
    {
        "name": "Tát",
        "country": "Hungary",
        "province": "Komárom-Esztergom",
        "population": 5575,
        "latitude": 47.741478,
        "longitude": 18.648127
    },
    {
        "name": "Taszár",
        "country": "Hungary",
        "province": "Somogy",
        "population": 2013,
        "latitude": 46.37467,
        "longitude": 17.905942
    },
    {
        "name": "Tass",
        "country": "Hungary",
        "province": "Bács-Kiskun",
        "population": 2963,
        "latitude": 47.020954,
        "longitude": 19.029884
    },
    {
        "name": "Tárnok",
        "country": "Hungary",
        "province": "Pest",
        "population": 7990,
        "latitude": 47.373269,
        "longitude": 18.845786
    },
    {
        "name": "Tarján",
        "country": "Hungary",
        "province": "Komárom-Esztergom",
        "population": 2825,
        "latitude": 47.610423,
        "longitude": 18.510703
    },
    {
        "name": "Tardos",
        "country": "Hungary",
        "province": "Komárom-Esztergom",
        "population": 1625,
        "latitude": 47.6619190330728,
        "longitude": 18.4441566467285
    },
    {
        "name": "Tar",
        "country": "Hungary",
        "province": "Nógrád",
        "population": 1972,
        "latitude": 47.953712,
        "longitude": 19.746098
    },
    {
        "name": "Tapolca",
        "country": "Hungary",
        "province": "Veszprém",
        "population": 17598,
        "latitude": 46.881518,
        "longitude": 17.44117
    },
    {
        "name": "Táplánszentkereszt",
        "country": "Hungary",
        "province": "Vas",
        "population": 2342,
        "latitude": 47.194961744813355,
        "longitude": 16.696128845214844
    },
    {
        "name": "Tápiószőlős",
        "country": "Hungary",
        "province": "Pest",
        "population": 3155,
        "latitude": 47.302475,
        "longitude": 19.851333
    },
    {
        "name": "Tápiószentmárton",
        "country": "Hungary",
        "province": "Pest",
        "population": 5596,
        "latitude": 47.3399,
        "longitude": 19.746478
    },
    {
        "name": "Tápiószele",
        "country": "Hungary",
        "province": "Pest",
        "population": 6214,
        "latitude": 47.336093,
        "longitude": 19.877241
    },
    {
        "name": "Tápiószecső",
        "country": "Hungary",
        "province": "Pest",
        "population": 6628,
        "latitude": 47.45,
        "longitude": 19.609232
    },
    {
        "name": "Sülysáp",
        "country": "Hungary",
        "province": "Pest",
        "population": 8258,
        "latitude": 47.4520629542374,
        "longitude": 19.53369140625
    },
    {
        "name": "Tápióság",
        "country": "Hungary",
        "province": "Pest",
        "population": 2760,
        "latitude": 47.401999,
        "longitude": 19.630468
    },
    {
        "name": "Tápiógyörgye",
        "country": "Hungary",
        "province": "Pest",
        "population": 3817,
        "latitude": 47.335046,
        "longitude": 19.95276
    },
    {
        "name": "Tápióbicske",
        "country": "Hungary",
        "province": "Pest",
        "population": 3514,
        "latitude": 47.360957,
        "longitude": 19.686093
    },
    {
        "name": "Taksony",
        "country": "Hungary",
        "province": "Pest",
        "population": 6129,
        "latitude": 47.329681,
        "longitude": 19.066945
    },
    {
        "name": "Tahitótfalu",
        "country": "Hungary",
        "province": "Pest",
        "population": 4677,
        "latitude": 47.75161,
        "longitude": 19.07886
    },
    {
        "name": "Táborfalva",
        "country": "Hungary",
        "province": "Pest",
        "population": 3509,
        "latitude": 47.099418,
        "longitude": 19.478374
    },
    {
        "name": "Szurdokpüspöki",
        "country": "Hungary",
        "province": "Nógrád",
        "population": 1947,
        "latitude": 47.859232,
        "longitude": 19.692184
    },
    {
        "name": "Szomód",
        "country": "Hungary",
        "province": "Komárom-Esztergom",
        "population": 2020,
        "latitude": 47.684919,
        "longitude": 18.34061
    },
    {
        "name": "Sződliget",
        "country": "Hungary",
        "province": "Pest",
        "population": 4350,
        "latitude": 47.732588,
        "longitude": 19.147486
    },
    {
        "name": "Sződ",
        "country": "Hungary",
        "province": "Pest",
        "population": 3059,
        "latitude": 47.724394,
        "longitude": 19.170458
    },
    {
        "name": "Szigetújfalu",
        "country": "Hungary",
        "province": "Pest",
        "population": 2158,
        "latitude": 47.234172,
        "longitude": 18.927461
    },
    {
        "name": "Szigetszentmiklós",
        "country": "Hungary",
        "province": "Pest",
        "population": 24874,
        "latitude": 47.343819,
        "longitude": 19.043351
    },
    {
        "name": "Szigetcsép",
        "country": "Hungary",
        "province": "Pest",
        "population": 2455,
        "latitude": 47.264921,
        "longitude": 18.970484
    },
    {
        "name": "Szentmártonkáta",
        "country": "Hungary",
        "province": "Pest",
        "population": 4868,
        "latitude": 47.454188,
        "longitude": 19.701428
    },
    {
        "name": "Szentlőrinckáta",
        "country": "Hungary",
        "province": "Pest",
        "population": 2005,
        "latitude": 47.519474,
        "longitude": 19.752865
    },
    {
        "name": "Szentkirályszabadja",
        "country": "Hungary",
        "province": "Veszprém",
        "population": 2042,
        "latitude": 47.057602,
        "longitude": 17.970522
    },
    {
        "name": "Szentkirály",
        "country": "Hungary",
        "province": "Bács-Kiskun",
        "population": 1965,
        "latitude": 46.918923,
        "longitude": 19.918463
    },
    {
        "name": "Szedres",
        "country": "Hungary",
        "province": "Tolna",
        "population": 2478,
        "latitude": 46.47551,
        "longitude": 18.683052
    },