[
    {
        "name": "Jerusalem",
        "country": "Israel",
        "province": "Jerusalem",
        "population": 971800,
        "latitude": 31.76904009837115,
        "longitude": 35.216331481933594
    },
    {
        "name": "Tel Aviv",
        "country": "Israel",
        "province": "Tel Aviv",
        "population": 432892,
        "latitude": 32.080883,
        "longitude": 34.780572
    },
    {
        "name": "Ramla",
        "country": "Israel",
        "province": "Central District",
        "population": 76246,
        "latitude": 31.929228,
        "longitude": 34.865633
    },
    {
        "name": "Ramat Gan",
        "country": "Israel",
        "province": "Tel Aviv",
        "population": 170822,
        "latitude": 32.082269,
        "longitude": 34.810652
    },
    {
        "name": "Netanya",
        "country": "Israel",
        "province": "Central District",
        "population": 228204,
        "latitude": 32.332915,
        "longitude": 34.859918
    },
    {
        "name": "Nazareth",
        "country": "Israel",
        "province": "Northern District",
        "population": 77445,
        "latitude": 32.700556,
        "longitude": 35.297222
    },
    {
        "name": "Holon",
        "country": "Israel",
        "province": "Tel Aviv",
        "population": 196282,
        "latitude": 32.010344,
        "longitude": 34.77918
    },
    {
        "name": "Haifa",
        "country": "Israel",
        "province": "Haifa",
        "population": 285316,
        "latitude": 32.818409,
        "longitude": 34.9885
    },
    {
        "name": "Beersheba",
        "country": "Israel",
        "province": "Southern District",
        "population": 186600,
        "latitude": 31.251813583951552,
        "longitude": 34.791297912597656
    },
    {
        "name": "Ashdod",
        "country": "Israel",
        "province": "Southern District",
        "population": 226838,
        "latitude": 31.792133,
        "longitude": 34.649656
    },
    {
        "name": "Jaffa",
        "country": "Israel",
        "province": "Tel Aviv",
        "population": 100000,
        "latitude": 32.0504253751493,
        "longitude": 34.7522449493408
    },
    {
        "name": "Tiberias",
        "country": "Israel",
        "province": "Northern District",
        "population": 44779,
        "latitude": 32.792205,
        "longitude": 35.531244
    },
    {
        "name": "Rishon LeZiyyon",
        "country": "Israel",
        "province": "Central District",
        "population": 258535,
        "latitude": 31.971017,
        "longitude": 34.789387
    },
    {
        "name": "Rehovot",
        "country": "Israel",
        "province": "Central District",
        "population": 149392,
        "latitude": 31.894206,
        "longitude": 34.811988
    },
    {
        "name": "Petah Tikva",
        "country": "Israel",
        "province": "Central District",
        "population": 253529,
        "latitude": 32.087075,
        "longitude": 34.887469
    },
    {
        "name": "Lod",
        "country": "Israel",
        "province": "Central District",
        "population": 77223,
        "latitude": 31.946702,
        "longitude": 34.890297
    },
    {
        "name": "Kfar Saba",
        "country": "Israel",
        "province": "Central District",
        "population": 110456,
        "latitude": 32.175,
        "longitude": 34.9069444
    },
    {
        "name": "Herzliya",
        "country": "Israel",
        "province": "Tel Aviv",
        "population": 97470,
        "latitude": 32.166267,
        "longitude": 34.825356
    },
    {
        "name": "Hadera",
        "country": "Israel",
        "province": "Haifa",
        "population": 97335,
        "latitude": 32.441916,
        "longitude": 34.903903
    },
    {
        "name": "Eilat",
        "country": "Israel",
        "province": "Southern District",
        "population": 52299,
        "latitude": 29.558049,
        "longitude": 34.948212
    },
    {
        "name": "Bet Shemesh",
        "country": "Israel",
        "province": "Jerusalem",
        "population": 124957,
        "latitude": 31.73072,
        "longitude": 34.99293
    },
    {
        "name": "Bat Yam",
        "country": "Israel",
        "province": "Tel Aviv",
        "population": 129012,
        "latitude": 32.023791,
        "longitude": 34.751848
    },
    {
        "name": "Ashquelon",
        "country": "Israel",
        "province": "Southern District",
        "population": 144073,
        "latitude": 31.669256,
        "longitude": 34.57149
    },
    {
        "name": "Modiin",
        "country": "Israel",
        "province": "Central District",
        "population": 93277,
        "latitude": 31.893854,
        "longitude": 35.015037
    },
    {
        "name": "Safed",
        "country": "Israel",
        "province": "Northern District",
        "population": 36094,
        "latitude": 32.964648,
        "longitude": 35.495997
    },
    {
        "name": "Yavné",
        "country": "Israel",
        "province": "Central District",
        "population": 47585,
        "latitude": 31.87808,
        "longitude": 34.73983
    },
    {
        "name": "Umm el Faḥm",
        "country": "Israel",
        "province": "Haifa",
        "population": 56109,
        "latitude": 32.517246,
        "longitude": 35.15349
    },
    {
        "name": "Ramat HaSharon",
        "country": "Israel",
        "province": "Tel Aviv",
        "population": 47245,
        "latitude": 32.146131,
        "longitude": 34.839395
    },
    {
        "name": "Raanana",
        "country": "Israel",
        "province": "Central District",
        "population": 75421,
        "latitude": 32.183601,
        "longitude": 34.87386
    },
    {
        "name": "Kiryat Gat",
        "country": "Israel",
        "province": "Southern District",
        "population": 61817,
        "latitude": 31.609981,
        "longitude": 34.764224
    },
    {
        "name": "Kiryat Ata",
        "country": "Israel",
        "province": "Haifa",
        "population": 59030,
        "latitude": 32.811493,
        "longitude": 35.113229
    },
    {
        "name": "Or Yehuda",
        "country": "Israel",
        "province": "Tel Aviv",
        "population": 36813,
        "latitude": 32.029234,
        "longitude": 34.857878
    },
    {
        "name": "Ness Ziona",
        "country": "Israel",
        "province": "Central District",
        "population": 50351,
        "latitude": 31.9293282929169,
        "longitude": 34.7986793518066
    },
    {
        "name": "Naẕerat ‘Illit",
        "country": "Israel",
        "province": "Northern District",
        "population": 43556,
        "latitude": 32.708162,
        "longitude": 35.324685
    },
    {
        "name": "Nahariya",
        "country": "Israel",
        "province": "Northern District",
        "population": 58096,
        "latitude": 33.00892,
        "longitude": 35.09814
    },
    {
        "name": "Hod HaSharon",
        "country": "Israel",
        "province": "Central District",
        "population": 63175,
        "latitude": 32.159344,
        "longitude": 34.893204
    },
    {
        "name": "Giv‘atayim",
        "country": "Israel",
        "province": "Tel Aviv",
        "population": 60644,
        "latitude": 32.072246,
        "longitude": 34.81253
    },
    {
        "name": "Eṭ Ṭaiyiba",
        "country": "Israel",
        "province": "Central District",
        "population": 43957,
        "latitude": 32.266161,
        "longitude": 35.008932
    },
    {
        "name": "Dimona",
        "country": "Israel",
        "province": "Southern District",
        "population": 36192,
        "latitude": 31.070792,
        "longitude": 35.032686
    },
    {
        "name": "Bnei Brak",
        "country": "Israel",
        "province": "Tel Aviv",
        "population": 214444,
        "latitude": 32.080741,
        "longitude": 34.833803
    },
    {
        "name": "Acre",
        "country": "Israel",
        "province": "Northern District",
        "population": 49380,
        "latitude": 32.92814,
        "longitude": 35.076466
    },
    {
        "name": "West Jerusalem",
        "country": "Israel",
        "province": "Jerusalem",
        "population": 400000,
        "latitude": 31.7819870380384,
        "longitude": 35.2196091413498
    },
    {
        "name": "Zikhron Ya‘aqov",
        "country": "Israel",
        "province": "Haifa",
        "population": 23206,
        "latitude": 32.566451,
        "longitude": 34.956276
    },
    {
        "name": "Yirkā",
        "country": "Israel",
        "province": "Northern District",
        "population": 17171,
        "latitude": 32.954355,
        "longitude": 35.211969
    },
    {
        "name": "Yehud",
        "country": "Israel",
        "province": "Central District",
        "population": 25600,
        "latitude": 32.033166,
        "longitude": 34.890912
    },
    {
        "name": "Yavne’el",
        "country": "Israel",
        "province": "Northern District",
        "population": 4460,
        "latitude": 32.706192,
        "longitude": 35.504355
    },
    {
        "name": "Yāfā",
        "country": "Israel",
        "province": "Northern District",
        "population": 18905,
        "latitude": 32.689231,
        "longitude": 35.278322
    },
    {
        "name": "Tirat Carmel",
        "country": "Israel",
        "province": "Haifa",
        "population": 27822,
        "latitude": 32.760211,
        "longitude": 34.971831
    },
    {
        "name": "Ma'alot-Tarshiha",
        "country": "Israel",
        "province": "Northern District",
        "population": 21836,
        "latitude": 33.0166667,
        "longitude": 35.2666667
    },
    {
        "name": "Tamra",
        "country": "Israel",
        "province": "Northern District",
        "population": 25917,
        "latitude": 32.853012,
        "longitude": 35.198701
    },
    {
        "name": "Shefa-'Amr",
        "country": "Israel",
        "province": "Northern District",
        "population": 42137,
        "latitude": 32.805828,
        "longitude": 35.168947
    },
    {
        "name": "Sderot",
        "country": "Israel",
        "province": "Southern District",
        "population": 27635,
        "latitude": 31.524995,
        "longitude": 34.59693
    },
    {
        "name": "Sakhnīn",
        "country": "Israel",
        "province": "Northern District",
        "population": 31702,
        "latitude": 32.864223,
        "longitude": 35.297068
    },
    {
        "name": "Rosh HaAyin",
        "country": "Israel",
        "province": "Central District",
        "population": 72881,
        "latitude": 32.095556,
        "longitude": 34.956642
    },
    {
        "name": "Qiryat Yam",
        "country": "Israel",
        "province": "Haifa",
        "population": 39897,
        "latitude": 32.849657,
        "longitude": 35.069727
    },
    {
        "name": "Kiryat Shmona",
        "country": "Israel",
        "province": "Northern District",
        "population": 22512,
        "latitude": 33.207334,
        "longitude": 35.572118
    },
    {
        "name": "Kiryat Motzkin",
        "country": "Israel",
        "province": "Haifa",
        "population": 43303,
        "latitude": 32.837056,
        "longitude": 35.077598
    },
    {
        "name": "Qiryat Mal'akhi",
        "country": "Israel",
        "province": "Southern District",
        "population": 25362,
        "latitude": 31.728876,
        "longitude": 34.746325
    },
    {
        "name": "Kiryat Bialik",
        "country": "Israel",
        "province": "Haifa",
        "population": 43955,
        "latitude": 32.8275,
        "longitude": 35.0858333
    },
    {
        "name": "Ofakim",
        "country": "Israel",
        "province": "Southern District",
        "population": 34666,
        "latitude": 31.314099,
        "longitude": 34.620254
    },
    {
        "name": "Netivot",
        "country": "Israel",
        "province": "Southern District",
        "population": 43732,
        "latitude": 31.423048,
        "longitude": 34.589105
    },
    {
        "name": "Nesher",
        "country": "Israel",
        "province": "Haifa",
        "population": 24148,
        "latitude": 32.766223,
        "longitude": 35.04425
    },
    {
        "name": "Migdal HaEmeq",
        "country": "Israel",
        "province": "Northern District",
        "population": 25675,
        "latitude": 32.675966,
        "longitude": 35.239859
    },
    {
        "name": "Majd el Kurūm",
        "country": "Israel",
        "province": "Northern District",
        "population": 15455,
        "latitude": 32.921862,
        "longitude": 35.255676
    },
    {
        "name": "Maghār",
        "country": "Israel",
        "province": "Northern District",
        "population": 22957,
        "latitude": 32.889843,
        "longitude": 35.407034
    },
    {
        "name": "Karmiel",
        "country": "Israel",
        "province": "Northern District",
        "population": 46252,
        "latitude": 32.917083,
        "longitude": 35.305008
    },
    {
        "name": "Kafr Qāsim",
        "country": "Israel",
        "province": "Central District",
        "population": 23823,
        "latitude": 32.114059,
        "longitude": 34.976244
    },
    {
        "name": "Jaljūlya",
        "country": "Israel",
        "province": "Central District",
        "population": 10148,
        "latitude": 32.154698,
        "longitude": 34.953723
    },
    {
        "name": "‘Isfiyā",
        "country": "Israel",
        "province": "Haifa",
        "population": 12503,
        "latitude": 32.718359,
        "longitude": 35.065091
    },
    {
        "name": "Giv‘at Shmuel",
        "country": "Israel",
        "province": "Tel Aviv",
        "population": 26578,
        "latitude": 32.078167,
        "longitude": 34.84858
    },
    {
        "name": "Gedera",
        "country": "Israel",
        "province": "Central District",
        "population": 30798,
        "latitude": 31.814561,
        "longitude": 34.779979
    },
    {
        "name": "Tirah",
        "country": "Israel",
        "province": "Central District",
        "population": 26552,
        "latitude": 32.234097,
        "longitude": 34.950232
    },
    {
        "name": "El Fureidīs",
        "country": "Israel",
        "province": "Haifa",
        "population": 13247,
        "latitude": 32.598122,
        "longitude": 34.951533
    },
    {
        "name": "Daliyat al Karmel",
        "country": "Israel",
        "province": "Haifa",
        "population": 25000,
        "latitude": 32.693827,
        "longitude": 35.046863
    },
    {
        "name": "Binyamina",
        "country": "Israel",
        "province": "Haifa",
        "population": 15847,
        "latitude": 32.523198,
        "longitude": 34.944994
    },
    {
        "name": "Bet Shean",
        "country": "Israel",
        "province": "Northern District",
        "population": 16800,
        "latitude": 32.497283,
        "longitude": 35.496324
    },
    {
        "name": "Bāqa el Gharbīya",
        "country": "Israel",
        "province": "Haifa",
        "population": 29950,
        "latitude": 32.418065,
        "longitude": 35.043119
    },
    {
        "name": "Arad",
        "country": "Israel",
        "province": "Southern District",
        "population": 27967,
        "latitude": 31.258821,
        "longitude": 35.212823
    },
    {
        "name": "Afula",
        "country": "Israel",
        "province": "Northern District",
        "population": 44930,
        "latitude": 32.609067,
        "longitude": 35.289202
    },
    {
        "name": "Abu Ghosh",
        "country": "Israel",
        "province": "Jerusalem",
        "population": 7698,
        "latitude": 31.805925,
        "longitude": 35.1093
    },
    {
        "name": "Majdal Shams",
        "country": "Israel",
        "province": "Northern District",
        "population": 11180,
        "latitude": 33.27029,
        "longitude": 35.771604
    },
    {
        "name": "Rahat",
        "country": "Israel",
        "province": "Southern District",
        "population": 19586,
        "latitude": 31.39547,
        "longitude": 34.756989
    },
    {
        "name": "Modiin Ilit",
        "country": "Israel",
        "province": "Jerusalem",
        "population": 76374,
        "latitude": 31.932205609521006,
        "longitude": 35.04415512084961
    },
    {
        "name": "Ariel",
        "country": "Israel",
        "province": "Judea and Samaria Area",
        "population": 20540,
        "latitude": 32.10649727016813,
        "longitude": 35.18448829650879
    },
    {
        "name": "Be’er Toviyya",
        "country": "Israel",
        "province": "Southern District",
        "population": 1289,
        "latitude": 31.73501,
        "longitude": 34.723887
    },
    {
        "name": "Tsippori",
        "country": "Israel",
        "province": "Northern District",
        "population": 972,
        "latitude": 32.745352,
        "longitude": 35.280028
    },
    {
        "name": "Zetan",
        "country": "Israel",
        "province": "Central District",
        "population": 1064,
        "latitude": 31.975343,
        "longitude": 34.889278
    },
    {
        "name": "Tselafon",
        "country": "Israel",
        "province": "Jerusalem",
        "population": 1044,
        "latitude": 31.804616,
        "longitude": 34.932105
    },
    {
        "name": "Zekharya",
        "country": "Israel",
        "province": "Jerusalem",
        "population": 1124,
        "latitude": 31.709267,
        "longitude": 34.944885
    },
    {
        "name": "Yoqne‘am ‘Illit",
        "country": "Israel",
        "province": "Northern District",
        "population": 23796,
        "latitude": 32.653848,
        "longitude": 35.103822
    },
    {
        "name": "Yinnon",
        "country": "Israel",
        "province": "Southern District",
        "population": 1197,
        "latitude": 31.74199,
        "longitude": 34.782295
    },
    {
        "name": "Yesud HaMa‘ala",
        "country": "Israel",
        "province": "Northern District",
        "population": 1730,
        "latitude": 33.059204,
        "longitude": 35.610327
    },
    {
        "name": "Yeruham",
        "country": "Israel",
        "province": "Southern District",
        "population": 10294,
        "latitude": 30.988223,
        "longitude": 34.931758
    },
    {
        "name": "Yarẖiv",
        "country": "Israel",
        "province": "Central District",
        "population": 1082,
        "latitude": 32.152392,
        "longitude": 34.967899
    },
    {
        "name": "Yad Binyamin",
        "country": "Israel",
        "province": "Central District",
        "population": 4268,
        "latitude": 31.797403,
        "longitude": 34.820834
    },
    {
        "name": "‘Uzeir",
        "country": "Israel",
        "province": "Northern District",
        "population": 3276,
        "latitude": 32.792124,
        "longitude": 35.329841
    },
    {
        "name": "Tūbā Zangarīya",
        "country": "Israel",
        "province": "Northern District",
        "population": 6776,
        "latitude": 32.966064,
        "longitude": 35.593037
    },
    {
        "name": "Tirat Yehuda",
        "country": "Israel",
        "province": "Central District",
        "population": 1201,
        "latitude": 32.01392,
        "longitude": 34.9342
    },
    {
        "name": "Tel Yitsẖaq",
        "country": "Israel",
        "province": "Central District",
        "population": 1021,
        "latitude": 32.253273,
        "longitude": 34.870341
    },
    {
        "name": "Tel Mond",
        "country": "Israel",
        "province": "Central District",
        "population": 13144,
        "latitude": 32.249947,
        "longitude": 34.917368
    },
    {
        "name": "Tel ‘Adashim",
        "country": "Israel",
        "province": "Northern District",
        "population": 1504,
        "latitude": 32.656267,
        "longitude": 35.302164
    },
    {
        "name": "Sūlam",
        "country": "Israel",
        "province": "Northern District",
        "population": 2609,
        "latitude": 32.606057,
        "longitude": 35.334078
    },
    {
        "name": "Sitriyya",
        "country": "Israel",
        "province": "Central District",
        "population": 1102,
        "latitude": 31.892378,
        "longitude": 34.843798
    },
    {
        "name": "Shoresh",
        "country": "Israel",
        "province": "Jerusalem",
        "population": 1247,
        "latitude": 31.79711,
        "longitude": 35.065251
    },
    {
        "name": "Shomera",
        "country": "Israel",
        "province": "Northern District",
        "population": 353,
        "latitude": 33.082746,
        "longitude": 35.283781
    },
    {
        "name": "Shtulim",
        "country": "Israel",
        "province": "Southern District",
        "population": 2116,
        "latitude": 31.773543,
        "longitude": 34.683879
    },
    {
        "name": "Shavei Tzion",
        "country": "Israel",
        "province": "Northern District",
        "population": 1205,
        "latitude": 32.980981,
        "longitude": 35.083306
    },
    {
        "name": "Bet Yitsẖaq Sha’ar H̱efer",
        "country": "Israel",
        "province": "Central District",
        "population": 2079,
        "latitude": 32.334618,
        "longitude": 34.890519
    },
    {
        "name": "Sha’ar Efrayim",
        "country": "Israel",
        "province": "Central District",
        "population": 1907,
        "latitude": 32.290668,
        "longitude": 34.998405
    },
    {
        "name": "Sha‘av",
        "country": "Israel",
        "province": "Northern District",
        "population": 6941,
        "latitude": 32.889429,
        "longitude": 35.240928
    },
    {
        "name": "Sdot Yam",
        "country": "Israel",
        "province": "Haifa",
        "population": 1096,
        "latitude": 32.492125,
        "longitude": 34.892243
    },
    {
        "name": "Sde Ya‘aqov",
        "country": "Israel",
        "province": "Northern District",
        "population": 1103,
        "latitude": 32.69,
        "longitude": 35.13861
    },
    {
        "name": "Sde Neẖemya",
        "country": "Israel",
        "province": "Northern District",
        "population": 1235,
        "latitude": 33.187557,
        "longitude": 35.622351
    },
    {
        "name": "Ṣandala",
        "country": "Israel",
        "province": "Northern District",
        "population": 1644,
        "latitude": 32.522337,
        "longitude": 35.323251
    },
    {
        "name": "Sājūr",
        "country": "Israel",
        "province": "Northern District",
        "population": 4270,
        "latitude": 32.942661,
        "longitude": 35.341358
    },
    {
        "name": "Rummāna",
        "country": "Israel",
        "province": "Northern District",
        "population": 1212,
        "latitude": 32.78783,
        "longitude": 35.310909
    },
    {
        "name": "Rosh Pinna",
        "country": "Israel",
        "province": "Northern District",
        "population": 3148,
        "latitude": 32.968938,
        "longitude": 35.542584
    },
    {
        "name": "Rinnatya",
        "country": "Israel",
        "province": "Central District",
        "population": 1195,
        "latitude": 32.044278,
        "longitude": 34.927599
    },
    {
        "name": "Riẖaniya",
        "country": "Israel",
        "province": "Northern District",
        "population": 1195,
        "latitude": 33.049041,
        "longitude": 35.48815
    },
    {
        "name": "Revivim",
        "country": "Israel",
        "province": "Southern District",
        "population": 1075,
        "latitude": 31.043954,
        "longitude": 34.721835
    },
    {
        "name": "Rekhasim",
        "country": "Israel",
        "province": "Haifa",
        "population": 12668,
        "latitude": 32.749067,
        "longitude": 35.099012
    },
    {
        "name": "Regba",
        "country": "Israel",
        "province": "Northern District",
        "population": 1096,
        "latitude": 32.977213,
        "longitude": 35.09864
    },
    {
        "name": "Ramat Yishai",
        "country": "Israel",
        "province": "Northern District",
        "population": 7785,
        "latitude": 32.704444,
        "longitude": 35.170698
    },
    {
        "name": "Ramat HaKovésh",
        "country": "Israel",
        "province": "Central District",
        "population": 1130,
        "latitude": 32.217678,
        "longitude": 34.938151
    },
    {
        "name": "Ramat David",
        "country": "Israel",
        "province": "Northern District",
        "population": 521,
        "latitude": 32.678447,
        "longitude": 35.203245
    },
    {
        "name": "Rama",
        "country": "Israel",
        "province": "Northern District",
        "population": 7728,
        "latitude": 32.938442,
        "longitude": 35.367502
    },
    {
        "name": "Qiryat Ye‘arim",
        "country": "Israel",
        "province": "Jerusalem",
        "population": 6128,
        "latitude": 31.811443,
        "longitude": 35.105713
    },
    {
        "name": "Kiryat Tiv'on",
        "country": "Israel",
        "province": "Haifa",
        "population": 18130,
        "latitude": 32.716181,
        "longitude": 35.124939
    },
    {
        "name": "Qidron",
        "country": "Israel",
        "province": "Central District",
        "population": 1607,
        "latitude": 31.814051,
        "longitude": 34.797137
    },
    {
        "name": "Qalansawe",
        "country": "Israel",
        "province": "Central District",
        "population": 16898,
        "latitude": 32.284929,
        "longitude": 34.981064
    },
    {
        "name": "Poria Illit",
        "country": "Israel",
        "province": "Northern District",
        "population": 1162,
        "latitude": 32.731897,
        "longitude": 35.546354
    },
    {
        "name": "Poria – Neve Oved",
        "country": "Israel",
        "province": "Northern District",
        "population": 1234,
        "latitude": 32.743108,
        "longitude": 35.538159
    },
    {
        "name": "Pardesiyya",
        "country": "Israel",
        "province": "Central District",
        "population": 5930,
        "latitude": 32.305774,
        "longitude": 34.909111
    },
    {
        "name": "Palmaẖim",
        "country": "Israel",
        "province": "Central District",
        "population": -1,
        "latitude": 31.933344,
        "longitude": 34.705961
    },
    {
        "name": "Or Akiva",
        "country": "Israel",
        "province": "Haifa",
        "population": 18972,
        "latitude": 32.506402,
        "longitude": 34.920868
    },
    {
        "name": "Ora",
        "country": "Israel",
        "province": "Jerusalem",
        "population": 1314,
        "latitude": 31.755189,
        "longitude": 35.156134
    },
    {
        "name": "‘Omer",
        "country": "Israel",
        "province": "Southern District",
        "population": 7530,
        "latitude": 31.264891,
        "longitude": 34.847665
    },
    {
        "name": "‘Olesh",
        "country": "Israel",
        "province": "Central District",
        "population": 1131,
        "latitude": 32.331993,
        "longitude": 34.985577
    },
    {
        "name": "Nordiyya",
        "country": "Israel",
        "province": "Central District",
        "population": 1950,
        "latitude": 32.314697,
        "longitude": 34.89617
    },
    {
        "name": "Niẕẕané ‘Oz",
        "country": "Israel",
        "province": "Central District",
        "population": 1115,
        "latitude": 32.306004,
        "longitude": 35.003736
    },
    {
        "name": "Nir Gallim",
        "country": "Israel",
        "province": "Southern District",
        "population": 1396,
        "latitude": 31.825417,
        "longitude": 34.682816
    },
    {
        "name": "Nevve Yaraq",
        "country": "Israel",
        "province": "Central District",
        "population": 1348,
        "latitude": 32.132469,
        "longitude": 34.924471
    },
    {
        "name": "Nevve Yamin",
        "country": "Israel",
        "province": "Central District",
        "population": 1155,
        "latitude": 32.172174,
        "longitude": 34.939303
    },
    {
        "name": "Nein",
        "country": "Israel",
        "province": "Northern District",
        "population": 1876,
        "latitude": 32.630634,
        "longitude": 35.348847
    },
    {
        "name": "Nā‘ūra",
        "country": "Israel",
        "province": "Northern District",
        "population": 2324,
        "latitude": 32.614033,
        "longitude": 35.391679
    },
    {
        "name": "Naḥf",
        "country": "Israel",
        "province": "Northern District",
        "population": 13113,
        "latitude": 32.934438,
        "longitude": 35.316787
    },
    {
        "name": "Muqeibila",
        "country": "Israel",
        "province": "Northern District",
        "population": 4081,
        "latitude": 32.514243,
        "longitude": 35.29617
    },
    {
        "name": "Motsa ‘Illit",
        "country": "Israel",
        "province": "Jerusalem",
        "population": 1212,
        "latitude": 31.793572,
        "longitude": 35.157755
    },
    {
        "name": "Mitzpe Ramon",
        "country": "Israel",
        "province": "Southern District",
        "population": 5211,
        "latitude": 30.6094444,
        "longitude": 34.8011111
    },
    {
        "name": "Mevo Beiter",
        "country": "Israel",
        "province": "Jerusalem",
        "population": 965,
        "latitude": 31.721767,
        "longitude": 35.106691
    },
    {
        "name": "Mevaseret Zion",
        "country": "Israel",
        "province": "Jerusalem",
        "population": 24052,
        "latitude": 31.801864,
        "longitude": 35.150724
    },
    {
        "name": "Metulla",
        "country": "Israel",
        "province": "Northern District",
        "population": 1615,
        "latitude": 33.279182,
        "longitude": 35.579501
    },
    {
        "name": "Mesillat Tsiyyon",
        "country": "Israel",
        "province": "Jerusalem",
        "population": 1215,
        "latitude": 31.802004,
        "longitude": 35.010946
    },
    {
        "name": "Menaẖemya",
        "country": "Israel",
        "province": "Northern District",
        "population": 1033,
        "latitude": 32.666623,
        "longitude": 35.555001
    },
    {
        "name": "Maẕẕuva",
        "country": "Israel",
        "province": "Northern District",
        "population": 1165,
        "latitude": 33.063753,
        "longitude": 35.157614
    },
    {
        "name": "Matsliaẖ",
        "country": "Israel",
        "province": "Central District",
        "population": 1363,
        "latitude": 31.906692,
        "longitude": 34.871338
    },
    {
        "name": "Mazkeret Batya",
        "country": "Israel",
        "province": "Central District",
        "population": 14837,
        "latitude": 31.853569,
        "longitude": 34.846462
    },
    {
        "name": "Maor",
        "country": "Israel",
        "province": "Haifa",
        "population": 1398,
        "latitude": 32.423064,
        "longitude": 35.005133
    },
    {
        "name": "Midrakh ‘Oz",
        "country": "Israel",
        "province": "Northern District",
        "population": 794,
        "latitude": 32.595172,
        "longitude": 35.159124
    },
    {
        "name": "Ma‘agan Mikha’el",
        "country": "Israel",
        "province": "Haifa",
        "population": 2039,
        "latitude": 32.555491,
        "longitude": 34.916375
    },
    {
        "name": "Li On",
        "country": "Israel",
        "province": "Jerusalem",
        "population": 1082,
        "latitude": 31.677436,
        "longitude": 34.934642
    },
    {
        "name": "Kokhav Michael Sobell",
        "country": "Israel",
        "province": "Southern District",
        "population": 1053,
        "latitude": 31.628038,
        "longitude": 34.669036
    },
    {
        "name": "Meisir",
        "country": "Israel",
        "province": "Haifa",
        "population": 2017,
        "latitude": 32.444445,
        "longitude": 35.04134
    },
    {
        "name": "Kfar Yona",
        "country": "Israel",
        "province": "Central District",
        "population": 24778,
        "latitude": 32.316692,
        "longitude": 34.935073
    },
    {
        "name": "Kefar Vitqin",
        "country": "Israel",
        "province": "Central District",
        "population": 1973,
        "latitude": 32.38036,
        "longitude": 34.87537
    },
    {
        "name": "Kfar Tavor",
        "country": "Israel",
        "province": "Northern District",
        "population": 4311,
        "latitude": 32.686555,
        "longitude": 35.421177
    },
    {
        "name": "Kefar Sirkin",
        "country": "Israel",
        "province": "Central District",
        "population": 1502,
        "latitude": 32.078042,
        "longitude": 34.922613
    },
    {
        "name": "Kfar Rosh HaNiqra",
        "country": "Israel",
        "province": "Northern District",
        "population": 1363,
        "latitude": 33.086071,
        "longitude": 35.113482
    },
    {
        "name": "Kfar H̱ittim",
        "country": "Israel",
        "province": "Northern District",
        "population": 1190,
        "latitude": 32.799613,
        "longitude": 35.502759
    },
    {
        "name": "Niẕẕan",
        "country": "Israel",
        "province": "Southern District",
        "population": 2461,
        "latitude": 31.738545,
        "longitude": 34.629845
    },
    {
        "name": "Qiryat ‘Eqron",
        "country": "Israel",
        "province": "Central District",
        "population": 11001,
        "latitude": 31.861195,
        "longitude": 34.822748
    },
    {
        "name": "Kfar Ahim",
        "country": "Israel",
        "province": "Southern District",
        "population": 877,
        "latitude": 31.744803,
        "longitude": 34.756812
    },
    {
        "name": "Kaukab Abū el Hījā",
        "country": "Israel",
        "province": "Northern District",
        "population": 3589,
        "latitude": 32.831548,
        "longitude": 35.24848
    },
    {
        "name": "Karmiyya",
        "country": "Israel",
        "province": "Southern District",
        "population": -1,
        "latitude": 31.604387,
        "longitude": 34.542596
    },
    {
        "name": "Kfar Yasif",
        "country": "Israel",
        "province": "Northern District",
        "population": 10133,
        "latitude": 32.954512,
        "longitude": 35.162303
    },
    {
        "name": "Kafr Qari‘",
        "country": "Israel",
        "province": "Haifa",
        "population": 19018,
        "latitude": 32.506656,
        "longitude": 35.053915
    },
    {
        "name": "Kafr Mandā",
        "country": "Israel",
        "province": "Northern District",
        "population": 20188,
        "latitude": 32.810335,
        "longitude": 35.26009
    },
    {
        "name": "Kafr Kannā",
        "country": "Israel",
        "province": "Northern District",
        "population": 22751,
        "latitude": 32.7466,
        "longitude": 35.342419
    },
    {
        "name": "Kafr Kammā",
        "country": "Israel",
        "province": "Northern District",
        "population": 3373,
        "latitude": 32.721288,
        "longitude": 35.441217
    },
    {
        "name": "Kafr Barā",
        "country": "Israel",
        "province": "Central District",
        "population": 3678,
        "latitude": 32.131357,
        "longitude": 34.970794
    },
    {
        "name": "Kābūl",
        "country": "Israel",
        "province": "Northern District",
        "population": 14095,
        "latitude": 32.868561,
        "longitude": 35.211713
    },
    {
        "name": "Kabri",
        "country": "Israel",
        "province": "Northern District",
        "population": 1054,
        "latitude": 33.020903,
        "longitude": 35.148346
    },
    {
        "name": "Judeida Makr",
        "country": "Israel",
        "province": "Northern District",
        "population": 21163,
        "latitude": 32.928196,
        "longitude": 35.157054
    },
    {
        "name": "Jisr ez Zarqā",
        "country": "Israel",
        "province": "Haifa",
        "population": 14930,
        "latitude": 32.536845,
        "longitude": 34.912703
    },
    {
        "name": "Jīsh",
        "country": "Israel",
        "province": "Northern District",
        "population": 3105,
        "latitude": 33.022157,
        "longitude": 35.446941
    },
    {
        "name": "Jatt",
        "country": "Israel",
        "province": "Haifa",
        "population": 12100,
        "latitude": 32.398428,
        "longitude": 35.039328
    },
    {
        "name": "‘Ilūṭ",
        "country": "Israel",
        "province": "Northern District",
        "population": 8356,
        "latitude": 32.716389,
        "longitude": 35.259444
    },
    {
        "name": "Ilaniyya",
        "country": "Israel",
        "province": "Northern District",
        "population": -1,
        "latitude": 32.754667,
        "longitude": 35.408371
    },
    {
        "name": "Iksāl",
        "country": "Israel",
        "province": "Northern District",
        "population": 14784,
        "latitude": 32.68164,
        "longitude": 35.323646
    },
    {
        "name": "I‘billīn",
        "country": "Israel",
        "province": "Northern District",
        "population": 13305,
        "latitude": 32.822334,
        "longitude": 35.192712
    },
    {
        "name": "Ḥurfeish",
        "country": "Israel",
        "province": "Northern District",
        "population": 6410,
        "latitude": 33.017108,
        "longitude": 35.348352
    },
    {
        "name": "Masada",
        "country": "Israel",
        "province": "Southern District",
        "population": -1,
        "latitude": 31.315606,
        "longitude": 35.352752
    },
    {
        "name": "HaZore‘im",
        "country": "Israel",
        "province": "Northern District",
        "population": 1060,
        "latitude": 32.747073,
        "longitude": 35.502741
    },
    {
        "name": "H̱atsor HaGelilit",
        "country": "Israel",
        "province": "Northern District",
        "population": 9272,
        "latitude": 32.980486,
        "longitude": 35.542425
    },
    {
        "name": "Giv‘at H̱ayyim Iẖud",
        "country": "Israel",
        "province": "Central District",
        "population": 1176,
        "latitude": 32.397747,
        "longitude": 34.932131
    },
    {
        "name": "Gimzo",
        "country": "Israel",
        "province": "Central District",
        "population": 1206,
        "latitude": 31.928456,
        "longitude": 34.941543
    },
    {
        "name": "Geva‘ Karmel",
        "country": "Israel",
        "province": "Haifa",
        "population": 1200,
        "latitude": 32.660024,
        "longitude": 34.948742
    },
    {
        "name": "Gath",
        "country": "Israel",
        "province": "Southern District",
        "population": -1,
        "latitude": 31.627482,
        "longitude": 34.793975
    },
    {
        "name": "Gan Yavne",
        "country": "Israel",
        "province": "Central District",
        "population": 23869,
        "latitude": 31.787373,
        "longitude": 34.706592
    },
    {
        "name": "Ganei Tikva",
        "country": "Israel",
        "province": "Central District",
        "population": 20398,
        "latitude": 32.05971,
        "longitude": 34.873202
    },
    {
        "name": "Fassūta",
        "country": "Israel",
        "province": "Northern District",
        "population": 3172,
        "latitude": 33.048952,
        "longitude": 35.308935
    },
    {
        "name": "Even Yehuda",
        "country": "Israel",
        "province": "Central District",
        "population": 13826,
        "latitude": 32.269593,
        "longitude": 34.887592
    },
    {
        "name": "Taiyiba",
        "country": "Israel",
        "province": "Northern District",
        "population": 1843,
        "latitude": 32.604153,
        "longitude": 35.444835
    },
    {
        "name": "Esh Sheikh Dannūn",
        "country": "Israel",
        "province": "Northern District",
        "population": 2887,
        "latitude": 32.994105,
        "longitude": 35.14805
    },
    {
        "name": "Er Reina",
        "country": "Israel",
        "province": "Northern District",
        "population": 15621,
        "latitude": 32.723388,
        "longitude": 35.31622
    },
    {
        "name": "‘En Ya‘aqov",
        "country": "Israel",
        "province": "Northern District",
        "population": 1137,
        "latitude": 33.009766,
        "longitude": 35.229821
    },
    {
        "name": "‘En Ayyala",
        "country": "Israel",
        "province": "Haifa",
        "population": 1150,
        "latitude": 32.628987,
        "longitude": 34.944833
    },
    {
        "name": "El Mazra‘a",
        "country": "Israel",
        "province": "Northern District",
        "population": 3900,
        "latitude": 32.983383,
        "longitude": 35.09837
    },
    {
        "name": "‘Ein Rāfa",
        "country": "Israel",
        "province": "Jerusalem",
        "population": 1250,
        "latitude": 31.790202,
        "longitude": 35.115283
    },
    {
        "name": "‘Ein Māhil",
        "country": "Israel",
        "province": "Northern District",
        "population": 13335,
        "latitude": 32.723035,
        "longitude": 35.353034
    },
    {
        "name": "‘Eilabun",
        "country": "Israel",
        "province": "Northern District",
        "population": 5752,
        "latitude": 32.836935,
        "longitude": 35.400292
    },
    {
        "name": "Deir Ḥannā",
        "country": "Israel",
        "province": "Northern District",
        "population": 10339,
        "latitude": 32.861963,
        "longitude": 35.363652
    },
    {
        "name": "Deir el Asad",
        "country": "Israel",
        "province": "Northern District",
        "population": 12514,
        "latitude": 32.935982,
        "longitude": 35.269976
    },
    {
        "name": "Deganya Alef",
        "country": "Israel",
        "province": "Northern District",
        "population": 528,
        "latitude": 32.707984,
        "longitude": 35.57487
    },
    {
        "name": "Dabbūrīya",
        "country": "Israel",
        "province": "Northern District",
        "population": 8305,
        "latitude": 32.692562,
        "longitude": 35.371229
    },
    {
        "name": "Burgata",
        "country": "Israel",
        "province": "Central District",
        "population": 1136,
        "latitude": 32.326352,
        "longitude": 34.962356
    },
    {
        "name": "Buqei‘a",
        "country": "Israel",
        "province": "Northern District",
        "population": 5893,
        "latitude": 32.977465,
        "longitude": 35.333448
    },
    {
        "name": "Biẕẕaron",
        "country": "Israel",
        "province": "Southern District",
        "population": 1258,
        "latitude": 31.794464,
        "longitude": 34.728062
    },
    {
        "name": "Biriyya",
        "country": "Israel",
        "province": "Northern District",
        "population": 839,
        "latitude": 32.978319,
        "longitude": 35.499727
    },
    {
        "name": "Bi’na",
        "country": "Israel",
        "province": "Northern District",
        "population": 8381,
        "latitude": 32.930657,
        "longitude": 35.271574
    },
    {
        "name": "Bet Yehoshua‘",
        "country": "Israel",
        "province": "Central District",
        "population": 1046,
        "latitude": 32.25942,
        "longitude": 34.864141
    },
    {
        "name": "Bet Qama",
        "country": "Israel",
        "province": "Southern District",
        "population": 1405,
        "latitude": 31.447494,
        "longitude": 34.762347
    },
    {
        "name": "Bet H̱ilqiyya",
        "country": "Israel",
        "province": "Central District",
        "population": 1248,
        "latitude": 31.792813,
        "longitude": 34.810478
    },
    {
        "name": "Bet HaShitta",
        "country": "Israel",
        "province": "Northern District",
        "population": 1263,
        "latitude": 32.551311,
        "longitude": 35.438737
    },
    {
        "name": "Bet Guvrin",
        "country": "Israel",
        "province": "Southern District",
        "population": 1016,
        "latitude": 31.612936,
        "longitude": 34.89571
    },
    {
        "name": "Bet ‘Ezra",
        "country": "Israel",
        "province": "Southern District",
        "population": 1116,
        "latitude": 31.736056,
        "longitude": 34.655944
    },
    {
        "name": "Bet El‘azari",
        "country": "Israel",
        "province": "Central District",
        "population": 6042,
        "latitude": 31.84429,
        "longitude": 34.803677
    },
    {
        "name": "Bet Dagan",
        "country": "Israel",
        "province": "Central District",
        "population": 7099,
        "latitude": 32.001912,
        "longitude": 34.829772
    },
    {
        "name": "Bet ‘Arif",
        "country": "Israel",
        "province": "Central District",
        "population": 1174,
        "latitude": 31.996224,
        "longitude": 34.934587
    },
    {
        "name": "Ben Zakkay",
        "country": "Israel",
        "province": "Central District",
        "population": 1132,
        "latitude": 31.856125,
        "longitude": 34.727472
    },
    {
        "name": "Bne Dror",
        "country": "Israel",
        "province": "Central District",
        "population": 1171,
        "latitude": 32.261504,
        "longitude": 34.901961
    },
    {
        "name": "Moledet",
        "country": "Israel",
        "province": "Northern District",
        "population": 1068,
        "latitude": 32.586129,
        "longitude": 35.442007
    },
    {
        "name": "Beit Jann",
        "country": "Israel",
        "province": "Northern District",
        "population": 12001,
        "latitude": 32.964638,
        "longitude": 35.381522
    },
    {
        "name": "Be’er Ya‘aqov",
        "country": "Israel",
        "province": "Central District",
        "population": 27768,
        "latitude": 31.938642,
        "longitude": 34.837492
    },
    {
        "name": "Be’erotayim",
        "country": "Israel",
        "province": "Central District",
        "population": 1143,
        "latitude": 32.321109,
        "longitude": 34.983237
    },
    {
        "name": "Batsra",
        "country": "Israel",
        "province": "Central District",
        "population": 1213,
        "latitude": 32.214116,
        "longitude": 34.876759
    },
    {
        "name": "Basmat Ṭab‘ūn",
        "country": "Israel",
        "province": "Northern District",
        "population": 7916,
        "latitude": 32.738979,
        "longitude": 35.157159
    },
    {
        "name": "Azor",
        "country": "Israel",
        "province": "Tel Aviv",
        "population": 12957,
        "latitude": 32.024297,
        "longitude": 34.806316
    },
    {
        "name": "Atlit",
        "country": "Israel",
        "province": "Haifa",
        "population": 8875,
        "latitude": 32.688889,
        "longitude": 34.942362
    },
    {
        "name": "‘Arugot",
        "country": "Israel",
        "province": "Southern District",
        "population": 1147,
        "latitude": 31.735027,
        "longitude": 34.770162
    },
    {
        "name": "‘Ar‘ara",
        "country": "Israel",
        "province": "Haifa",
        "population": 24904,
        "latitude": 32.495535,
        "longitude": 35.094108
    },
    {
        "name": "‘Amminadav",
        "country": "Israel",
        "province": "Jerusalem",
        "population": 1086,
        "latitude": 31.752123,
        "longitude": 35.147335
    },
    {
        "name": "Aẖi‘ezer",
        "country": "Israel",
        "province": "Central District",
        "population": 1906,
        "latitude": 31.981331,
        "longitude": 34.872134
    },
    {
        "name": "Abū Sinān",
        "country": "Israel",
        "province": "Northern District",
        "population": 14099,
        "latitude": 32.958905,
        "longitude": 35.171519
    },
    {
        "name": "El Ghajar",
        "country": "Israel",
        "province": "Northern District",
        "population": 2607,
        "latitude": 33.271154,
        "longitude": 35.62288
    },
    {
        "name": "Tel Qatsir",
        "country": "Israel",
        "province": "Northern District",
        "population": 2878,
        "latitude": 32.705449,
        "longitude": 35.617614
    },
    {
        "name": "‘Ein Qunīya",
        "country": "Israel",
        "province": "Northern District",
        "population": 2098,
        "latitude": 33.237521,
        "longitude": 35.731307
    },
    {
        "name": "Laqiyya",
        "country": "Israel",
        "province": "Southern District",
        "population": 14075,
        "latitude": 31.318503,
        "longitude": 34.858901
    },
    {
        "name": "Segev Shalom",
        "country": "Israel",
        "province": "Southern District",
        "population": 10362,
        "latitude": 31.199178,
        "longitude": 34.839558
    },
    {
        "name": "‘Ein Naqūbā",
        "country": "Israel",
        "province": "Jerusalem",
        "population": 3505,
        "latitude": 31.793664,
        "longitude": 35.120642
    },
    {
        "name": "Kokhav Ya’ir",
        "country": "Israel",
        "province": "Central District",
        "population": 8702,
        "latitude": 32.226232,
        "longitude": 35.002219
    },
    {
        "name": "Arab al-Aramshe",
        "country": "Israel",
        "province": "Northern District",
        "population": 1682,
        "latitude": 33.087808,
        "longitude": 35.228356
    },
    {
        "name": "Caesarea",
        "country": "Israel",
        "province": "Haifa",
        "population": 5343,
        "latitude": 32.5188812806097,
        "longitude": 34.9045944213867
    },
    {
        "name": "Mitspe Aviv",
        "country": "Israel",
        "province": "Northern District",
        "population": 1070,
        "latitude": 32.839069,
        "longitude": 35.199207
    },
    {
        "name": "Zarzir",
        "country": "Israel",
        "province": "Northern District",
        "population": 7942,
        "latitude": 32.72754,
        "longitude": 35.213809
    },
    {
        "name": "‘Ar‘ara BaNegev",
        "country": "Israel",
        "province": "Southern District",
        "population": 17640,
        "latitude": 31.160458,
        "longitude": 35.022739
    },
    {
        "name": "H̱ura",
        "country": "Israel",
        "province": "Southern District",
        "population": 21558,
        "latitude": 31.30084,
        "longitude": 34.936062
    },
    {
        "name": "Kuseifa",
        "country": "Israel",
        "province": "Southern District",
        "population": 21079,
        "latitude": 31.245354,
        "longitude": 35.093102
    },
    {
        "name": "Bar Yohai",
        "country": "Israel",
        "province": "Northern District",
        "population": 1072,
        "latitude": 32.998477,
        "longitude": 35.444189
    },
    {
        "name": "H̱amam",
        "country": "Israel",
        "province": "Northern District",
        "population": 1473,
        "latitude": 32.829545,
        "longitude": 35.491945
    },
    {
        "name": "Tel Sheva‘",
        "country": "Israel",
        "province": "Southern District",
        "population": 20204,
        "latitude": 31.248636,
        "longitude": 34.860066
    },
    {
        "name": "Shoham",
        "country": "Israel",
        "province": "Central District",
        "population": 20740,
        "latitude": 31.998662,
        "longitude": 34.945587
    },
    {
        "name": "El‘ad",
        "country": "Israel",
        "province": "Central District",
        "population": 48763,
        "latitude": 32.049841,
        "longitude": 34.953819
    },
    {
        "name": "Giv'ot Bar",
        "country": "Israel",
        "province": "Southern District",
        "population": 1230,
        "latitude": 31.3565,
        "longitude": 34.75525
    },
    {
        "name": "Kadima Zoran",
        "country": "Israel",
        "province": "Central District",
        "population": 22490,
        "latitude": 32.27782,
        "longitude": 34.9194
    },
    {
        "name": "Yehud-Monosson",
        "country": "Israel",
        "province": "Tel Aviv",
        "population": 29312,
        "latitude": 32.0284,
        "longitude": 34.8796
    },
    {
        "name": "Kiryat Ono",
        "country": "Israel",
        "province": "Tel Aviv",
        "population": 39986,
        "latitude": 32.06124,
        "longitude": 34.85618
    },
    {
        "name": "Maale Iron",
        "country": "Israel",
        "province": "Northern District",
        "population": 14833,
        "latitude": 32.55382,
        "longitude": 35.18412
    },
    {
        "name": "Binyamina-Giv'at Ada",
        "country": "Israel",
        "province": "Haifa",
        "population": 15847,
        "latitude": 32.51824,
        "longitude": 34.95398
    },
    {
        "name": "Lehavim",
        "country": "Israel",
        "province": "Southern District",
        "population": 6415,
        "latitude": 31.3728387981691,
        "longitude": 34.8161888122559
    },
    {
        "name": "Giv`at H̱ananya",
        "country": "Israel",
        "province": "Jerusalem",
        "population": -1,
        "latitude": 31.7666667,
        "longitude": 35.2333333
    },
    {
        "name": "Bet H̱ashmonay",
        "country": "Israel",
        "province": "Central District",
        "population": 2197,
        "latitude": 31.889688,
        "longitude": 34.916734
    },
    {
        "name": "Mazor",
        "country": "Israel",
        "province": "Central District",
        "population": 1331,
        "latitude": 32.051154,
        "longitude": 34.922912
    },
    {
        "name": "Kfar Vradim",
        "country": "Israel",
        "province": "Northern District",
        "population": 5486,
        "latitude": 32.993849,
        "longitude": 35.277933
    },
    {
        "name": "Tsuqim",
        "country": "Israel",
        "province": "Southern District",
        "population": -1,
        "latitude": 30.491723,
        "longitude": 35.166062
    },
    {
        "name": "Hosha‘ya",
        "country": "Israel",
        "province": "Northern District",
        "population": 2051,
        "latitude": 32.758088,
        "longitude": 35.294798
    },
    {
        "name": "Rumat Heib",
        "country": "Israel",
        "province": "Northern District",
        "population": 2047,
        "latitude": 32.778016,
        "longitude": 35.305705
    },
    {
        "name": "Raqqefet",
        "country": "Israel",
        "province": "Northern District",
        "population": 1057,
        "latitude": 32.85744,
        "longitude": 35.261417
    },
    {
        "name": "Misgav Regional Council",
        "country": "Israel",
        "province": "Northern District",
        "population": -1,
        "latitude": 32.860174,
        "longitude": 35.261652
    },
    {
        "name": "Sallama",
        "country": "Israel",
        "province": "Northern District",
        "population": 3340,
        "latitude": 32.89443,
        "longitude": 35.369313
    },
    {
        "name": "Yuvallim",
        "country": "Israel",
        "province": "Northern District",
        "population": 1093,
        "latitude": 32.877563,
        "longitude": 35.270307
    },
    {
        "name": "Kammon",
        "country": "Israel",
        "province": "Northern District",
        "population": 1402,
        "latitude": 32.908907,
        "longitude": 35.360748
    },
    {
        "name": "H̱aspin",
        "country": "Israel",
        "province": "Northern District",
        "population": 2055,
        "latitude": 32.845712,
        "longitude": 35.792947
    },
    {
        "name": "Qatzrin",
        "country": "Israel",
        "province": "Israel",
        "population": 7132,
        "latitude": 32.9919444,
        "longitude": 35.6913889
    },
    {
        "name": "Kokhav HaShaẖar",
        "country": "Israel",
        "province": "Jerusalem",
        "population": 2122,
        "latitude": 31.96028,
        "longitude": 35.34923
    },
    {
        "name": "Gadot",
        "country": "Israel",
        "province": "Northern District",
        "population": 434,
        "latitude": 33.019145,
        "longitude": 35.619426
    },
    {
        "name": "Tsur Moshe",
        "country": "Israel",
        "province": "Central District",
        "population": 3291,
        "latitude": 32.29819,
        "longitude": 34.913129
    },
    {
        "name": "Tsuri’el",
        "country": "Israel",
        "province": "Northern District",
        "population": -1,
        "latitude": 33.006813,
        "longitude": 35.313612
    },
    {
        "name": "Tzova",
        "country": "Israel",
        "province": "Jerusalem",
        "population": 625,
        "latitude": 31.783775,
        "longitude": 35.119263
    },
    {
        "name": "Tsor‘a",
        "country": "Israel",
        "province": "Jerusalem",
        "population": -1,
        "latitude": 31.762421,
        "longitude": 34.969065
    },
    {
        "name": "Tsofit",
        "country": "Israel",
        "province": "Central District",
        "population": 1287,
        "latitude": 32.194232,
        "longitude": 34.919573
    },
    {
        "name": "Tsrufa",
        "country": "Israel",
        "province": "Haifa",
        "population": 1097,
        "latitude": 32.648243,
        "longitude": 34.949905
    },
    {
        "name": "Zar‘it",
        "country": "Israel",
        "province": "Northern District",
        "population": 243,
        "latitude": 33.099546,
        "longitude": 35.288903
    },
    {
        "name": "Zalafa",
        "country": "Israel",
        "province": "Haifa",
        "population": 4639,
        "latitude": 32.548048,
        "longitude": 35.185197
    },
    {
        "name": "Yizre‘el",
        "country": "Israel",
        "province": "Northern District",
        "population": 553,
        "latitude": 32.562891,
        "longitude": 35.320452
    },
    {
        "name": "Yif‘at",
        "country": "Israel",
        "province": "Northern District",
        "population": 1208,
        "latitude": 32.6775,
        "longitude": 35.223333
    },
    {
        "name": "Yashresh",
        "country": "Israel",
        "province": "Central District",
        "population": 1001,
        "latitude": 31.914807,
        "longitude": 34.849112
    },
    {
        "name": "Yamma",
        "country": "Israel",
        "province": "Central District",
        "population": -1,
        "latitude": 32.3689,
        "longitude": 35.031329
    },
    {
        "name": "Yagur",
        "country": "Israel",
        "province": "Haifa",
        "population": 1617,
        "latitude": 32.742097,
        "longitude": 35.077404
    },
    {
        "name": "Yad Rambam",
        "country": "Israel",
        "province": "Central District",
        "population": 1124,
        "latitude": 31.899966,
        "longitude": 34.900267
    },
    {
        "name": "Umm el Quṭūf",
        "country": "Israel",
        "province": "Haifa",
        "population": 1117,
        "latitude": 32.46718,
        "longitude": 35.05811
    },
    {
        "name": "Udim",
        "country": "Israel",
        "province": "Central District",
        "population": 1379,
        "latitude": 32.264963,
        "longitude": 34.845493
    },
    {
        "name": "Tur‘ān",
        "country": "Israel",
        "province": "Northern District",
        "population": -1,
        "latitude": 32.776936,
        "longitude": 35.372439
    },
    {
        "name": "Tirat Tsvi",
        "country": "Israel",
        "province": "Northern District",
        "population": -1,
        "latitude": 32.421243,
        "longitude": 35.528313
    },
    {
        "name": "Timrat",
        "country": "Israel",
        "province": "Northern District",
        "population": 1292,
        "latitude": 32.703016,
        "longitude": 35.223591
    },
    {
        "name": "Tifraẖ",
        "country": "Israel",
        "province": "Southern District",
        "population": 2178,
        "latitude": 31.326574,
        "longitude": 34.676886
    },
    {
        "name": "Tamra",
        "country": "Israel",
        "province": "Northern District",
        "population": -1,
        "latitude": 32.6345,
        "longitude": 35.403325
    },
    {
        "name": "Tal Shaẖar",
        "country": "Israel",
        "province": "Jerusalem",
        "population": 1369,
        "latitude": 31.804687,
        "longitude": 34.901105
    },
    {
        "name": "Talmé Yeẖi’él",
        "country": "Israel",
        "province": "Southern District",
        "population": 997,
        "latitude": 31.752102,
        "longitude": 34.763163
    },
    {
        "name": "Ṣummeil",
        "country": "Israel",
        "province": "Tel Aviv",
        "population": -1,
        "latitude": 32.083333,
        "longitude": 34.783333
    },
    {
        "name": "Kfar H̱oshen",
        "country": "Israel",
        "province": "Northern District",
        "population": 910,
        "latitude": 33.01209,
        "longitude": 35.440492
    },
    {
        "name": "Shelomi",
        "country": "Israel",
        "province": "Northern District",
        "population": 6511,
        "latitude": 33.07216,
        "longitude": 35.144521
    },
    {
        "name": "Shefayim",
        "country": "Israel",
        "province": "Central District",
        "population": 1302,
        "latitude": 32.217428,
        "longitude": 34.824543
    },
    {
        "name": "Sha‘are Avraham",
        "country": "Israel",
        "province": "Southern District",
        "population": -1,
        "latitude": 31.762134,
        "longitude": 34.794456
    },
    {
        "name": "Sha‘alvim",
        "country": "Israel",
        "province": "Central District",
        "population": 1928,
        "latitude": 31.869959,
        "longitude": 34.987219
    },
    {
        "name": "Segev",
        "country": "Israel",
        "province": "Northern District",
        "population": 1121,
        "latitude": 32.866024,
        "longitude": 35.251894
    },
    {
        "name": "Sde Warburg",
        "country": "Israel",
        "province": "Central District",
        "population": 1478,
        "latitude": 32.20361,
        "longitude": 34.90722
    },
    {
        "name": "Sde ‘Uziyyahu",
        "country": "Israel",
        "province": "Southern District",
        "population": 1571,
        "latitude": 31.75,
        "longitude": 34.68333
    },
    {
        "name": "Sdei Hemed",
        "country": "Israel",
        "province": "Central District",
        "population": 1019,
        "latitude": 32.160431,
        "longitude": 34.943472
    },
    {
        "name": "Sde Eliyyahu",
        "country": "Israel",
        "province": "Northern District",
        "population": 691,
        "latitude": 32.43946,
        "longitude": 35.5127
    },
    {
        "name": "Sde Boker",
        "country": "Israel",
        "province": "Southern District",
        "population": 479,
        "latitude": 30.87382,
        "longitude": 34.79246
    },
    {
        "name": "Savyon",
        "country": "Israel",
        "province": "Central District",
        "population": 4036,
        "latitude": 32.049659,
        "longitude": 34.8777
    },
    {
        "name": "Rishpon",
        "country": "Israel",
        "province": "Central District",
        "population": 1458,
        "latitude": 32.202536,
        "longitude": 34.823223
    },
    {
        "name": "Reshafim",
        "country": "Israel",
        "province": "Northern District",
        "population": 1089,
        "latitude": 32.481264,
        "longitude": 35.476201
    },
    {
        "name": "Re‘im",
        "country": "Israel",
        "province": "Southern District",
        "population": 409,
        "latitude": 31.385301,
        "longitude": 34.459428
    },
    {
        "name": "Regavim",
        "country": "Israel",
        "province": "Haifa",
        "population": 480,
        "latitude": 32.523911,
        "longitude": 35.034116
    },
    {
        "name": "Ramot Menashe",
        "country": "Israel",
        "province": "Northern District",
        "population": 1159,
        "latitude": 32.597838,
        "longitude": 35.056564
    },
    {
        "name": "Menara",
        "country": "Israel",
        "province": "Northern District",
        "population": 248,
        "latitude": 33.196911,
        "longitude": 35.543931
    },
    {
        "name": "Ramat Tsevi",
        "country": "Israel",
        "province": "Northern District",
        "population": 710,
        "latitude": 32.590782,
        "longitude": 35.415325
    },
    {
        "name": "Ramat Yoẖanan",
        "country": "Israel",
        "province": "Haifa",
        "population": 1012,
        "latitude": 32.793077,
        "longitude": 35.122264
    },
    {
        "name": "Ramat HaShofet",
        "country": "Israel",
        "province": "Northern District",
        "population": 1101,
        "latitude": 32.611017,
        "longitude": 35.094723
    },
    {
        "name": "Qiryat ‘Anavim",
        "country": "Israel",
        "province": "Jerusalem",
        "population": 467,
        "latitude": 31.81082,
        "longitude": 35.12035
    },
    {
        "name": "Qvutsat Yavne",
        "country": "Israel",
        "province": "Central District",
        "population": 964,
        "latitude": 31.81555,
        "longitude": 34.7208
    },
    {
        "name": "Parod",
        "country": "Israel",
        "province": "Northern District",
        "population": 595,
        "latitude": 32.932693,
        "longitude": 35.433793
    },
    {
        "name": "Pardés H̱anna Karkur",
        "country": "Israel",
        "province": "Haifa",
        "population": -1,
        "latitude": 32.474083,
        "longitude": 34.977808
    },
    {
        "name": "Omets",
        "country": "Israel",
        "province": "Central District",
        "population": -1,
        "latitude": 32.370156,
        "longitude": 34.993385
    },
    {
        "name": "‘Ofer",
        "country": "Israel",
        "province": "Haifa",
        "population": -1,
        "latitude": 32.622568,
        "longitude": 34.983021
    },
    {
        "name": "Niẕẕana",
        "country": "Israel",
        "province": "Southern District",
        "population": -1,
        "latitude": 30.885365,
        "longitude": 34.422768
    },
    {
        "name": "Nir Tsevi",
        "country": "Israel",
        "province": "Central District",
        "population": 1286,
        "latitude": 31.952906,
        "longitude": 34.864084
    },
    {
        "name": "Nir ‘Etsyon",
        "country": "Israel",
        "province": "Haifa",
        "population": 985,
        "latitude": 32.698614,
        "longitude": 34.99448
    },
    {
        "name": "Nir David",
        "country": "Israel",
        "province": "Northern District",
        "population": 729,
        "latitude": 32.504059,
        "longitude": 35.457084
    },
    {
        "name": "Nir ‘Aqiva",
        "country": "Israel",
        "province": "Southern District",
        "population": 686,
        "latitude": 31.469939,
        "longitude": 34.646335
    },
    {
        "name": "Netser Sereni",
        "country": "Israel",
        "province": "Central District",
        "population": -1,
        "latitude": 31.923205,
        "longitude": 34.823764
    },
    {
        "name": "Nevve Zohar",
        "country": "Israel",
        "province": "Southern District",
        "population": 56,
        "latitude": 31.152644,
        "longitude": 35.365337
    },
    {
        "name": "Nevve Ur",
        "country": "Israel",
        "province": "Northern District",
        "population": 349,
        "latitude": 32.588796,
        "longitude": 35.553574
    },
    {
        "name": "Neve Ilan",
        "country": "Israel",
        "province": "Jerusalem",
        "population": 959,
        "latitude": 31.808582089657925,
        "longitude": 35.08028984069824
    },
    {
        "name": "Nevve Etan",
        "country": "Israel",
        "province": "Northern District",
        "population": 311,
        "latitude": 32.49197,
        "longitude": 35.532706
    },
    {
        "name": "Netiv HaShayyara",
        "country": "Israel",
        "province": "Northern District",
        "population": 477,
        "latitude": 32.993424,
        "longitude": 35.13538
    },
    {
        "name": "Nes Harim",
        "country": "Israel",
        "province": "Jerusalem",
        "population": 1414,
        "latitude": 31.74547,
        "longitude": 35.057398
    },
    {
        "name": "Nes ‘Ammim",
        "country": "Israel",
        "province": "Northern District",
        "population": 420,
        "latitude": 32.965782,
        "longitude": 35.121235
    },
    {
        "name": "Neẖusha",
        "country": "Israel",
        "province": "Jerusalem",
        "population": 1484,
        "latitude": 31.630641,
        "longitude": 34.953096
    },
    {
        "name": "Nehora",
        "country": "Israel",
        "province": "Southern District",
        "population": 1181,
        "latitude": 31.622756,
        "longitude": 34.70424
    },
    {
        "name": "Neẖalim",
        "country": "Israel",
        "province": "Central District",
        "population": 1788,
        "latitude": 32.060122,
        "longitude": 34.910693
    },
    {
        "name": "Naẖal ‘Oz",
        "country": "Israel",
        "province": "Southern District",
        "population": 423,
        "latitude": 31.473115,
        "longitude": 34.498293
    },
    {
        "name": "Na‘an",
        "country": "Israel",
        "province": "Central District",
        "population": 1717,
        "latitude": 31.882819,
        "longitude": 34.858319
    },
    {
        "name": "Muṣmuṣ",
        "country": "Israel",
        "province": "Haifa",
        "population": 4215,
        "latitude": 32.543576,
        "longitude": 35.156186
    },
    {
        "name": "El Musheirifā",
        "country": "Israel",
        "province": "Haifa",
        "population": -1,
        "latitude": 32.553011,
        "longitude": 35.156245
    },
    {
        "name": "Motsa",
        "country": "Israel",
        "province": "Jerusalem",
        "population": -1,
        "latitude": 31.792894,
        "longitude": 35.168466
    },
    {
        "name": "Mitspa",
        "country": "Israel",
        "province": "Northern District",
        "population": 141,
        "latitude": 32.789963,
        "longitude": 35.509258
    },
    {
        "name": "Mishmeret",
        "country": "Israel",
        "province": "Central District",
        "population": 1059,
        "latitude": 32.22818,
        "longitude": 34.918345
    },
    {
        "name": "Mishmarot",
        "country": "Israel",
        "province": "Haifa",
        "population": 1024,
        "latitude": 32.487175,
        "longitude": 34.983237
    },
    {
        "name": "Mishmar HaYarden",
        "country": "Israel",
        "province": "Northern District",
        "population": 810,
        "latitude": 33.003333,
        "longitude": 35.598056
    },
    {
        "name": "Mishmar HaNegev",
        "country": "Israel",
        "province": "Southern District",
        "population": 1005,
        "latitude": 31.364155,
        "longitude": 34.718699
    },
    {
        "name": "Mishmar Ha‘Emeq",
        "country": "Israel",
        "province": "Northern District",
        "population": 1271,
        "latitude": 32.610454,
        "longitude": 35.142268
    },
    {
        "name": "Mishmar Ayyalon",
        "country": "Israel",
        "province": "Central District",
        "population": 556,
        "latitude": 31.870599,
        "longitude": 34.941119
    },
    {
        "name": "Mikhmoret",
        "country": "Israel",
        "province": "Central District",
        "population": 1403,
        "latitude": 32.405353,
        "longitude": 34.870909
    },
    {
        "name": "Mi‘ilyā",
        "country": "Israel",
        "province": "Northern District",
        "population": 2700,
        "latitude": 33.027813,
        "longitude": 35.256584
    },
    {
        "name": "Migdal",
        "country": "Israel",
        "province": "Northern District",
        "population": 1952,
        "latitude": 32.839204,
        "longitude": 35.501447
    },
    {
        "name": "Mesillot",
        "country": "Israel",
        "province": "Northern District",
        "population": 433,
        "latitude": 32.495867,
        "longitude": 35.474441
    },
    {
        "name": "Meron",
        "country": "Israel",
        "province": "Northern District",
        "population": 985,
        "latitude": 32.987803,
        "longitude": 35.440866
    },
    {
        "name": "Merẖavya",
        "country": "Israel",
        "province": "Northern District",
        "population": 662,
        "latitude": 32.60432,
        "longitude": 35.307817
    },
    {
        "name": "Me’ir Shefeya",
        "country": "Israel",
        "province": "Haifa",
        "population": 297,
        "latitude": 32.591084,
        "longitude": 34.971262
    },
    {
        "name": "Megadim",
        "country": "Israel",
        "province": "Haifa",
        "population": 1329,
        "latitude": 32.728147,
        "longitude": 34.956306
    },
    {
        "name": "Mefallesim",
        "country": "Israel",
        "province": "Southern District",
        "population": 1024,
        "latitude": 31.501251,
        "longitude": 34.563703
    },
    {
        "name": "Ma’yan Tsevi",
        "country": "Israel",
        "province": "Haifa",
        "population": 749,
        "latitude": 32.5686,
        "longitude": 34.940634
    },
    {
        "name": "Mavqi‘im",
        "country": "Israel",
        "province": "Southern District",
        "population": 484,
        "latitude": 31.622069,
        "longitude": 34.57817
    },
    {
        "name": "Massu’ot Yitsẖaq",
        "country": "Israel",
        "province": "Southern District",
        "population": 697,
        "latitude": 31.702971,
        "longitude": 34.69129
    },
    {
        "name": "Massada",
        "country": "Israel",
        "province": "Northern District",
        "population": 360,
        "latitude": 32.683733,
        "longitude": 35.598482
    },
    {
        "name": "Mash‘én",
        "country": "Israel",
        "province": "Southern District",
        "population": 1064,
        "latitude": 31.657907,
        "longitude": 34.623086
    },
    {
        "name": "Mash’abbe Sadé",
        "country": "Israel",
        "province": "Southern District",
        "population": 481,
        "latitude": 31.003426,
        "longitude": 34.786465
    },
    {
        "name": "Maẖseya",
        "country": "Israel",
        "province": "Jerusalem",
        "population": 477,
        "latitude": 31.748536,
        "longitude": 35.007044
    },
    {
        "name": "Maggal",
        "country": "Israel",
        "province": "Haifa",
        "population": 1139,
        "latitude": 32.385062,
        "longitude": 35.036801
    },
    {
        "name": "Ma‘galim",
        "country": "Israel",
        "province": "Southern District",
        "population": 2061,
        "latitude": 31.396875,
        "longitude": 34.599497
    },
    {
        "name": "Mabbu‘im",
        "country": "Israel",
        "province": "Southern District",
        "population": 1235,
        "latitude": 31.449655,
        "longitude": 34.654767
    },
    {
        "name": "Ma‘anit",
        "country": "Israel",
        "province": "Haifa",
        "population": 812,
        "latitude": 32.456169,
        "longitude": 35.028885
    },
    {
        "name": "Ma‘alé HaH̱amisha",
        "country": "Israel",
        "province": "Jerusalem",
        "population": 793,
        "latitude": 31.818125,
        "longitude": 35.11109
    },
    {
        "name": "Lahavot H̱aviva",
        "country": "Israel",
        "province": "Haifa",
        "population": 1021,
        "latitude": 32.395172,
        "longitude": 35.009775
    },
    {
        "name": "Kissufim",
        "country": "Israel",
        "province": "Southern District",
        "population": 279,
        "latitude": 31.374932,
        "longitude": 34.398404
    },
    {
        "name": "Kinneret",
        "country": "Israel",
        "province": "Northern District",
        "population": 686,
        "latitude": 32.722636,
        "longitude": 35.566205
    },
    {
        "name": "Kinneret",
        "country": "Israel",
        "province": "Northern District",
        "population": 689,
        "latitude": 32.713802,
        "longitude": 35.563011
    },
    {
        "name": "Kerem Shalom",
        "country": "Israel",
        "province": "Southern District",
        "population": 183,
        "latitude": 31.227767,
        "longitude": 34.28459
    },
    {
        "name": "Kerem Ben Zimra",
        "country": "Israel",
        "province": "Northern District",
        "population": 526,
        "latitude": 33.038335,
        "longitude": 35.468716
    },
    {
        "name": "Kfar Ya‘bets",
        "country": "Israel",
        "province": "Central District",
        "population": -1,
        "latitude": 32.273826,
        "longitude": 34.965963
    },
    {
        "name": "Kefar Warburg",
        "country": "Israel",
        "province": "Southern District",
        "population": 1143,
        "latitude": 31.719453,
        "longitude": 34.724047
    },
    {
        "name": "Kfar Shmaryahu",
        "country": "Israel",
        "province": "Tel Aviv",
        "population": 1938,
        "latitude": 32.185287,
        "longitude": 34.820825
    },
    {
        "name": "Kfar Pines",
        "country": "Israel",
        "province": "Haifa",
        "population": 1034,
        "latitude": 32.483717,
        "longitude": 35.002944
    },
    {
        "name": "Kfar Netter",
        "country": "Israel",
        "province": "Central District",
        "population": 1193,
        "latitude": 32.273,
        "longitude": 34.873489
    },
    {
        "name": "Kfar Menaẖem",
        "country": "Israel",
        "province": "Southern District",
        "population": 1366,
        "latitude": 31.731387,
        "longitude": 34.835468
    },
    {
        "name": "Kfar Malal",
        "country": "Israel",
        "province": "Central District",
        "population": 325,
        "latitude": 32.166556,
        "longitude": 34.89828
    },
    {
        "name": "Kfar Hess",
        "country": "Israel",
        "province": "Central District",
        "population": 1593,
        "latitude": 32.24714,
        "longitude": 34.93562
    },
    {
        "name": "Kefar HaRo’e",
        "country": "Israel",
        "province": "Central District",
        "population": 1460,
        "latitude": 32.392445,
        "longitude": 34.911632
    },
    {
        "name": "Kfar HaNagid",
        "country": "Israel",
        "province": "Central District",
        "population": -1,
        "latitude": 31.887165,
        "longitude": 34.748332
    },
    {
        "name": "Kefar HaMakkabbi",
        "country": "Israel",
        "province": "Haifa",
        "population": -1,
        "latitude": 32.790666,
        "longitude": 35.114951
    },
    {
        "name": "Kfar H̱abad",
        "country": "Israel",
        "province": "Central District",
        "population": 6598,
        "latitude": 31.987925,
        "longitude": 34.851605
    },
    {
        "name": "Kfar Gil‘adi",
        "country": "Israel",
        "province": "Northern District",
        "population": 673,
        "latitude": 33.242283,
        "longitude": 35.575146
    },
    {
        "name": "Kfar Gallim",
        "country": "Israel",
        "province": "Haifa",
        "population": 389,
        "latitude": 32.766202,
        "longitude": 34.958873
    },
    {
        "name": "Kfar Daniyyel",
        "country": "Israel",
        "province": "Central District",
        "population": -1,
        "latitude": 31.934245,
        "longitude": 34.931651
    },
    {
        "name": "Kfar Bilu",
        "country": "Israel",
        "province": "Central District",
        "population": 1258,
        "latitude": 31.877022,
        "longitude": 34.821076
    },
    {
        "name": "Karmon",
        "country": "Israel",
        "province": "Southern District",
        "population": -1,
        "latitude": 31.6833333,
        "longitude": 34.6666667
    },
    {
        "name": "Kafr Miṣr",
        "country": "Israel",
        "province": "Northern District",
        "population": 2750,
        "latitude": 32.645207,
        "longitude": 35.421467
    },
    {
        "name": "Jūlis",
        "country": "Israel",
        "province": "Northern District",
        "population": 6465,
        "latitude": 32.942671,
        "longitude": 35.182781
    },
    {
        "name": "Ibṭīn",
        "country": "Israel",
        "province": "Haifa",
        "population": 2835,
        "latitude": 32.761499,
        "longitude": 35.114016
    },
    {
        "name": "Hukok",
        "country": "Israel",
        "province": "Northern District",
        "population": 612,
        "latitude": 32.879178,
        "longitude": 35.495548
    },
    {
        "name": "Huldah",
        "country": "Israel",
        "province": "Central District",
        "population": 1163,
        "latitude": 31.831764,
        "longitude": 34.882314
    },
    {
        "name": "H̱osen",
        "country": "Israel",
        "province": "Northern District",
        "population": 1135,
        "latitude": 32.998244,
        "longitude": 35.298074
    },
    {
        "name": "H̱ibbat Tsiyyon",
        "country": "Israel",
        "province": "Central District",
        "population": 727,
        "latitude": 32.397314,
        "longitude": 34.91249
    },
    {
        "name": "H̱erut",
        "country": "Israel",
        "province": "Central District",
        "population": 1298,
        "latitude": 32.240178,
        "longitude": 34.915833
    },
    {
        "name": "H̱emed",
        "country": "Israel",
        "province": "Central District",
        "population": 1316,
        "latitude": 32.015904,
        "longitude": 34.842837
    },
    {
        "name": "H̱elets",
        "country": "Israel",
        "province": "Southern District",
        "population": 455,
        "latitude": 31.577752,
        "longitude": 34.658007
    },
    {
        "name": "H̱atsor Ashdod",
        "country": "Israel",
        "province": "Southern District",
        "population": 653,
        "latitude": 31.772267,
        "longitude": 34.720508
    },
    {
        "name": "‘En H̱aẕeva",
        "country": "Israel",
        "province": "Southern District",
        "population": 50,
        "latitude": 30.798723,
        "longitude": 35.246003
    },
    {
        "name": "HaOn",
        "country": "Israel",
        "province": "Northern District",
        "population": 181,
        "latitude": 32.72492,
        "longitude": 35.62162
    },
    {
        "name": "H̱anni’el",
        "country": "Israel",
        "province": "Central District",
        "population": 923,
        "latitude": 32.333057,
        "longitude": 34.950506
    },
    {
        "name": "H̱anita",
        "country": "Israel",
        "province": "Northern District",
        "population": 756,
        "latitude": 33.087457,
        "longitude": 35.17364
    },
    {
        "name": "H̱agor",
        "country": "Israel",
        "province": "Central District",
        "population": 1162,
        "latitude": 32.139318,
        "longitude": 34.946954
    },
    {
        "name": "H̱afets H̱ayyim",
        "country": "Israel",
        "province": "Central District",
        "population": 558,
        "latitude": 31.788315,
        "longitude": 34.800109
    },
    {
        "name": "H̱adid",
        "country": "Israel",
        "province": "Central District",
        "population": 875,
        "latitude": 31.968457,
        "longitude": 34.933732
    },
    {
        "name": "Hadar ‘Am",
        "country": "Israel",
        "province": "Central District",
        "population": 675,
        "latitude": 32.350371,
        "longitude": 34.899922
    },
    {
        "name": "Giv‘at Ye‘arim",
        "country": "Israel",
        "province": "Jerusalem",
        "population": 1455,
        "latitude": 31.786526,
        "longitude": 35.091823
    },
    {
        "name": "Giv‘ati",
        "country": "Israel",
        "province": "Southern District",
        "population": 1047,
        "latitude": 31.732996,
        "longitude": 34.679946
    },
    {
        "name": "Giv‘at Brenner",
        "country": "Israel",
        "province": "Central District",
        "population": 2678,
        "latitude": 31.866836,
        "longitude": 34.800967
    },
    {
        "name": "Giv‘at ‘Ada",
        "country": "Israel",
        "province": "Haifa",
        "population": -1,
        "latitude": 32.519075,
        "longitude": 35.00602
    },
    {
        "name": "Ginnosar",
        "country": "Israel",
        "province": "Northern District",
        "population": 585,
        "latitude": 32.847128,
        "longitude": 35.523352
    },
    {
        "name": "Ginnegar",
        "country": "Israel",
        "province": "Northern District",
        "population": 702,
        "latitude": 32.663643,
        "longitude": 35.25764
    },
    {
        "name": "Gilat",
        "country": "Israel",
        "province": "Southern District",
        "population": 1451,
        "latitude": 31.327605,
        "longitude": 34.652016
    },
    {
        "name": "Ge’ullim",
        "country": "Israel",
        "province": "Central District",
        "population": 968,
        "latitude": 32.299618,
        "longitude": 34.945141
    },
    {
        "name": "Gesher HaZiv",
        "country": "Israel",
        "province": "Northern District",
        "population": 1614,
        "latitude": 33.040386,
        "longitude": 35.110654
    },
    {
        "name": "Gesher",
        "country": "Israel",
        "province": "Northern District",
        "population": 428,
        "latitude": 32.6211,
        "longitude": 35.551339
    },
    {
        "name": "Ge’a",
        "country": "Israel",
        "province": "Southern District",
        "population": 970,
        "latitude": 31.626965,
        "longitude": 34.603343
    },
    {
        "name": "Gan Yoshiyya",
        "country": "Israel",
        "province": "Central District",
        "population": 990,
        "latitude": 32.349283,
        "longitude": 34.993976
    },
    {
        "name": "Gan Shlomo",
        "country": "Israel",
        "province": "Central District",
        "population": 578,
        "latitude": 31.878641,
        "longitude": 34.799609
    },
    {
        "name": "Neve Eliyyahu",
        "country": "Israel",
        "province": "Central District",
        "population": -1,
        "latitude": 31.984751,
        "longitude": 34.788263
    },
    {
        "name": "Gal‘ed",
        "country": "Israel",
        "province": "Northern District",
        "population": 492,
        "latitude": 32.557157,
        "longitude": 35.077036
    },
    {
        "name": "Even Shemu’el",
        "country": "Israel",
        "province": "Southern District",
        "population": 1807,
        "latitude": 31.57641,
        "longitude": 34.763424
    },
    {
        "name": "Even Sappir",
        "country": "Israel",
        "province": "Jerusalem",
        "population": 730,
        "latitude": 31.763188,
        "longitude": 35.134216
    },
    {
        "name": "Eshta’ol",
        "country": "Israel",
        "province": "Jerusalem",
        "population": 1238,
        "latitude": 31.780719,
        "longitude": 35.009944
    },
    {
        "name": "‘En Yahav",
        "country": "Israel",
        "province": "Southern District",
        "population": 742,
        "latitude": 30.658174,
        "longitude": 35.23746
    },
    {
        "name": "Ein Vered",
        "country": "Israel",
        "province": "Central District",
        "population": 1512,
        "latitude": 32.2666667,
        "longitude": 34.9333333
    },
    {
        "name": "Ein Sarid",
        "country": "Israel",
        "province": "Central District",
        "population": 1603,
        "latitude": 32.27413,
        "longitude": 34.93408
    },
    {
        "name": "‘En Hod",
        "country": "Israel",
        "province": "Haifa",
        "population": 643,
        "latitude": 32.700956,
        "longitude": 34.983616
    },
    {
        "name": "‘En HaShelosha",
        "country": "Israel",
        "province": "Southern District",
        "population": 361,
        "latitude": 31.35109,
        "longitude": 34.401649
    },
    {
        "name": "‘En HaNaẕiv",
        "country": "Israel",
        "province": "Northern District",
        "population": 604,
        "latitude": 32.470372,
        "longitude": 35.502418
    },
    {
        "name": "‘En HaMifraẕ",
        "country": "Israel",
        "province": "Northern District",
        "population": 1249,
        "latitude": 32.903081,
        "longitude": 35.09619
    },
    {
        "name": "Ein Gedi",
        "country": "Israel",
        "province": "Southern District",
        "population": 610,
        "latitude": 31.452381,
        "longitude": 35.384426
    },
    {
        "name": "‘En Dor",
        "country": "Israel",
        "province": "Northern District",
        "population": 1026,
        "latitude": 32.656137,
        "longitude": 35.417029
    },
    {
        "name": "‘En Boqeq",
        "country": "Israel",
        "province": "Southern District",
        "population": 1400,
        "latitude": 31.199414,
        "longitude": 35.362533
    },
    {
        "name": "Emunim",
        "country": "Israel",
        "province": "Southern District",
        "population": 979,
        "latitude": 31.743913,
        "longitude": 34.675399
    },
    {
        "name": "Elyaqim",
        "country": "Israel",
        "province": "Northern District",
        "population": -1,
        "latitude": 32.631964,
        "longitude": 35.066939
    },
    {
        "name": "Elyakhin",
        "country": "Israel",
        "province": "Central District",
        "population": 3415,
        "latitude": 32.407931,
        "longitude": 34.924332
    },
    {
        "name": "Elqosh",
        "country": "Israel",
        "province": "Northern District",
        "population": 275,
        "latitude": 33.033456,
        "longitude": 35.324426
    },
    {
        "name": "Elon",
        "country": "Israel",
        "province": "Northern District",
        "population": 1031,
        "latitude": 33.063654,
        "longitude": 35.220086
    },
    {
        "name": "Elishama‘",
        "country": "Israel",
        "province": "Central District",
        "population": 1199,
        "latitude": 32.152081,
        "longitude": 34.928267
    },
    {
        "name": "‘Ein el Asad",
        "country": "Israel",
        "province": "Northern District",
        "population": 886,
        "latitude": 32.94137,
        "longitude": 35.39639
    },
    {
        "name": "Ed Dahī",
        "country": "Israel",
        "province": "Northern District",
        "population": 703,
        "latitude": 32.620945,
        "longitude": 35.344535
    },
    {
        "name": "Dvira",
        "country": "Israel",
        "province": "Southern District",
        "population": 1007,
        "latitude": 31.412216,
        "longitude": 34.825402
    },
    {
        "name": "Deganya Bet",
        "country": "Israel",
        "province": "Northern District",
        "population": 674,
        "latitude": 32.699868,
        "longitude": 35.575961
    },
    {
        "name": "Daliyya",
        "country": "Israel",
        "province": "Northern District",
        "population": 815,
        "latitude": 32.589819,
        "longitude": 35.075143
    },
    {
        "name": "Dafna",
        "country": "Israel",
        "province": "Northern District",
        "population": 965,
        "latitude": 33.230133,
        "longitude": 35.638666
    },
    {
        "name": "Bustan HaGalil",
        "country": "Israel",
        "province": "Northern District",
        "population": 1305,
        "latitude": 32.951188,
        "longitude": 35.082979
    },
    {
        "name": "Bu‘eina",
        "country": "Israel",
        "province": "Northern District",
        "population": 7900,
        "latitude": 32.806362,
        "longitude": 35.364858
    },
    {
        "name": "Bitanya",
        "country": "Israel",
        "province": "Northern District",
        "population": -1,
        "latitude": 32.705012,
        "longitude": 35.565659
    },
    {
        "name": "Betset",
        "country": "Israel",
        "province": "Northern District",
        "population": 295,
        "latitude": 33.071438,
        "longitude": 35.134733
    },
    {
        "name": "Bet Zera‘",
        "country": "Israel",
        "province": "Northern District",
        "population": 578,
        "latitude": 32.688603,
        "longitude": 35.572813
    },
    {
        "name": "Bet Zayit",
        "country": "Israel",
        "province": "Jerusalem",
        "population": 1708,
        "latitude": 31.78233,
        "longitude": 35.161611
    },
    {
        "name": "Bet Yitsẖaq",
        "country": "Israel",
        "province": "Central District",
        "population": 1674,
        "latitude": 32.327511,
        "longitude": 34.88878
    },
    {
        "name": "Bet Shiqma",
        "country": "Israel",
        "province": "Southern District",
        "population": 863,
        "latitude": 31.635888,
        "longitude": 34.60636
    },
    {
        "name": "Bet Rabban",
        "country": "Israel",
        "province": "Central District",
        "population": 1018,
        "latitude": 31.816774,
        "longitude": 34.729369
    },
    {
        "name": "Bet Neqofa",
        "country": "Israel",
        "province": "Jerusalem",
        "population": 744,
        "latitude": 31.804521,
        "longitude": 35.125955
    },
    {
        "name": "Bet Neẖemya",
        "country": "Israel",
        "province": "Central District",
        "population": -1,
        "latitude": 31.979127,
        "longitude": 34.950504
    },
    {
        "name": "Bet Me’ir",
        "country": "Israel",
        "province": "Jerusalem",
        "population": 878,
        "latitude": 31.793926,
        "longitude": 35.03689
    },
    {
        "name": "Bet Leẖem HaGelilit",
        "country": "Israel",
        "province": "Northern District",
        "population": -1,
        "latitude": 32.735676,
        "longitude": 35.191464
    },
    {
        "name": "Bet HaGaddi",
        "country": "Israel",
        "province": "Southern District",
        "population": 847,
        "latitude": 31.425159,
        "longitude": 34.606013
    },
    {
        "name": "Bet Gamli’él",
        "country": "Israel",
        "province": "Central District",
        "population": 1019,
        "latitude": 31.855552,
        "longitude": 34.762489
    },
    {
        "name": "Bet Alfa",
        "country": "Israel",
        "province": "Northern District",
        "population": 1075,
        "latitude": 32.516092,
        "longitude": 35.430679
    },
    {
        "name": "Beror H̱ayil",
        "country": "Israel",
        "province": "Southern District",
        "population": 954,
        "latitude": 31.557636,
        "longitude": 34.646636
    },
    {
        "name": "Berekhya",
        "country": "Israel",
        "province": "Southern District",
        "population": 1274,
        "latitude": 31.668945,
        "longitude": 34.625799
    },
    {
        "name": "Ben Shemen",
        "country": "Israel",
        "province": "Central District",
        "population": 870,
        "latitude": 31.952807,
        "longitude": 34.922003
    },
    {
        "name": "Bnei Zion",
        "country": "Israel",
        "province": "Central District",
        "population": -1,
        "latitude": 32.221208,
        "longitude": 34.869649
    },
    {
        "name": "Bne Re’em",
        "country": "Israel",
        "province": "Central District",
        "population": 1417,
        "latitude": 31.770285,
        "longitude": 34.79105
    },
    {
        "name": "Bne Darom",
        "country": "Israel",
        "province": "Central District",
        "population": 903,
        "latitude": 31.820337,
        "longitude": 34.692351
    },
    {
        "name": "Bnei Ayish",
        "country": "Israel",
        "province": "Central District",
        "population": 6978,
        "latitude": 31.7833333,
        "longitude": 34.75
    },
    {
        "name": "Ben ‘Ammi",
        "country": "Israel",
        "province": "Northern District",
        "population": 766,
        "latitude": 33.006967,
        "longitude": 35.125623
    },
    {
        "name": "Beit Jimāl",
        "country": "Israel",
        "province": "Jerusalem",
        "population": -1,
        "latitude": 31.724863,
        "longitude": 34.975777
    },
    {
        "name": "Be’er Ora",
        "country": "Israel",
        "province": "Southern District",
        "population": 1033,
        "latitude": 29.710529,
        "longitude": 34.98019
    },
    {
        "name": "Be’eri",
        "country": "Israel",
        "province": "Southern District",
        "population": 1049,
        "latitude": 31.424258,
        "longitude": 34.491634
    },
    {
        "name": "Bat Shlomo",
        "country": "Israel",
        "province": "Haifa",
        "population": -1,
        "latitude": 32.600312,
        "longitude": 35.003955
    },
    {
        "name": "Barqay",
        "country": "Israel",
        "province": "Haifa",
        "population": 553,
        "latitude": 32.475097,
        "longitude": 35.029658
    },
    {
        "name": "Bareqet",
        "country": "Israel",
        "province": "Central District",
        "population": 2082,
        "latitude": 32.018392,
        "longitude": 34.944159
    },
    {
        "name": "Balfouriyya",
        "country": "Israel",
        "province": "Northern District",
        "population": 528,
        "latitude": 32.630347,
        "longitude": 35.29651
    },
    {
        "name": "Baẖan",
        "country": "Israel",
        "province": "Central District",
        "population": 1084,
        "latitude": 32.350816,
        "longitude": 35.018622
    },