[
    {
        "name": "Baghdad",
        "country": "Iraq",
        "province": "Baghdad",
        "population": 7216000,
        "latitude": 33.340582,
        "longitude": 44.400876
    },
    {
        "name": "Al Başrah al Qadīmah",
        "country": "Iraq",
        "province": "Basra",
        "population": 2015483,
        "latitude": 30.503162,
        "longitude": 47.81507
    },
    {
        "name": "Najaf",
        "country": "Iraq",
        "province": "An Najaf",
        "population": 482576,
        "latitude": 32.025944,
        "longitude": 44.346246
    },
    {
        "name": "Al Mawşil al Jadīdah",
        "country": "Iraq",
        "province": "Nineveh",
        "population": 2065597,
        "latitude": 36.332706,
        "longitude": 43.105546
    },
    {
        "name": "Basra",
        "country": "Iraq",
        "province": "Basra",
        "population": 1326564,
        "latitude": 30.50852,
        "longitude": 47.7804
    },
    {
        "name": "Abu Ghraib",
        "country": "Iraq",
        "province": "Baghdad",
        "population": 900000,
        "latitude": 33.305629,
        "longitude": 44.18477
    },
    {
        "name": "Kirkuk",
        "country": "Iraq",
        "province": "Kirkuk",
        "population": 1031000,
        "latitude": 35.468056,
        "longitude": 44.392222
    },
    {
        "name": "Karbala",
        "country": "Iraq",
        "province": "Karbalāʼ",
        "population": 1218732,
        "latitude": 32.61602652699556,
        "longitude": 44.02487754821777
    },
    {
        "name": "Erbil",
        "country": "Iraq",
        "province": "Arbīl",
        "population": 1612700,
        "latitude": 36.183327,
        "longitude": 44.011928
    },
    {
        "name": "Mosul",
        "country": "Iraq",
        "province": "Nineveh",
        "population": 1683000,
        "latitude": 36.335,
        "longitude": 43.118889
    },
    {
        "name": "Ad Dīwānīyah",
        "country": "Iraq",
        "province": "Al Qādisīyah",
        "population": 318801,
        "latitude": 31.992886,
        "longitude": 44.925521
    },
    {
        "name": "Dihok",
        "country": "Iraq",
        "province": "Duhok",
        "population": 340900,
        "latitude": 36.867089,
        "longitude": 42.988446
    },
    {
        "name": "Baqubah",
        "country": "Iraq",
        "province": "Diyālá",
        "population": 152550,
        "latitude": 33.75403,
        "longitude": 44.60518
    },
    {
        "name": "Sulaymaniyah",
        "country": "Iraq",
        "province": "Sulaymaniyah",
        "population": 878146,
        "latitude": 35.564964,
        "longitude": 45.432905
    },
    {
        "name": "Ramadi",
        "country": "Iraq",
        "province": "Al Anbar",
        "population": 223500,
        "latitude": 33.42056,
        "longitude": 43.307779
    },
    {
        "name": "Nasiriyah",
        "country": "Iraq",
        "province": "Dhi Qar",
        "population": 558400,
        "latitude": 31.057993,
        "longitude": 46.257262
    },
    {
        "name": "Kut",
        "country": "Iraq",
        "province": "Wāsiţ",
        "population": 315162,
        "latitude": 32.512796,
        "longitude": 45.818171
    },
    {
        "name": "Kufa",
        "country": "Iraq",
        "province": "An Najaf",
        "population": 110000,
        "latitude": 32.05114,
        "longitude": 44.440172
    },
    {
        "name": "Al Hillah",
        "country": "Iraq",
        "province": "Bābil",
        "population": 455700,
        "latitude": 32.463672,
        "longitude": 44.41963
    },
    {
        "name": "Fallujah",
        "country": "Iraq",
        "province": "Al Anbar",
        "population": 190159,
        "latitude": 33.349128,
        "longitude": 43.785986
    },
    {
        "name": "Amara",
        "country": "Iraq",
        "province": "Maysan",
        "population": 323302,
        "latitude": 31.835612,
        "longitude": 47.144832
    },
    {
        "name": "Tikrit",
        "country": "Iraq",
        "province": "Salah ad Din",
        "population": 42477,
        "latitude": 34.615807,
        "longitude": 43.678606
    },
    {
        "name": "As Samawah",
        "country": "Iraq",
        "province": "Al Muthanná",
        "population": 152890,
        "latitude": 31.331976,
        "longitude": 45.294397
    },
    {
        "name": "Al Fāw",
        "country": "Iraq",
        "province": "Basra",
        "population": 104569,
        "latitude": 29.974214,
        "longitude": 48.47309
    },
    {
        "name": "Dujail",
        "country": "Iraq",
        "province": "Salah ad Din",
        "population": 26362,
        "latitude": 33.8466667,
        "longitude": 44.2344444
    },
    {
        "name": "Umm Qaşr",
        "country": "Iraq",
        "province": "Basra",
        "population": 107620,
        "latitude": 30.036204,
        "longitude": 47.919506
    },
    {
        "name": "Sīnah",
        "country": "Iraq",
        "province": "Duhok",
        "population": 128776,
        "latitude": 36.808513,
        "longitude": 43.039351
    },
    {
        "name": "Samarra",
        "country": "Iraq",
        "province": "Salah ad Din",
        "population": 158508,
        "latitude": 34.195896,
        "longitude": 43.88568
    },
    {
        "name": "Halabja",
        "country": "Iraq",
        "province": "Sulaymaniyah",
        "population": 57333,
        "latitude": 35.1777778,
        "longitude": 45.9861111
    },
    {
        "name": "Soran",
        "country": "Iraq",
        "province": "Arbīl",
        "population": 125000,
        "latitude": 36.653203,
        "longitude": 44.544067
    },
    {
        "name": "Az Zubayr",
        "country": "Iraq",
        "province": "Basra",
        "population": 122676,
        "latitude": 30.392132,
        "longitude": 47.701745
    },
    {
        "name": "An Nu‘mānīyah",
        "country": "Iraq",
        "province": "Wāsiţ",
        "population": 110000,
        "latitude": 32.556211,
        "longitude": 45.412934
    },
    {
        "name": "‘Anah",
        "country": "Iraq",
        "province": "Al Anbar",
        "population": 27000,
        "latitude": 34.368573,
        "longitude": 41.981938
    },
    {
        "name": "Al Hārithah",
        "country": "Iraq",
        "province": "Basra",
        "population": 92395,
        "latitude": 30.584811,
        "longitude": 47.761138
    },
    {
        "name": "Zakho",
        "country": "Iraq",
        "province": "Duhok",
        "population": 95052,
        "latitude": 37.148713,
        "longitude": 42.685909
    },
    {
        "name": "Tuz Khurmatu",
        "country": "Iraq",
        "province": "Salah ad Din",
        "population": 59886,
        "latitude": 34.888083,
        "longitude": 44.632564
    },
    {
        "name": "Nāḩīyat Saddat al Hindīyah",
        "country": "Iraq",
        "province": "Bābil",
        "population": 30622,
        "latitude": 32.715574,
        "longitude": 44.278567
    },
    {
        "name": "Ṟuwandiz",
        "country": "Iraq",
        "province": "Arbīl",
        "population": 22943,
        "latitude": 36.612065,
        "longitude": 44.523715
    },
    {
        "name": "Al-Hamdaniya District",
        "country": "Iraq",
        "province": "Nineveh",
        "population": 50000,
        "latitude": 36.270931,
        "longitude": 43.377579
    },
    {
        "name": "Koysinceq",
        "country": "Iraq",
        "province": "Arbīl",
        "population": 44987,
        "latitude": 36.08289,
        "longitude": 44.628733
    },
    {
        "name": "Kifrī",
        "country": "Iraq",
        "province": "Diyālá",
        "population": 30143,
        "latitude": 34.689626,
        "longitude": 44.960571
    },
    {
        "name": "Jamjamāl",
        "country": "Iraq",
        "province": "Sulaymaniyah",
        "population": 75634,
        "latitude": 35.533558,
        "longitude": 44.834296
    },
    {
        "name": "Batufa",
        "country": "Iraq",
        "province": "Duhok",
        "population": 25000,
        "latitude": 37.174537,
        "longitude": 43.01233
    },
    {
        "name": "Baynjiwayn",
        "country": "Iraq",
        "province": "Sulaymaniyah",
        "population": 27116,
        "latitude": 35.620544,
        "longitude": 45.949078
    },
    {
        "name": "Ash Shaţrah",
        "country": "Iraq",
        "province": "Dhi Qar",
        "population": 82732,
        "latitude": 31.409063,
        "longitude": 46.172704
    },
    {
        "name": "Imam Qasim",
        "country": "Iraq",
        "province": "Bābil",
        "population": 36992,
        "latitude": 32.297993,
        "longitude": 44.682816
    },
    {
        "name": "Khāliş",
        "country": "Iraq",
        "province": "Diyālá",
        "population": 70046,
        "latitude": 33.808094,
        "longitude": 44.533435
    },
    {
        "name": "Al Hindīyah",
        "country": "Iraq",
        "province": "Karbalāʼ",
        "population": 57490,
        "latitude": 32.546705,
        "longitude": 44.227653
    },
    {
        "name": "Al Ḩayy",
        "country": "Iraq",
        "province": "Wāsiţ",
        "population": 78272,
        "latitude": 32.174191,
        "longitude": 46.043454
    },
    {
        "name": "Shannah",
        "country": "Iraq",
        "province": "Sulaymaniyah",
        "population": -1,
        "latitude": 36.28384,
        "longitude": 45.273685
    },
    {
        "name": "Dêrê-î Xwarû",
        "country": "Iraq",
        "province": "Sulaymaniyah",
        "population": -1,
        "latitude": 35.936573,
        "longitude": 45.566383
    },
    {
        "name": "Sūsay Saydān",
        "country": "Iraq",
        "province": "Sulaymaniyah",
        "population": -1,
        "latitude": 35.77908,
        "longitude": 45.137315
    },
    {
        "name": "Bīdaw",
        "country": "Iraq",
        "province": "Duhok",
        "population": -1,
        "latitude": 37.25894,
        "longitude": 43.422759
    },
    {
        "name": "Bit Nūrah",
        "country": "Iraq",
        "province": "Duhok",
        "population": -1,
        "latitude": 37.200903,
        "longitude": 43.468887
    },
    {
        "name": "Butya",
        "country": "Iraq",
        "province": "Duhok",
        "population": -1,
        "latitude": 37.092728,
        "longitude": 43.437086
    },
    {
        "name": "Shālikh",
        "country": "Iraq",
        "province": "Kirkuk",
        "population": -1,
        "latitude": 35.20406,
        "longitude": 44.063256
    },
    {
        "name": "Qarah Gawl al ‘Ulyā",
        "country": "Iraq",
        "province": "Sulaymaniyah",
        "population": -1,
        "latitude": 35.353231,
        "longitude": 45.633119
    },
    {
        "name": "Hijîrkê",
        "country": "Iraq",
        "province": "Duhok",
        "population": -1,
        "latitude": 36.930482,
        "longitude": 42.874177
    },
    {
        "name": "Karmāwah Muḩammad Āghā",
        "country": "Iraq",
        "province": "Duhok",
        "population": -1,
        "latitude": 36.927912,
        "longitude": 42.847275
    },
    {
        "name": "Zaywah",
        "country": "Iraq",
        "province": "Duhok",
        "population": -1,
        "latitude": 36.974717,
        "longitude": 42.919037
    },
    {
        "name": "Gul Nāskī",
        "country": "Iraq",
        "province": "Duhok",
        "population": -1,
        "latitude": 36.992825,
        "longitude": 42.928189
    },
    {
        "name": "Zanī",
        "country": "Iraq",
        "province": "Nineveh",
        "population": -1,
        "latitude": 36.881367,
        "longitude": 43.8088
    },
    {
        "name": "Karītaḩak",
        "country": "Iraq",
        "province": "Nineveh",
        "population": -1,
        "latitude": 36.673499,
        "longitude": 43.216616
    },
    {
        "name": "Kura",
        "country": "Iraq",
        "province": "Duhok",
        "population": -1,
        "latitude": 36.93356,
        "longitude": 43.148547
    },
    {
        "name": "Kirdī Khuwāy Dāw",
        "country": "Iraq",
        "province": "Sulaymaniyah",
        "population": -1,
        "latitude": 36.237514,
        "longitude": 44.747616
    },
    {
        "name": "Girāw",
        "country": "Iraq",
        "province": "Arbīl",
        "population": -1,
        "latitude": 36.534707,
        "longitude": 44.176982
    },
    {
        "name": "Cham Bikī",
        "country": "Iraq",
        "province": "Nineveh",
        "population": -1,
        "latitude": 36.728326,
        "longitude": 44.293071
    },
    {
        "name": "Būsil",
        "country": "Iraq",
        "province": "Nineveh",
        "population": -1,
        "latitude": 36.731599,
        "longitude": 44.058111
    },
    {
        "name": "Gilūk",
        "country": "Iraq",
        "province": "Nineveh",
        "population": -1,
        "latitude": 36.726745,
        "longitude": 44.036847
    },
    {
        "name": "Hanan Lower",
        "country": "Iraq",
        "province": "Arbīl",
        "population": -1,
        "latitude": 36.566585,
        "longitude": 44.329244
    },
    {
        "name": "Hanara Upper",
        "country": "Iraq",
        "province": "Arbīl",
        "population": -1,
        "latitude": 36.574929,
        "longitude": 44.33246
    },
    {
        "name": "Kalakin",
        "country": "Iraq",
        "province": "Arbīl",
        "population": -1,
        "latitude": 36.620165,
        "longitude": 44.340573
    },
    {
        "name": "Bekhal",
        "country": "Iraq",
        "province": "Arbīl",
        "population": -1,
        "latitude": 36.613833,
        "longitude": 44.496056
    },
    {
        "name": "Hajiawa",
        "country": "Iraq",
        "province": "Sulaymaniyah",
        "population": 80000,
        "latitude": 36.23579,
        "longitude": 44.794688
    },
    {
        "name": "Hevindke",
        "country": "Iraq",
        "province": "Arbīl",
        "population": -1,
        "latitude": 36.932826,
        "longitude": 44.013875
    },
    {
        "name": "Ḩasnah",
        "country": "Iraq",
        "province": "Arbīl",
        "population": -1,
        "latitude": 36.948307,
        "longitude": 44.031816
    },
    {
        "name": "Dayrah Kīznig",
        "country": "Iraq",
        "province": "Duhok",
        "population": -1,
        "latitude": 37.00754,
        "longitude": 43.092276
    },
    {
        "name": "Sinjār",
        "country": "Iraq",
        "province": "Nineveh",
        "population": 38294,
        "latitude": 36.320901,
        "longitude": 41.876562
    },
    {
        "name": "Nahiyat Ghammas",
        "country": "Iraq",
        "province": "Al Qādisīyah",
        "population": 30909,
        "latitude": 31.743106,
        "longitude": 44.619599
    },
    {
        "name": "Al ‘Azīzīyah",
        "country": "Iraq",
        "province": "Wāsiţ",
        "population": 44751,
        "latitude": 32.909412,
        "longitude": 45.063586
    },
    {
        "name": "Abū Şabāḩ",
        "country": "Iraq",
        "province": "Kirkuk",
        "population": -1,
        "latitude": 35.485579,
        "longitude": 44.22001
    },
    {
        "name": "Zaywikah",
        "country": "Iraq",
        "province": "Duhok",
        "population": -1,
        "latitude": 37.161192,
        "longitude": 43.823852
    },
    {
        "name": "Zankī Sūr",
        "country": "Iraq",
        "province": "Sulaymaniyah",
        "population": -1,
        "latitude": 35.493648,
        "longitude": 45.894688
    },
    {
        "name": "Zemawnige",
        "country": "Iraq",
        "province": "Sulaymaniyah",
        "population": -1,
        "latitude": 34.772039,
        "longitude": 45.42298
    },
    {
        "name": "Tut Aghach",
        "country": "Iraq",
        "province": "Sulaymaniyah",
        "population": -1,
        "latitude": 35.456315,
        "longitude": 45.888185
    },
    {
        "name": "Tunkah Kawrah Qabr Mullā Ramaḑān",
        "country": "Iraq",
        "province": "Sulaymaniyah",
        "population": -1,
        "latitude": 34.868973,
        "longitude": 45.292013
    },
    {
        "name": "Tīlakaw Pīchūk",
        "country": "Iraq",
        "province": "Sulaymaniyah",
        "population": -1,
        "latitude": 34.848737,
        "longitude": 45.226974
    },
    {
        "name": "Tallkayf",
        "country": "Iraq",
        "province": "Nineveh",
        "population": 23524,
        "latitude": 36.491177,
        "longitude": 43.121139
    },
    {
        "name": "Sūrī",
        "country": "Iraq",
        "province": "Duhok",
        "population": -1,
        "latitude": 37.016469,
        "longitude": 43.818741
    },
    {
        "name": "Sofiyawend",
        "country": "Iraq",
        "province": "Sulaymaniyah",
        "population": -1,
        "latitude": 34.899036,
        "longitude": 45.341213
    },
    {
        "name": "Siyākwayz",
        "country": "Iraq",
        "province": "Sulaymaniyah",
        "population": -1,
        "latitude": 35.805266,
        "longitude": 45.800343
    },
    {
        "name": "Sengaw",
        "country": "Iraq",
        "province": "Sulaymaniyah",
        "population": -1,
        "latitude": 35.285993,
        "longitude": 45.176836
    },
    {
        "name": "Shadalah Sarū",
        "country": "Iraq",
        "province": "Sulaymaniyah",
        "population": -1,
        "latitude": 35.835212,
        "longitude": 45.164181
    },
    {
        "name": "Sayy Kardān",
        "country": "Iraq",
        "province": "Arbīl",
        "population": -1,
        "latitude": 35.876632,
        "longitude": 44.443008
    },
    {
        "name": "Suwārah Tūkah",
        "country": "Iraq",
        "province": "Duhok",
        "population": -1,
        "latitude": 37.009708,
        "longitude": 43.226052
    },
    {
        "name": "Sersink",
        "country": "Iraq",
        "province": "Duhok",
        "population": -1,
        "latitude": 37.040486,
        "longitude": 43.343525
    },
    {
        "name": "Sargalī",
        "country": "Iraq",
        "province": "Duhok",
        "population": -1,
        "latitude": 37.10685,
        "longitude": 43.57101
    },
    {
        "name": "Waydār",
        "country": "Iraq",
        "province": "Kirkuk",
        "population": -1,
        "latitude": 35.735097,
        "longitude": 44.467249
    },
    {
        "name": "Rebenka",
        "country": "Iraq",
        "province": "Duhok",
        "population": -1,
        "latitude": 37.205134,
        "longitude": 42.620987
    },
    {
        "name": "Qawrah Tū",
        "country": "Iraq",
        "province": "Diyālá",
        "population": -1,
        "latitude": 34.606037,
        "longitude": 45.49507
    },
    {
        "name": "Qūjah Sbīlkah",
        "country": "Iraq",
        "province": "Arbīl",
        "population": -1,
        "latitude": 35.615282,
        "longitude": 43.633631
    },
    {
        "name": "Kirdī Qilrikh",
        "country": "Iraq",
        "province": "Sulaymaniyah",
        "population": -1,
        "latitude": 35.354489,
        "longitude": 45.838022
    },
    {
        "name": "Qalā Tawpzān",
        "country": "Iraq",
        "province": "Sulaymaniyah",
        "population": -1,
        "latitude": 34.968251,
        "longitude": 45.461386
    },
    {
        "name": "Qule Sutaw",
        "country": "Iraq",
        "province": "Sulaymaniyah",
        "population": -1,
        "latitude": 34.71718,
        "longitude": 45.46215
    },
    {
        "name": "Mujamma‘ Qalā Chuwālān",
        "country": "Iraq",
        "province": "Sulaymaniyah",
        "population": -1,
        "latitude": 35.698677,
        "longitude": 45.542428
    },
    {
        "name": "Pīrūmarah",
        "country": "Iraq",
        "province": "Duhok",
        "population": -1,
        "latitude": 36.894736,
        "longitude": 42.991448
    },
    {
        "name": "Pīrah Kaprah",
        "country": "Iraq",
        "province": "Nineveh",
        "population": -1,
        "latitude": 36.862513,
        "longitude": 44.018454
    },
    {
        "name": "Płinge Serû",
        "country": "Iraq",
        "province": "Sulaymaniyah",
        "population": -1,
        "latitude": 35.709167,
        "longitude": 45.640748
    },
    {
        "name": "Pāryāwilah al ‘Ulyā",
        "country": "Iraq",
        "province": "Sulaymaniyah",
        "population": -1,
        "latitude": 34.899057,
        "longitude": 45.498793
    },
    {
        "name": "Bālah Wushk",
        "country": "Iraq",
        "province": "Sulaymaniyah",
        "population": -1,
        "latitude": 34.899011,
        "longitude": 45.159064
    },
    {
        "name": "Maysharaw",
        "country": "Iraq",
        "province": "Sulaymaniyah",
        "population": -1,
        "latitude": 35.798703,
        "longitude": 45.853572
    },
    {
        "name": "Al Yaqā‘ulyā",
        "country": "Iraq",
        "province": "Sulaymaniyah",
        "population": -1,
        "latitude": 36.059028,
        "longitude": 44.881667
    },
    {
        "name": "Mil Maydān",
        "country": "Iraq",
        "province": "Duhok",
        "population": -1,
        "latitude": 37.040399,
        "longitude": 43.769436
    },
    {
        "name": "Dāwiliyān",
        "country": "Iraq",
        "province": "Arbīl",
        "population": -1,
        "latitude": 36.607278,
        "longitude": 44.651694
    },
    {
        "name": "Mandalī",
        "country": "Iraq",
        "province": "Diyālá",
        "population": 29785,
        "latitude": 33.748103,
        "longitude": 45.555028
    },
    {
        "name": "Abātī",
        "country": "Iraq",
        "province": "Duhok",
        "population": -1,
        "latitude": 37.21715,
        "longitude": 43.451299
    },
    {
        "name": "Kuwāmī",
        "country": "Iraq",
        "province": "Duhok",
        "population": -1,
        "latitude": 37.084511,
        "longitude": 43.524638
    },
    {
        "name": "Kurmay",
        "country": "Iraq",
        "province": "Duhok",
        "population": -1,
        "latitude": 37.069269,
        "longitude": 43.119584
    },
    {
        "name": "Gufkī Suflá",
        "country": "Iraq",
        "province": "Duhok",
        "population": -1,
        "latitude": 37.109724,
        "longitude": 43.057322
    },
    {
        "name": "Khapah Kuwayr",
        "country": "Iraq",
        "province": "Sulaymaniyah",
        "population": -1,
        "latitude": 34.930492,
        "longitude": 45.048147
    },
    {
        "name": "Khalūk",
        "country": "Iraq",
        "province": "Sulaymaniyah",
        "population": -1,
        "latitude": 34.815431,
        "longitude": 45.380334
    },
    {
        "name": "Ghilbîsh",
        "country": "Iraq",
        "province": "Duhok",
        "population": -1,
        "latitude": 37.102101,
        "longitude": 43.202875
    },
    {
        "name": "Kanî Belav",
        "country": "Iraq",
        "province": "Duhok",
        "population": -1,
        "latitude": 37.178219,
        "longitude": 43.185484
    },
    {
        "name": "Kaylān",
        "country": "Iraq",
        "province": "Nineveh",
        "population": -1,
        "latitude": 36.654388,
        "longitude": 43.996174
    },
    {
        "name": "Astīryān",
        "country": "Iraq",
        "province": "Nineveh",
        "population": -1,
        "latitude": 36.618553,
        "longitude": 44.157204
    },
    {
        "name": "Ashkaftikī",
        "country": "Iraq",
        "province": "Duhok",
        "population": -1,
        "latitude": 36.897622,
        "longitude": 42.711703
    },
    {
        "name": "Hīt",
        "country": "Iraq",
        "province": "Al Anbar",
        "population": 31901,
        "latitude": 33.636636,
        "longitude": 42.827683
    },
    {
        "name": "Hawshqūrah",
        "country": "Iraq",
        "province": "Diyālá",
        "population": -1,
        "latitude": 34.566301,
        "longitude": 45.463678
    },
    {
        "name": "Hūchāwah",
        "country": "Iraq",
        "province": "Duhok",
        "population": -1,
        "latitude": 37.01005,
        "longitude": 43.047161
    },
    {
        "name": "Qaryat Ḩamzah",
        "country": "Iraq",
        "province": "Duhok",
        "population": -1,
        "latitude": 37.092583,
        "longitude": 43.427028
    },
    {
        "name": "Ḩājjī Baykhan",
        "country": "Iraq",
        "province": "Kirkuk",
        "population": -1,
        "latitude": 35.70764,
        "longitude": 44.48509
    },
    {
        "name": "Ḩadīthah",
        "country": "Iraq",
        "province": "Al Anbar",
        "population": 30925,
        "latitude": 34.136607,
        "longitude": 42.377267
    },
    {
        "name": "Chawmān",
        "country": "Iraq",
        "province": "Arbīl",
        "population": -1,
        "latitude": 36.659083,
        "longitude": 44.703083
    },
    {
        "name": "Culal Kawe",
        "country": "Iraq",
        "province": "Sulaymaniyah",
        "population": -1,
        "latitude": 34.847203,
        "longitude": 45.470746
    },
    {
        "name": "Kuwayj Kalān",
        "country": "Iraq",
        "province": "Sulaymaniyah",
        "population": -1,
        "latitude": 36.38839,
        "longitude": 44.736543
    },
    {
        "name": "Qaryat Kawmah Zard",
        "country": "Iraq",
        "province": "Sulaymaniyah",
        "population": -1,
        "latitude": 34.800288,
        "longitude": 45.303729
    },
    {
        "name": "Kird Dashīyah",
        "country": "Iraq",
        "province": "Arbīl",
        "population": -1,
        "latitude": 35.824257,
        "longitude": 43.635251
    },
    {
        "name": "Gir Badū",
        "country": "Iraq",
        "province": "Nineveh",
        "population": -1,
        "latitude": 36.531502,
        "longitude": 43.70569
    },
    {
        "name": "Gawre",
        "country": "Iraq",
        "province": "Arbīl",
        "population": -1,
        "latitude": 35.790237,
        "longitude": 43.64912
    },
    {
        "name": "Garmik",
        "country": "Iraq",
        "province": "Nineveh",
        "population": -1,
        "latitude": 36.642851,
        "longitude": 44.027512
    },
    {
        "name": "Ayndizah",
        "country": "Iraq",
        "province": "Sulaymaniyah",
        "population": -1,
        "latitude": 36.437414,
        "longitude": 44.896061
    },
    {
        "name": "Dayray",
        "country": "Iraq",
        "province": "Duhok",
        "population": -1,
        "latitude": 37.096208,
        "longitude": 43.517365
    },
    {
        "name": "Dawidyê",
        "country": "Iraq",
        "province": "Duhok",
        "population": -1,
        "latitude": 37.089523,
        "longitude": 43.221411
    },
    {
        "name": "Darkār Mīrī",
        "country": "Iraq",
        "province": "Duhok",
        "population": -1,
        "latitude": 37.205326,
        "longitude": 42.78256
    },
    {
        "name": "Chelkê",
        "country": "Iraq",
        "province": "Duhok",
        "population": -1,
        "latitude": 37.045222,
        "longitude": 43.6715
    },
    {
        "name": "Būjīl",
        "country": "Iraq",
        "province": "Nineveh",
        "population": -1,
        "latitude": 36.726194,
        "longitude": 44.014917
    },
    {
        "name": "Bumlah",
        "country": "Iraq",
        "province": "Sulaymaniyah",
        "population": -1,
        "latitude": 36.433556,
        "longitude": 44.965056
    },
    {
        "name": "Biye Ṟesh",
        "country": "Iraq",
        "province": "Sulaymaniyah",
        "population": -1,
        "latitude": 36.377034,
        "longitude": 45.011259
    },
    {
        "name": "Baydiyāl",
        "country": "Iraq",
        "province": "Arbīl",
        "population": -1,
        "latitude": 36.932086,
        "longitude": 44.140927
    },
    {
        "name": "Bêbad Nesara",
        "country": "Iraq",
        "province": "Duhok",
        "population": -1,
        "latitude": 37.099568,
        "longitude": 43.452881
    },
    {
        "name": "Kumelgeha Bêrsivê",
        "country": "Iraq",
        "province": "Duhok",
        "population": -1,
        "latitude": 37.191126,
        "longitude": 42.855758
    },
    {
        "name": "Bay Rūway",
        "country": "Iraq",
        "province": "Arbīl",
        "population": -1,
        "latitude": 36.433941,
        "longitude": 44.510637
    },
    {
        "name": "Baykhmah",
        "country": "Iraq",
        "province": "Nineveh",
        "population": -1,
        "latitude": 36.662861,
        "longitude": 44.224806
    },
    {
        "name": "Bayrkat",
        "country": "Iraq",
        "province": "Duhok",
        "population": -1,
        "latitude": 36.870681,
        "longitude": 43.470637
    },
    {
        "name": "Bayjī",
        "country": "Iraq",
        "province": "Salah ad Din",
        "population": 36454,
        "latitude": 34.92915,
        "longitude": 43.488778
    },
    {
        "name": "Bāwark Ka‘bah",
        "country": "Iraq",
        "province": "Duhok",
        "population": -1,
        "latitude": 37.049319,
        "longitude": 43.423602
    },
    {
        "name": "Bāstikah as Suflá",
        "country": "Iraq",
        "province": "Duhok",
        "population": -1,
        "latitude": 36.942994,
        "longitude": 42.707652
    },
    {
        "name": "Bāstikah al ‘Ulyā",
        "country": "Iraq",
        "province": "Duhok",
        "population": -1,
        "latitude": 36.956267,
        "longitude": 42.72339
    },
    {
        "name": "Barūshkī",
        "country": "Iraq",
        "province": "Duhok",
        "population": -1,
        "latitude": 37.067437,
        "longitude": 43.08084
    },
    {
        "name": "Qaşr Baksāyah",
        "country": "Iraq",
        "province": "Wāsiţ",
        "population": -1,
        "latitude": 32.894822,
        "longitude": 46.435647
    },
    {
        "name": "Bālchūgh",
        "country": "Iraq",
        "province": "Sulaymaniyah",
        "population": -1,
        "latitude": 35.532529,
        "longitude": 45.341082
    },
    {
        "name": "Balad",
        "country": "Iraq",
        "province": "Salah ad Din",
        "population": 42088,
        "latitude": 34.014846,
        "longitude": 44.145737
    },
    {
        "name": "Kumelgeha Bacid Kendal",
        "country": "Iraq",
        "province": "Duhok",
        "population": -1,
        "latitude": 37.046877,
        "longitude": 42.450463
    },
    {
        "name": "Bile",
        "country": "Iraq",
        "province": "Arbīl",
        "population": -1,
        "latitude": 36.864824,
        "longitude": 44.066156
    },
    {
        "name": "Vasīrkī",
        "country": "Iraq",
        "province": "Duhok",
        "population": -1,
        "latitude": 37.18536,
        "longitude": 43.579475
    },
    {
        "name": "Aş Şuwayrah",
        "country": "Iraq",
        "province": "Wāsiţ",
        "population": 42354,
        "latitude": 32.925556,
        "longitude": 44.775833
    },
    {
        "name": "Nāḩiyat ash Shināfīyah",
        "country": "Iraq",
        "province": "Al Qādisīyah",
        "population": 22643,
        "latitude": 31.583765,
        "longitude": 44.646752
    },
    {
        "name": "Ash Sharqāţ",
        "country": "Iraq",
        "province": "Salah ad Din",
        "population": -1,
        "latitude": 35.486038,
        "longitude": 43.240801
    },
    {
        "name": "Ash Shāmīyah",
        "country": "Iraq",
        "province": "Al Qādisīyah",
        "population": 57661,
        "latitude": 31.962568,
        "longitude": 44.60075
    },
    {
        "name": "Ar Rumaythah",
        "country": "Iraq",
        "province": "Al Muthanná",
        "population": 47248,
        "latitude": 31.528454,
        "longitude": 45.203772
    },
    {
        "name": "Eredin Nesara",
        "country": "Iraq",
        "province": "Duhok",
        "population": -1,
        "latitude": 37.108936,
        "longitude": 43.318055
    },
    {
        "name": "Akre",
        "country": "Iraq",
        "province": "Nineveh",
        "population": 23000,
        "latitude": 36.76038,
        "longitude": 43.894283
    },
    {
        "name": "Āltūn Kawbrī",
        "country": "Iraq",
        "province": "Kirkuk",
        "population": -1,
        "latitude": 35.75344,
        "longitude": 44.14727
    },
    {
        "name": "Al Musayyib",
        "country": "Iraq",
        "province": "Bābil",
        "population": 42901,
        "latitude": 32.778724,
        "longitude": 44.290052
    },
    {
        "name": "Al Miqdādīyah",
        "country": "Iraq",
        "province": "Diyālá",
        "population": 50698,
        "latitude": 33.978611,
        "longitude": 44.936944
    },
    {
        "name": "Gofki",
        "country": "Iraq",
        "province": "Duhok",
        "population": -1,
        "latitude": 37.109639,
        "longitude": 43.057778
    },
    {
        "name": "Āghā Būrjī",
        "country": "Iraq",
        "province": "Duhok",
        "population": -1,
        "latitude": 37.072329,
        "longitude": 43.582594
    },
    {
        "name": "Bābūr",
        "country": "Iraq",
        "province": "Diyālá",
        "population": -1,
        "latitude": 34.75408,
        "longitude": 45.493346
    },
    {
        "name": "Zaxu",
        "country": "Iraq",
        "province": "Duhok",
        "population": -1,
        "latitude": 37.14246,
        "longitude": 42.681865
    },
    {
        "name": "Kabarlī",
        "country": "Iraq",
        "province": "Kirkuk",
        "population": -1,
        "latitude": 35.36494,
        "longitude": 44.02665
    },
    {
        "name": "Tūkhmā Khulū al Kubrá",
        "country": "Iraq",
        "province": "Kirkuk",
        "population": -1,
        "latitude": 35.364569,
        "longitude": 44.392879
    },
    {
        "name": "Abaywah",
        "country": "Iraq",
        "province": "Sulaymaniyah",
        "population": -1,
        "latitude": 36.060635,
        "longitude": 45.272778
    },
    {
        "name": "Sajbū",
        "country": "Iraq",
        "province": "Sulaymaniyah",
        "population": -1,
        "latitude": 35.469707,
        "longitude": 45.933319
    },
    {
        "name": "Kilaynah Nāşiḩ",
        "country": "Iraq",
        "province": "Sulaymaniyah",
        "population": -1,
        "latitude": 35.762379,
        "longitude": 45.876621
    },
    {
        "name": "Mīrāwdalī",
        "country": "Iraq",
        "province": "Sulaymaniyah",
        "population": -1,
        "latitude": 35.802606,
        "longitude": 45.891135
    },
    {
        "name": "Teṟa Tewen",
        "country": "Iraq",
        "province": "Sulaymaniyah",
        "population": -1,
        "latitude": 35.52469,
        "longitude": 45.875372
    },
    {
        "name": "Nizare",
        "country": "Iraq",
        "province": "Sulaymaniyah",
        "population": -1,
        "latitude": 35.681513,
        "longitude": 45.960959
    },
    {
        "name": "Bākhī",
        "country": "Iraq",
        "province": "Sulaymaniyah",
        "population": -1,
        "latitude": 35.564202,
        "longitude": 45.956427
    },
    {
        "name": "Tāzah Dayy",
        "country": "Iraq",
        "province": "Sulaymaniyah",
        "population": -1,
        "latitude": 35.531787,
        "longitude": 45.959416
    },
    {
        "name": "Tūtmān Bijūk Suflá",
        "country": "Iraq",
        "province": "Sulaymaniyah",
        "population": -1,
        "latitude": 35.530676,
        "longitude": 45.991452
    },
    {
        "name": "Girgashe",
        "country": "Iraq",
        "province": "Sulaymaniyah",
        "population": -1,
        "latitude": 35.993319,
        "longitude": 45.503278
    },
    {
        "name": "‘Umar Āghā Khān Wālī Rustam",
        "country": "Iraq",
        "province": "Sulaymaniyah",
        "population": -1,
        "latitude": 35.018321,
        "longitude": 45.335881
    },
    {
        "name": "Ḩamah Faraj",
        "country": "Iraq",
        "province": "Sulaymaniyah",
        "population": -1,
        "latitude": 35.096425,
        "longitude": 45.261052
    },
    {
        "name": "Zindānah",
        "country": "Iraq",
        "province": "Sulaymaniyah",
        "population": -1,
        "latitude": 35.189469,
        "longitude": 45.278793
    },
    {
        "name": "Sūlakān",
        "country": "Iraq",
        "province": "Sulaymaniyah",
        "population": -1,
        "latitude": 35.383861,
        "longitude": 45.486553
    },
    {
        "name": "Kānī Kilāw",
        "country": "Iraq",
        "province": "Sulaymaniyah",
        "population": -1,
        "latitude": 35.681808,
        "longitude": 45.398087
    },
    {
        "name": "Kuwayzīlā",
        "country": "Iraq",
        "province": "Sulaymaniyah",
        "population": -1,
        "latitude": 35.853454,
        "longitude": 45.267557
    },
    {
        "name": "Dashtī",
        "country": "Iraq",
        "province": "Sulaymaniyah",
        "population": -1,
        "latitude": 35.993943,
        "longitude": 45.487164
    },
    {
        "name": "Sharshat as Suflá",
        "country": "Iraq",
        "province": "Sulaymaniyah",
        "population": -1,
        "latitude": 35.093807,
        "longitude": 45.878867
    },
    {
        "name": "Kawkawyī",
        "country": "Iraq",
        "province": "Sulaymaniyah",
        "population": -1,
        "latitude": 35.100094,
        "longitude": 45.778462
    },
    {
        "name": "Bashan Bīrk",
        "country": "Iraq",
        "province": "Sulaymaniyah",
        "population": -1,
        "latitude": 35.135491,
        "longitude": 45.848951
    },
    {
        "name": "Kānī Karwashkān",
        "country": "Iraq",
        "province": "Sulaymaniyah",
        "population": -1,
        "latitude": 35.136096,
        "longitude": 45.901412
    },
    {
        "name": "Gune",
        "country": "Iraq",
        "province": "Sulaymaniyah",
        "population": -1,
        "latitude": 35.148899,
        "longitude": 45.904787
    },
    {
        "name": "Chirustan",
        "country": "Iraq",
        "province": "Sulaymaniyah",
        "population": -1,
        "latitude": 35.157597,
        "longitude": 45.893601
    },
    {
        "name": "Xulam-î Serû",
        "country": "Iraq",
        "province": "Sulaymaniyah",
        "population": -1,
        "latitude": 35.180071,
        "longitude": 45.87803
    },
    {
        "name": "Kūlān",
        "country": "Iraq",
        "province": "Sulaymaniyah",
        "population": -1,
        "latitude": 35.208832,
        "longitude": 45.786464
    },
    {
        "name": "Kānī Shaykh",
        "country": "Iraq",
        "province": "Sulaymaniyah",
        "population": -1,
        "latitude": 35.240404,
        "longitude": 45.906332
    },
    {
        "name": "Qalwazah ‘Ulyā",
        "country": "Iraq",
        "province": "Sulaymaniyah",
        "population": -1,
        "latitude": 35.250096,
        "longitude": 45.776048
    },
    {
        "name": "Cancan",
        "country": "Iraq",
        "province": "Sulaymaniyah",
        "population": -1,
        "latitude": 35.256726,
        "longitude": 45.937862
    },
    {
        "name": "Bishārah as Suflá",
        "country": "Iraq",
        "province": "Sulaymaniyah",
        "population": -1,
        "latitude": 35.261884,
        "longitude": 45.952422
    },
    {
        "name": "Mastekan-î Serû",
        "country": "Iraq",
        "province": "Sulaymaniyah",
        "population": -1,
        "latitude": 35.326678,
        "longitude": 45.917906
    },
    {
        "name": "Banī Karam",
        "country": "Iraq",
        "province": "Sulaymaniyah",
        "population": -1,
        "latitude": 35.338578,
        "longitude": 45.756072
    },
    {
        "name": "Kirdī Suwaylah Maysh",
        "country": "Iraq",
        "province": "Sulaymaniyah",
        "population": -1,
        "latitude": 35.351956,
        "longitude": 45.800577
    },
    {
        "name": "Mīrī Sūr",
        "country": "Iraq",
        "province": "Sulaymaniyah",
        "population": -1,
        "latitude": 35.371181,
        "longitude": 45.997548
    },
    {
        "name": "Darah Kawlān",
        "country": "Iraq",
        "province": "Sulaymaniyah",
        "population": -1,
        "latitude": 35.37847,
        "longitude": 45.976115
    },
    {
        "name": "Chawmah Rashsh",
        "country": "Iraq",
        "province": "Sulaymaniyah",
        "population": -1,
        "latitude": 35.451804,
        "longitude": 45.980721
    },
    {
        "name": "Bawrīdah",
        "country": "Iraq",
        "province": "Sulaymaniyah",
        "population": -1,
        "latitude": 35.45305,
        "longitude": 45.963367
    },
    {
        "name": "Eshkewtan",
        "country": "Iraq",
        "province": "Sulaymaniyah",
        "population": -1,
        "latitude": 35.478724,
        "longitude": 45.803896
    },
    {
        "name": "Jawwālī al Ma‘rūf",
        "country": "Iraq",
        "province": "Sulaymaniyah",
        "population": -1,
        "latitude": 35.482897,
        "longitude": 45.849348
    },
    {
        "name": "Barbard",
        "country": "Iraq",
        "province": "Sulaymaniyah",
        "population": -1,
        "latitude": 35.485617,
        "longitude": 45.790729
    },
    {
        "name": "Sansal",
        "country": "Iraq",
        "province": "Diyālá",
        "population": -1,
        "latitude": 33.997293,
        "longitude": 44.87904
    },
    {
        "name": "Gerimkan",
        "country": "Iraq",
        "province": "Sulaymaniyah",
        "population": -1,
        "latitude": 36.127613,
        "longitude": 45.116623
    },
    {
        "name": "Saynājiyān",
        "country": "Iraq",
        "province": "Sulaymaniyah",
        "population": -1,
        "latitude": 36.043518,
        "longitude": 45.019718
    },
    {
        "name": "Aş Şulayjīyah",
        "country": "Iraq",
        "province": "An Najaf",
        "population": -1,
        "latitude": 32.102678,
        "longitude": 44.543213
    },
    {
        "name": "Kumelgeha Simayl Ava",
        "country": "Iraq",
        "province": "Duhok",
        "population": -1,
        "latitude": 36.963854,
        "longitude": 42.64537
    },
    {
        "name": "Ḩafshay Rashsh",
        "country": "Iraq",
        "province": "Duhok",
        "population": -1,
        "latitude": 36.970222,
        "longitude": 42.566277
    },
    {
        "name": "Shekrava",
        "country": "Iraq",
        "province": "Duhok",
        "population": -1,
        "latitude": 36.94175,
        "longitude": 42.65
    },
    {
        "name": "Sulāf",
        "country": "Iraq",
        "province": "Duhok",
        "population": -1,
        "latitude": 36.942292,
        "longitude": 42.673675
    },
    {
        "name": "Daḩlik Malik",
        "country": "Iraq",
        "province": "Duhok",
        "population": -1,
        "latitude": 37.272247,
        "longitude": 42.72951
    },
    {
        "name": "Ayrah",
        "country": "Iraq",
        "province": "Duhok",
        "population": -1,
        "latitude": 37.294838,
        "longitude": 42.832061
    },
    {
        "name": "Qesruk",
        "country": "Iraq",
        "province": "Duhok",
        "population": -1,
        "latitude": 37.292325,
        "longitude": 42.765892
    },
    {
        "name": "Mayrgah Shīsh",
        "country": "Iraq",
        "province": "Duhok",
        "population": -1,
        "latitude": 37.309321,
        "longitude": 42.823862
    },
    {
        "name": "Geluk",
        "country": "Iraq",
        "province": "Duhok",
        "population": -1,
        "latitude": 37.305147,
        "longitude": 42.909181
    },
    {
        "name": "Āvagūzī",
        "country": "Iraq",
        "province": "Duhok",
        "population": -1,
        "latitude": 37.33488,
        "longitude": 42.856716
    },
    {
        "name": "Der Celal",
        "country": "Iraq",
        "province": "Duhok",
        "population": -1,
        "latitude": 37.20581,
        "longitude": 42.750023
    },
    {
        "name": "Haciya",
        "country": "Iraq",
        "province": "Duhok",
        "population": -1,
        "latitude": 37.025573,
        "longitude": 42.681051
    },
    {
        "name": "Avzarūk ‘Alī",
        "country": "Iraq",
        "province": "Duhok",
        "population": -1,
        "latitude": 37.020118,
        "longitude": 42.512706
    },
    {
        "name": "Girkel",
        "country": "Iraq",
        "province": "Duhok",
        "population": -1,
        "latitude": 37.038535,
        "longitude": 42.509989
    },
    {
        "name": "Ḩasan Āwah",
        "country": "Iraq",
        "province": "Duhok",
        "population": -1,
        "latitude": 37.084933,
        "longitude": 42.659969
    },
    {
        "name": "Dasht Mīr aş Şaghīrah",
        "country": "Iraq",
        "province": "Duhok",
        "population": -1,
        "latitude": 37.115325,
        "longitude": 42.709196
    },
    {
        "name": "Selka",
        "country": "Iraq",
        "province": "Duhok",
        "population": -1,
        "latitude": 37.119003,
        "longitude": 42.641234
    },
    {
        "name": "Dasht Mīr al Kabīrah",
        "country": "Iraq",
        "province": "Duhok",
        "population": -1,
        "latitude": 37.112488,
        "longitude": 42.697116
    },
    {
        "name": "Cham Sarm",
        "country": "Iraq",
        "province": "Duhok",
        "population": -1,
        "latitude": 37.130139,
        "longitude": 42.719562
    },
    {
        "name": "Khaylakh",
        "country": "Iraq",
        "province": "Duhok",
        "population": -1,
        "latitude": 37.126448,
        "longitude": 42.613495
    },
    {
        "name": "Kaystah",
        "country": "Iraq",
        "province": "Duhok",
        "population": -1,
        "latitude": 37.257015,
        "longitude": 43.160317
    },
    {
        "name": "Dūray",
        "country": "Iraq",
        "province": "Duhok",
        "population": -1,
        "latitude": 37.223558,
        "longitude": 43.468236
    },
    {
        "name": "Jadīduk",
        "country": "Iraq",
        "province": "Duhok",
        "population": -1,
        "latitude": 37.207369,
        "longitude": 43.279859
    },
    {
        "name": "Batufa barwari",
        "country": "Iraq",
        "province": "Duhok",
        "population": -1,
        "latitude": 37.205189,
        "longitude": 43.341412
    },
    {
        "name": "Ishmāylah",
        "country": "Iraq",
        "province": "Duhok",
        "population": -1,
        "latitude": 37.20808,
        "longitude": 43.460269
    },
    {
        "name": "Zekeriya",
        "country": "Iraq",
        "province": "Duhok",
        "population": -1,
        "latitude": 37.18228,
        "longitude": 43.332667
    },
    {
        "name": "Mūskah",
        "country": "Iraq",
        "province": "Duhok",
        "population": -1,
        "latitude": 37.177115,
        "longitude": 43.297259
    },
    {
        "name": "Tushambik",
        "country": "Iraq",
        "province": "Duhok",
        "population": -1,
        "latitude": 37.17858,
        "longitude": 43.291538
    },
    {
        "name": "Bāzah",
        "country": "Iraq",
        "province": "Duhok",
        "population": -1,
        "latitude": 37.176689,
        "longitude": 43.262097
    },
    {
        "name": "Dargal",
        "country": "Iraq",
        "province": "Duhok",
        "population": -1,
        "latitude": 37.169259,
        "longitude": 43.315387
    },
    {
        "name": "Margalī",
        "country": "Iraq",
        "province": "Duhok",
        "population": -1,
        "latitude": 37.170424,
        "longitude": 43.442452
    },
    {
        "name": "Sūlav",
        "country": "Iraq",
        "province": "Duhok",
        "population": -1,
        "latitude": 37.105,
        "longitude": 43.4833333
    },
    {
        "name": "Ibrāhīm Zilah",
        "country": "Iraq",
        "province": "Duhok",
        "population": -1,
        "latitude": 37.072115,
        "longitude": 43.474941
    },
    {
        "name": "Qaryat Bilay Jān",
        "country": "Iraq",
        "province": "Duhok",
        "population": -1,
        "latitude": 37.088528,
        "longitude": 43.440333
    },
    {
        "name": "Banathin",
        "country": "Iraq",
        "province": "Duhok",
        "population": -1,
        "latitude": 37.085688,
        "longitude": 43.376032
    },
    {
        "name": "Shaykh Māmah",
        "country": "Iraq",
        "province": "Duhok",
        "population": -1,
        "latitude": 37.080191,
        "longitude": 43.260498
    },
    {
        "name": "Kanīkah",
        "country": "Iraq",
        "province": "Duhok",
        "population": -1,
        "latitude": 37.066432,
        "longitude": 43.265425
    },
    {
        "name": "Pīrūzānah",
        "country": "Iraq",
        "province": "Duhok",
        "population": -1,
        "latitude": 37.045083,
        "longitude": 43.493518
    },
    {
        "name": "Qaryat Bānīnbilah",
        "country": "Iraq",
        "province": "Duhok",
        "population": -1,
        "latitude": 37.04859,
        "longitude": 43.48611
    },
    {
        "name": "Bībāfah",
        "country": "Iraq",
        "province": "Duhok",
        "population": -1,
        "latitude": 37.03425,
        "longitude": 43.280418
    },
    {
        "name": "Duhīkay",
        "country": "Iraq",
        "province": "Duhok",
        "population": -1,
        "latitude": 37.037491,
        "longitude": 43.388928
    },
    {
        "name": "Sarkūkī",
        "country": "Iraq",
        "province": "Duhok",
        "population": -1,
        "latitude": 37.039,
        "longitude": 43.393833
    },
    {
        "name": "Hevindika",
        "country": "Iraq",
        "province": "Duhok",
        "population": -1,
        "latitude": 37.035976,
        "longitude": 43.458155
    },
    {
        "name": "Bāwirkī Sarkawir",
        "country": "Iraq",
        "province": "Duhok",
        "population": -1,
        "latitude": 37.032222,
        "longitude": 43.395917
    },
    {
        "name": "Ashewa",
        "country": "Iraq",
        "province": "Duhok",
        "population": -1,
        "latitude": 37.025177,
        "longitude": 43.290691
    },
    {
        "name": "Tāshīkah",
        "country": "Iraq",
        "province": "Duhok",
        "population": -1,
        "latitude": 37.024487,
        "longitude": 43.281428
    },
    {
        "name": "Sīgirī",
        "country": "Iraq",
        "province": "Duhok",
        "population": -1,
        "latitude": 37.081869,
        "longitude": 43.547098
    },
    {
        "name": "Dārbasar aş Şughrá",
        "country": "Iraq",
        "province": "Arbīl",
        "population": -1,
        "latitude": 35.992106,
        "longitude": 44.488076
    },
    {
        "name": "‘Ayn Musīd",
        "country": "Iraq",
        "province": "Arbīl",
        "population": -1,
        "latitude": 36.946275,
        "longitude": 44.406859
    },
    {
        "name": "Kalawk",
        "country": "Iraq",
        "province": "Arbīl",
        "population": -1,
        "latitude": 36.916483,
        "longitude": 44.336833
    },
    {
        "name": "Māmishk",
        "country": "Iraq",
        "province": "Arbīl",
        "population": -1,
        "latitude": 36.919626,
        "longitude": 44.279428
    },
    {
        "name": "Bīrisīyah",
        "country": "Iraq",
        "province": "Arbīl",
        "population": -1,
        "latitude": 36.949556,
        "longitude": 44.274639
    },
    {
        "name": "Masānah",
        "country": "Iraq",
        "province": "Arbīl",
        "population": -1,
        "latitude": 36.891123,
        "longitude": 44.373779
    },
    {
        "name": "Kawulan",
        "country": "Iraq",
        "province": "Arbīl",
        "population": -1,
        "latitude": 36.889618,
        "longitude": 44.362574
    },
    {
        "name": "Kūlkī",
        "country": "Iraq",
        "province": "Arbīl",
        "population": -1,
        "latitude": 36.881111,
        "longitude": 44.254313
    },
    {
        "name": "Banī Biyah",
        "country": "Iraq",
        "province": "Arbīl",
        "population": -1,
        "latitude": 36.864139,
        "longitude": 44.286222
    },
    {
        "name": "Bīstray",
        "country": "Iraq",
        "province": "Arbīl",
        "population": -1,
        "latitude": 36.862836,
        "longitude": 44.315345
    },
    {
        "name": "Malesuwar",
        "country": "Iraq",
        "province": "Arbīl",
        "population": -1,
        "latitude": 36.858568,
        "longitude": 44.276185
    },
    {
        "name": "Xoshken",
        "country": "Iraq",
        "province": "Arbīl",
        "population": -1,
        "latitude": 36.836461,
        "longitude": 44.337412
    },
    {
        "name": "Bawkrān",
        "country": "Iraq",
        "province": "Arbīl",
        "population": -1,
        "latitude": 36.82965,
        "longitude": 44.400333
    },
    {
        "name": "Xerden",
        "country": "Iraq",
        "province": "Arbīl",
        "population": -1,
        "latitude": 36.818292,
        "longitude": 44.368403
    },
    {
        "name": "Mayrgān",
        "country": "Iraq",
        "province": "Arbīl",
        "population": -1,
        "latitude": 36.806294,
        "longitude": 44.373654
    },
    {
        "name": "Ashkiftah",
        "country": "Iraq",
        "province": "Arbīl",
        "population": -1,
        "latitude": 36.767203,
        "longitude": 44.428652
    },
    {
        "name": "Khirrah",
        "country": "Iraq",
        "province": "Arbīl",
        "population": -1,
        "latitude": 36.774763,
        "longitude": 44.416279
    },
    {
        "name": "Dīzī",
        "country": "Iraq",
        "province": "Arbīl",
        "population": -1,
        "latitude": 36.760383,
        "longitude": 44.310627
    },
    {
        "name": "Asqil",
        "country": "Iraq",
        "province": "Arbīl",
        "population": -1,
        "latitude": 36.766931,
        "longitude": 44.486957
    },
    {
        "name": "Bindar",
        "country": "Iraq",
        "province": "Arbīl",
        "population": -1,
        "latitude": 36.937543,
        "longitude": 44.438147
    },
    {
        "name": "Bacid Berav",
        "country": "Iraq",
        "province": "Duhok",
        "population": -1,
        "latitude": 37.020888,
        "longitude": 42.4029
    },
    {
        "name": "As Sa‘dīyah",
        "country": "Iraq",
        "province": "Diyālá",
        "population": -1,
        "latitude": 33.821121,
        "longitude": 44.411452
    },
    {
        "name": "Garḩah Rashādīyah",
        "country": "Iraq",
        "province": "Kirkuk",
        "population": -1,
        "latitude": 35.241203,
        "longitude": 44.033132
    },
    {
        "name": "Dūgmāt as Suflá",
        "country": "Iraq",
        "province": "Kirkuk",
        "population": -1,
        "latitude": 35.102075,
        "longitude": 44.070837
    },
    {
        "name": "Tall Tuwaym",
        "country": "Iraq",
        "province": "Kirkuk",
        "population": -1,
        "latitude": 35.241824,
        "longitude": 44.153848
    },
    {
        "name": "Sīnū",
        "country": "Iraq",
        "province": "Nineveh",
        "population": -1,
        "latitude": 36.364722,
        "longitude": 42.154722
    },
    {
        "name": "‘Ayn al Ḩişān",
        "country": "Iraq",
        "province": "Nineveh",
        "population": -1,
        "latitude": 36.308844,
        "longitude": 42.215768
    },
    {
        "name": "Lorke",
        "country": "Iraq",
        "province": "Arbīl",
        "population": -1,
        "latitude": 35.970288,
        "longitude": 44.212996
    },
    {
        "name": "Kalah Rashī Muḩammad Sulaymān",
        "country": "Iraq",
        "province": "Sulaymaniyah",
        "population": -1,
        "latitude": 35.34133,
        "longitude": 45.158675
    },
    {
        "name": "Qalwazah Rashsh",
        "country": "Iraq",
        "province": "Sulaymaniyah",
        "population": -1,
        "latitude": 35.194385,
        "longitude": 45.175884
    },
    {
        "name": "Pênc Engust Ḧacî Mḧemed Agha",
        "country": "Iraq",
        "province": "Sulaymaniyah",
        "population": -1,
        "latitude": 35.157608,
        "longitude": 45.237048
    },
    {
        "name": "Kuwayrak",
        "country": "Iraq",
        "province": "Diyālá",
        "population": -1,
        "latitude": 35.029717,
        "longitude": 45.726177
    },
    {
        "name": "Bānabī",
        "country": "Iraq",
        "province": "Diyālá",
        "population": -1,
        "latitude": 35.039897,
        "longitude": 45.710091
    },
    {
        "name": "Kawrah al Kabīrah",
        "country": "Iraq",
        "province": "Sulaymaniyah",
        "population": -1,
        "latitude": 35.27065,
        "longitude": 45.574849
    },
    {
        "name": "Kānī Bānkah as Suflá",
        "country": "Iraq",
        "province": "Sulaymaniyah",
        "population": -1,
        "latitude": 35.378641,
        "longitude": 45.711683
    },
    {
        "name": "Ḩamah Bārām",
        "country": "Iraq",
        "province": "Sulaymaniyah",
        "population": -1,
        "latitude": 35.41336,
        "longitude": 45.502492
    },
    {
        "name": "Al ‘Ibrah",
        "country": "Iraq",
        "province": "Nineveh",
        "population": -1,
        "latitude": 36.3909,
        "longitude": 42.273883
    },
    {
        "name": "Sayţalān al ‘Ulyā",
        "country": "Iraq",
        "province": "Sulaymaniyah",
        "population": -1,
        "latitude": 35.264762,
        "longitude": 45.591498
    },
    {
        "name": "Al Kakhrah",
        "country": "Iraq",
        "province": "Nineveh",
        "population": -1,
        "latitude": 36.555376,
        "longitude": 42.34783
    },
    {
        "name": "Wabshīyah",
        "country": "Iraq",
        "province": "Nineveh",
        "population": -1,
        "latitude": 36.683828,
        "longitude": 42.457883
    },
    {
        "name": "Maswatah",
        "country": "Iraq",
        "province": "Sulaymaniyah",
        "population": -1,
        "latitude": 35.226833,
        "longitude": 45.577517
    },
    {
        "name": "Dukero",
        "country": "Iraq",
        "province": "Sulaymaniyah",
        "population": -1,
        "latitude": 35.251261,
        "longitude": 45.548177
    },
    {
        "name": "Bāwah Khawshayn",
        "country": "Iraq",
        "province": "Sulaymaniyah",
        "population": -1,
        "latitude": 35.173176,
        "longitude": 45.612298
    },
    {
        "name": "Binajūt al Jadīdah",
        "country": "Iraq",
        "province": "Sulaymaniyah",
        "population": -1,
        "latitude": 35.394955,
        "longitude": 45.732493
    },
    {
        "name": "Waylakah aş Şaghīrah",
        "country": "Iraq",
        "province": "Sulaymaniyah",
        "population": -1,
        "latitude": 35.320606,
        "longitude": 45.532235
    },
    {
        "name": "Qarah Gawl as Suflá",
        "country": "Iraq",
        "province": "Sulaymaniyah",
        "population": -1,
        "latitude": 35.353168,
        "longitude": 45.62722
    },
    {
        "name": "Chenaxchiyan",
        "country": "Iraq",
        "province": "Sulaymaniyah",
        "population": -1,
        "latitude": 35.397396,
        "longitude": 45.679214
    },
    {
        "name": "Jirjah Qalā",
        "country": "Iraq",
        "province": "Sulaymaniyah",
        "population": -1,
        "latitude": 35.109766,
        "longitude": 45.521408
    },
    {
        "name": "Baystān Sūr al Jadīd",
        "country": "Iraq",
        "province": "Sulaymaniyah",
        "population": -1,
        "latitude": 35.38362,
        "longitude": 45.644724
    },
    {
        "name": "Baystān Sūr al Qadīm",
        "country": "Iraq",
        "province": "Sulaymaniyah",
        "population": -1,
        "latitude": 35.37829,
        "longitude": 45.637953
    },
    {
        "name": "Surke",
        "country": "Iraq",
        "province": "Duhok",
        "population": -1,
        "latitude": 36.807688,
        "longitude": 42.826257
    },
    {
        "name": "Shariya",
        "country": "Iraq",
        "province": "Duhok",
        "population": -1,
        "latitude": 36.811484,
        "longitude": 42.999842
    },
    {
        "name": "Aluka",
        "country": "Iraq",
        "province": "Duhok",
        "population": -1,
        "latitude": 36.83693,
        "longitude": 42.91841
    },
    {
        "name": "Gafīrkī",
        "country": "Iraq",
        "province": "Duhok",
        "population": -1,
        "latitude": 36.846895,
        "longitude": 42.939413
    },
    {
        "name": "Mālţah Naşārá",
        "country": "Iraq",
        "province": "Duhok",
        "population": -1,
        "latitude": 36.852764,
        "longitude": 42.933617
    },
    {
        "name": "Da‘lib",
        "country": "Iraq",
        "province": "Duhok",
        "population": -1,
        "latitude": 36.847792,
        "longitude": 42.905448
    },
    {
        "name": "Lezeka",
        "country": "Iraq",
        "province": "Duhok",
        "population": -1,
        "latitude": 36.858986,
        "longitude": 42.811849
    },
    {
        "name": "Manşūrīyah",
        "country": "Iraq",
        "province": "Duhok",
        "population": -1,
        "latitude": 36.866154,
        "longitude": 42.814778
    },
    {
        "name": "Kirīkūr",
        "country": "Iraq",
        "province": "Duhok",
        "population": -1,
        "latitude": 36.8604,
        "longitude": 42.761161
    },
    {
        "name": "Mavan",
        "country": "Iraq",
        "province": "Duhok",
        "population": -1,
        "latitude": 36.881024,
        "longitude": 42.769693
    },
    {
        "name": "Xirab Kulik",
        "country": "Iraq",
        "province": "Duhok",
        "population": -1,
        "latitude": 36.883067,
        "longitude": 42.806539
    },
    {
        "name": "Dargalik",
        "country": "Iraq",
        "province": "Duhok",
        "population": -1,
        "latitude": 36.877223,
        "longitude": 42.92754
    },
    {
        "name": "Sershur",
        "country": "Iraq",
        "province": "Duhok",
        "population": -1,
        "latitude": 36.906918,
        "longitude": 42.795568
    },
    {
        "name": "Bāgh Nīf",
        "country": "Iraq",
        "province": "Duhok",
        "population": -1,
        "latitude": 36.933194,
        "longitude": 42.977833
    },
    {
        "name": "Butiya",
        "country": "Iraq",
        "province": "Duhok",
        "population": -1,
        "latitude": 36.945749,
        "longitude": 42.99001
    },
    {
        "name": "Pīrakhat",
        "country": "Iraq",
        "province": "Duhok",
        "population": -1,
        "latitude": 36.958367,
        "longitude": 42.966102
    },
    {
        "name": "Xaziyava",
        "country": "Iraq",
        "province": "Duhok",
        "population": -1,
        "latitude": 36.944976,
        "longitude": 42.934153
    },
    {
        "name": "Hājisnah",
        "country": "Iraq",
        "province": "Duhok",
        "population": -1,
        "latitude": 36.951508,
        "longitude": 42.84416
    },
    {
        "name": "Buseryan",
        "country": "Iraq",
        "province": "Duhok",
        "population": -1,
        "latitude": 36.955335,
        "longitude": 42.824077
    },
    {
        "name": "Kirawīl",
        "country": "Iraq",
        "province": "Duhok",
        "population": -1,
        "latitude": 36.939872,
        "longitude": 42.810859
    },
    {
        "name": "Baskī",
        "country": "Iraq",
        "province": "Duhok",
        "population": -1,
        "latitude": 36.985947,
        "longitude": 42.891585
    },
    {
        "name": "Sershur",
        "country": "Iraq",
        "province": "Duhok",
        "population": -1,
        "latitude": 36.915794,
        "longitude": 42.783936
    },
    {
        "name": "Khāzūkat ash Sharqīyah",
        "country": "Iraq",
        "province": "Nineveh",
        "population": -1,
        "latitude": 36.594385,
        "longitude": 41.873769
    },
    {
        "name": "Qaryat al ‘Ankūr",
        "country": "Iraq",
        "province": "Al Anbar",
        "population": -1,
        "latitude": 33.250885,
        "longitude": 43.43202
    },
    {
        "name": "Hānī Dānk",
        "country": "Iraq",
        "province": "Sulaymaniyah",
        "population": -1,
        "latitude": 35.289433,
        "longitude": 46.112159
    },
    {
        "name": "Baysat al ‘Ulyā",
        "country": "Iraq",
        "province": "Nineveh",
        "population": -1,
        "latitude": 36.762222,
        "longitude": 43.488914
    },
    {
        "name": "Babkah",
        "country": "Iraq",
        "province": "Nineveh",
        "population": -1,
        "latitude": 36.814231,
        "longitude": 43.27889
    },
    {
        "name": "Dar Khaţrah",
        "country": "Iraq",
        "province": "Nineveh",
        "population": -1,
        "latitude": 36.821687,
        "longitude": 43.370794
    },
    {
        "name": "Khaţārah",
        "country": "Iraq",
        "province": "Nineveh",
        "population": -1,
        "latitude": 36.813258,
        "longitude": 43.484563
    },
    {
        "name": "Chamankī al ‘Ulyā",
        "country": "Iraq",
        "province": "Duhok",
        "population": -1,
        "latitude": 36.943185,
        "longitude": 43.412278
    },
    {
        "name": "Sūsnāwah",
        "country": "Iraq",
        "province": "Nineveh",
        "population": -1,
        "latitude": 36.756444,
        "longitude": 43.817222
    },
    {
        "name": "Milbirkah",
        "country": "Iraq",
        "province": "Nineveh",
        "population": -1,
        "latitude": 36.883327,
        "longitude": 43.415822
    },
    {
        "name": "Kafarkī",
        "country": "Iraq",
        "province": "Duhok",
        "population": -1,
        "latitude": 36.912278,
        "longitude": 43.40474
    },
    {
        "name": "Sārmah al ‘Ulyā",
        "country": "Iraq",
        "province": "Nineveh",
        "population": -1,
        "latitude": 36.746566,
        "longitude": 43.886565
    },
    {
        "name": "Baybawzī",
        "country": "Iraq",
        "province": "Nineveh",
        "population": -1,
        "latitude": 36.885406,
        "longitude": 43.315536
    },
    {
        "name": "Kūskī",
        "country": "Iraq",
        "province": "Nineveh",
        "population": -1,
        "latitude": 36.775457,
        "longitude": 43.952739
    },
    {
        "name": "Jalūkī",
        "country": "Iraq",
        "province": "Duhok",
        "population": -1,
        "latitude": 36.948521,
        "longitude": 43.333944
    },
    {
        "name": "Ashkaftah",
        "country": "Iraq",
        "province": "Nineveh",
        "population": -1,
        "latitude": 36.819326,
        "longitude": 43.930234
    },
    {
        "name": "Atush",
        "country": "Iraq",
        "province": "Duhok",
        "population": -1,
        "latitude": 36.933369,
        "longitude": 43.486978
    },
    {
        "name": "Shirtān",
        "country": "Iraq",
        "province": "Nineveh",
        "population": -1,
        "latitude": 36.802555,
        "longitude": 43.910453
    },
    {
        "name": "Kareva",
        "country": "Iraq",
        "province": "Duhok",
        "population": -1,
        "latitude": 36.911641,
        "longitude": 43.439065
    },
    {
        "name": "Ra’s al ‘Ayn",
        "country": "Iraq",
        "province": "Nineveh",
        "population": -1,
        "latitude": 36.776025,
        "longitude": 43.849217
    },
    {
        "name": "Kūskah",
        "country": "Iraq",
        "province": "Nineveh",
        "population": -1,
        "latitude": 36.830861,
        "longitude": 43.82725
    },
    {
        "name": "Siyān Ḩajjī",
        "country": "Iraq",
        "province": "Nineveh",
        "population": -1,
        "latitude": 36.835288,
        "longitude": 43.868602
    },
    {
        "name": "Siyān Tatū",
        "country": "Iraq",
        "province": "Nineveh",
        "population": -1,
        "latitude": 36.844677,
        "longitude": 43.866895
    },
    {
        "name": "Barznir",
        "country": "Iraq",
        "province": "Nineveh",
        "population": -1,
        "latitude": 36.879453,
        "longitude": 43.794605
    },
    {
        "name": "Dawdī",
        "country": "Iraq",
        "province": "Nineveh",
        "population": -1,
        "latitude": 36.868077,
        "longitude": 43.809635
    },
    {
        "name": "Dawdī aş Şaghīr",
        "country": "Iraq",
        "province": "Nineveh",
        "population": -1,
        "latitude": 36.851676,
        "longitude": 43.806171
    },
    {
        "name": "Artūn",
        "country": "Iraq",
        "province": "Nineveh",
        "population": -1,
        "latitude": 36.862278,
        "longitude": 43.840556
    },
    {
        "name": "Kīrah",
        "country": "Iraq",
        "province": "Nineveh",
        "population": -1,
        "latitude": 36.850503,
        "longitude": 43.85724
    },
    {
        "name": "Khinākah",
        "country": "Iraq",
        "province": "Nineveh",
        "population": -1,
        "latitude": 36.848512,
        "longitude": 43.86875
    },
    {
        "name": "Kūrkāwah",
        "country": "Iraq",
        "province": "Nineveh",
        "population": -1,
        "latitude": 36.905964,
        "longitude": 43.883382
    },
    {
        "name": "Jālay",
        "country": "Iraq",
        "province": "Nineveh",
        "population": -1,
        "latitude": 36.922054,
        "longitude": 43.916214
    },
    {
        "name": "‘Ayn Ḩulwah",
        "country": "Iraq",
        "province": "Nineveh",
        "population": -1,
        "latitude": 36.696211,
        "longitude": 43.014324
    },
    {
        "name": "Wisumeryan",
        "country": "Iraq",
        "province": "Arbīl",
        "population": -1,
        "latitude": 36.503731,
        "longitude": 43.910623
    },
    {
        "name": "Mendawe",
        "country": "Iraq",
        "province": "Arbīl",
        "population": -1,
        "latitude": 36.527915,
        "longitude": 43.924331
    },
    {
        "name": "Cheme Begez",
        "country": "Iraq",
        "province": "Arbīl",
        "population": -1,
        "latitude": 36.530884,
        "longitude": 43.943828
    },
    {
        "name": "Kird Lālān",
        "country": "Iraq",
        "province": "Arbīl",
        "population": -1,
        "latitude": 36.514219,
        "longitude": 43.954304
    },
    {
        "name": "Baghe Kon",
        "country": "Iraq",
        "province": "Sulaymaniyah",
        "population": -1,
        "latitude": 35.266427,
        "longitude": 46.106097
    },
    {
        "name": "Jawlarah",
        "country": "Iraq",
        "province": "Nineveh",
        "population": -1,
        "latitude": 36.578654,
        "longitude": 43.962896
    },
    {
        "name": "Gaylah Pismīr al Jadīd",
        "country": "Iraq",
        "province": "Nineveh",
        "population": -1,
        "latitude": 36.524845,
        "longitude": 43.86813
    },
    {
        "name": "Sarūkānī Palasān",
        "country": "Iraq",
        "province": "Nineveh",
        "population": -1,
        "latitude": 36.552834,
        "longitude": 43.770978
    },
    {
        "name": "Dirbistān al ‘Ulyā",
        "country": "Iraq",
        "province": "Nineveh",
        "population": -1,
        "latitude": 36.575346,
        "longitude": 43.749257
    },
    {
        "name": "Zilkah Fākhir",
        "country": "Iraq",
        "province": "Nineveh",
        "population": -1,
        "latitude": 36.622389,
        "longitude": 43.80925
    },
    {
        "name": "Khalānah",
        "country": "Iraq",
        "province": "Nineveh",
        "population": -1,
        "latitude": 36.605372,
        "longitude": 43.941321
    },
    {
        "name": "Girmkah",
        "country": "Iraq",
        "province": "Nineveh",
        "population": -1,
        "latitude": 36.608921,
        "longitude": 43.964126
    },
    {
        "name": "Kharjāwah",
        "country": "Iraq",
        "province": "Nineveh",
        "population": -1,
        "latitude": 36.667222,
        "longitude": 43.878306
    },
    {
        "name": "Nargzīn",
        "country": "Iraq",
        "province": "Nineveh",
        "population": -1,
        "latitude": 36.673583,
        "longitude": 43.894722
    },
    {
        "name": "Warmilah",
        "country": "Iraq",
        "province": "Nineveh",
        "population": -1,
        "latitude": 36.673667,
        "longitude": 43.915306
    },
    {
        "name": "Shīf Razah",
        "country": "Iraq",
        "province": "Nineveh",
        "population": -1,
        "latitude": 36.689583,
        "longitude": 43.91375
    },
    {
        "name": "Halīn",
        "country": "Iraq",
        "province": "Nineveh",
        "population": -1,
        "latitude": 36.6597,
        "longitude": 43.943847
    },
    {
        "name": "Dawstah",
        "country": "Iraq",
        "province": "Nineveh",
        "population": -1,
        "latitude": 36.657306,
        "longitude": 43.951694
    },
    {
        "name": "Bārāwah al ‘Ulyā",
        "country": "Iraq",
        "province": "Nineveh",
        "population": -1,
        "latitude": 36.6715,
        "longitude": 43.976944
    },
    {
        "name": "Gaylān",
        "country": "Iraq",
        "province": "Nineveh",
        "population": -1,
        "latitude": 36.655056,
        "longitude": 43.995611
    },
    {
        "name": "Dizawkī",
        "country": "Iraq",
        "province": "Nineveh",
        "population": -1,
        "latitude": 36.712163,
        "longitude": 43.975778
    },
    {
        "name": "Bashqāl Rawand",
        "country": "Iraq",
        "province": "Nineveh",
        "population": -1,
        "latitude": 36.738861,
        "longitude": 43.931306
    },
    {
        "name": "Jūnah",
        "country": "Iraq",
        "province": "Nineveh",
        "population": -1,
        "latitude": 36.738214,
        "longitude": 43.94933
    },
    {
        "name": "Lālāy",
        "country": "Iraq",
        "province": "Nineveh",
        "population": -1,
        "latitude": 36.72475,
        "longitude": 43.863222
    },
    {
        "name": "Mazirkah",
        "country": "Iraq",
        "province": "Duhok",
        "population": -1,
        "latitude": 36.829444,
        "longitude": 43.186944
    },
    {
        "name": "Teliwe",
        "country": "Iraq",
        "province": "Duhok",
        "population": -1,
        "latitude": 36.836028,
        "longitude": 43.133833
    },
    {
        "name": "Afrīk",
        "country": "Iraq",
        "province": "Duhok",
        "population": -1,
        "latitude": 36.832781,
        "longitude": 43.119035
    },
    {
        "name": "Afrīk as Suflá",
        "country": "Iraq",
        "province": "Duhok",
        "population": -1,
        "latitude": 36.834213,
        "longitude": 43.113611
    },
    {
        "name": "Kafrah Sūr",
        "country": "Iraq",
        "province": "Nineveh",
        "population": -1,
        "latitude": 36.778226,
        "longitude": 43.558916
    },
    {
        "name": "Mitak as Suflá",
        "country": "Iraq",
        "province": "Nineveh",
        "population": -1,
        "latitude": 36.781123,
        "longitude": 43.565418
    },
    {
        "name": "Mitak al ‘Ulyā",
        "country": "Iraq",
        "province": "Nineveh",
        "population": -1,
        "latitude": 36.788441,
        "longitude": 43.553497
    },
    {
        "name": "Bāskaday",
        "country": "Iraq",
        "province": "Nineveh",
        "population": -1,
        "latitude": 36.819475,
        "longitude": 43.536902
    },
    {
        "name": "Bacilur",
        "country": "Iraq",
        "province": "Duhok",
        "population": -1,
        "latitude": 36.876512,
        "longitude": 43.032367
    },
    {
        "name": "Basīrah",
        "country": "Iraq",
        "province": "Duhok",
        "population": -1,
        "latitude": 36.864249,
        "longitude": 43.066635
    },
    {
        "name": "Ayminkī",
        "country": "Iraq",
        "province": "Duhok",
        "population": -1,
        "latitude": 36.858936,
        "longitude": 43.096205
    },
    {
        "name": "Baraybahār",
        "country": "Iraq",
        "province": "Duhok",
        "population": -1,
        "latitude": 36.877849,
        "longitude": 43.097803
    },
    {
        "name": "Bājirah Maḩmūd",
        "country": "Iraq",
        "province": "Nineveh",
        "population": -1,
        "latitude": 36.756704,
        "longitude": 43.647553
    },
    {
        "name": "Bājirah Firū",
        "country": "Iraq",
        "province": "Nineveh",
        "population": -1,
        "latitude": 36.773561,
        "longitude": 43.642452
    },
    {
        "name": "Kānī Kūlkah",
        "country": "Iraq",
        "province": "Duhok",
        "population": -1,
        "latitude": 36.868863,
        "longitude": 43.159608
    },
    {
        "name": "Nayrwak",
        "country": "Iraq",
        "province": "Nineveh",
        "population": -1,
        "latitude": 36.806647,
        "longitude": 43.645304
    },
    {
        "name": "Kūrah Dayrī",
        "country": "Iraq",
        "province": "Duhok",
        "population": -1,
        "latitude": 36.870154,
        "longitude": 43.178659
    },
    {
        "name": "Darlūsh",
        "country": "Iraq",
        "province": "Duhok",
        "population": -1,
        "latitude": 36.905947,
        "longitude": 43.211908
    },
    {
        "name": "Ūstā Kūrkī",
        "country": "Iraq",
        "province": "Duhok",
        "population": -1,
        "latitude": 36.939889,
        "longitude": 43.20975
    },
    {
        "name": "Bāghah Spī",
        "country": "Iraq",
        "province": "Nineveh",
        "population": -1,
        "latitude": 36.792583,
        "longitude": 43.659778
    },
    {
        "name": "Ghelbuk",
        "country": "Iraq",
        "province": "Duhok",
        "population": -1,
        "latitude": 36.949695,
        "longitude": 43.178194
    },
    {
        "name": "Khilāfah",
        "country": "Iraq",
        "province": "Nineveh",
        "population": -1,
        "latitude": 36.803999,
        "longitude": 43.684655
    },
    {
        "name": "Bakr Suflah",
        "country": "Iraq",
        "province": "Duhok",
        "population": -1,
        "latitude": 36.960028,
        "longitude": 43.166972
    },
    {
        "name": "Kaflasin",
        "country": "Iraq",
        "province": "Duhok",
        "population": -1,
        "latitude": 36.968038,
        "longitude": 43.181982
    },
    {
        "name": "Sarkī",
        "country": "Iraq",
        "province": "Duhok",
        "population": -1,
        "latitude": 36.974458,
        "longitude": 43.202559
    },
    {
        "name": "Kīrbitah",
        "country": "Iraq",
        "province": "Duhok",
        "population": -1,
        "latitude": 36.994156,
        "longitude": 43.066737
    },
    {
        "name": "Karbil",
        "country": "Iraq",
        "province": "Duhok",
        "population": -1,
        "latitude": 36.990638,
        "longitude": 43.03912
    },
    {
        "name": "Bayshinkī",
        "country": "Iraq",
        "province": "Duhok",
        "population": -1,
        "latitude": 36.984617,
        "longitude": 43.031842
    },
    {
        "name": "Ālakīnah",
        "country": "Iraq",
        "province": "Duhok",
        "population": -1,
        "latitude": 36.992856,
        "longitude": 43.022148
    },
    {
        "name": "Baybūkhkay",
        "country": "Iraq",
        "province": "Duhok",
        "population": -1,
        "latitude": 36.983889,
        "longitude": 43.001528
    },
    {
        "name": "Dīrkī",
        "country": "Iraq",
        "province": "Duhok",
        "population": -1,
        "latitude": 36.987917,
        "longitude": 43.139778
    },
    {
        "name": "Qarqarava",
        "country": "Iraq",
        "province": "Duhok",
        "population": -1,
        "latitude": 36.91067,
        "longitude": 43.033145
    },
    {
        "name": "Sindur",
        "country": "Iraq",
        "province": "Duhok",
        "population": -1,
        "latitude": 36.908019,
        "longitude": 43.062173
    },
    {
        "name": "Yakmālah",
        "country": "Iraq",
        "province": "Duhok",
        "population": -1,
        "latitude": 36.916636,
        "longitude": 43.04709
    },
    {
        "name": "Kemeka",
        "country": "Iraq",
        "province": "Duhok",
        "population": -1,
        "latitude": 36.948117,
        "longitude": 43.051115
    },
    {
        "name": "Mirsīdah",
        "country": "Iraq",
        "province": "Nineveh",
        "population": -1,
        "latitude": 36.822389,
        "longitude": 43.499583
    },
    {
        "name": "Mayrkabī",
        "country": "Iraq",
        "province": "Nineveh",
        "population": -1,
        "latitude": 36.817499,
        "longitude": 43.568913
    },
    {
        "name": "Kifrah",
        "country": "Iraq",
        "province": "Nineveh",
        "population": -1,
        "latitude": 36.814425,
        "longitude": 43.587413
    },
    {
        "name": "Bakirmān",
        "country": "Iraq",
        "province": "Nineveh",
        "population": -1,
        "latitude": 36.82572,
        "longitude": 43.676111
    },
    {
        "name": "Hayzānah as Suflá",
        "country": "Iraq",
        "province": "Duhok",
        "population": -1,
        "latitude": 36.861316,
        "longitude": 43.687034
    },
    {
        "name": "Kishkāwah",
        "country": "Iraq",
        "province": "Nineveh",
        "population": -1,
        "latitude": 36.863329,
        "longitude": 43.712565
    },
    {
        "name": "Dūprah",
        "country": "Iraq",
        "province": "Nineveh",
        "population": -1,
        "latitude": 36.874096,
        "longitude": 43.710399
    },
    {
        "name": "Hayzānah al ‘Ulyā",
        "country": "Iraq",
        "province": "Duhok",
        "population": -1,
        "latitude": 36.867015,
        "longitude": 43.688487
    },
    {
        "name": "Bilmanday",
        "country": "Iraq",
        "province": "Duhok",
        "population": -1,
        "latitude": 36.861704,
        "longitude": 43.673631
    },
    {
        "name": "Mayrūkī",
        "country": "Iraq",
        "province": "Duhok",
        "population": -1,
        "latitude": 36.881818,
        "longitude": 43.62859
    },
    {
        "name": "Barmawī",
        "country": "Iraq",
        "province": "Nineveh",
        "population": -1,
        "latitude": 36.878444,
        "longitude": 43.727556
    },
    {
        "name": "Jamshītī",
        "country": "Iraq",
        "province": "Duhok",
        "population": -1,
        "latitude": 36.90901,
        "longitude": 43.711297
    },
    {
        "name": "Bīr Shūrī",
        "country": "Iraq",
        "province": "Nineveh",
        "population": -1,
        "latitude": 36.94874,
        "longitude": 43.748197
    },
    {
        "name": "Kayrīyah",
        "country": "Iraq",
        "province": "Duhok",
        "population": -1,
        "latitude": 36.966807,
        "longitude": 43.64578
    },
    {
        "name": "Bardah Rashsh aş Şaghīr",
        "country": "Iraq",
        "province": "Nineveh",
        "population": -1,
        "latitude": 36.503112,
        "longitude": 43.5907
    },
    {
        "name": "Nazrāwah",
        "country": "Iraq",
        "province": "Nineveh",
        "population": -1,
        "latitude": 36.559072,
        "longitude": 43.619858
    },
    {
        "name": "Dūlījān al Kabīr",
        "country": "Iraq",
        "province": "Nineveh",
        "population": -1,
        "latitude": 36.580852,
        "longitude": 43.564679
    },
    {
        "name": "Dawlayjān aş Şaghīr",
        "country": "Iraq",
        "province": "Nineveh",
        "population": -1,
        "latitude": 36.605708,
        "longitude": 43.58312
    },
    {
        "name": "Girī",
        "country": "Iraq",
        "province": "Nineveh",
        "population": -1,
        "latitude": 36.595616,
        "longitude": 43.523204
    },
    {
        "name": "Dārātū Khāzir",
        "country": "Iraq",
        "province": "Nineveh",
        "population": -1,
        "latitude": 36.624436,
        "longitude": 43.545979
    },
    {
        "name": "Ḩasanay",
        "country": "Iraq",
        "province": "Nineveh",
        "population": -1,
        "latitude": 36.640368,
        "longitude": 43.580215
    },
    {
        "name": "Gālaynah",
        "country": "Iraq",
        "province": "Nineveh",
        "population": -1,
        "latitude": 36.653889,
        "longitude": 43.626304
    },
    {
        "name": "Girkūran",
        "country": "Iraq",
        "province": "Nineveh",
        "population": -1,
        "latitude": 36.705699,
        "longitude": 43.622985
    },
    {
        "name": "Bānūrah",
        "country": "Iraq",
        "province": "Nineveh",
        "population": -1,
        "latitude": 36.749908,
        "longitude": 43.650711
    },
    {
        "name": "Jūjar al Kabīr",
        "country": "Iraq",
        "province": "Nineveh",
        "population": -1,
        "latitude": 36.604218,
        "longitude": 43.68578
    },
    {
        "name": "Dirbistān as Suflá",
        "country": "Iraq",
        "province": "Nineveh",
        "population": -1,
        "latitude": 36.563348,
        "longitude": 43.742158
    },
    {
        "name": "Kawlītān ‘Ulyā",
        "country": "Iraq",
        "province": "Sulaymaniyah",
        "population": -1,
        "latitude": 35.502691,
        "longitude": 45.899365
    },
    {
        "name": "Kuṟemêw-î Serû",
        "country": "Iraq",
        "province": "Sulaymaniyah",
        "population": -1,
        "latitude": 35.565568,
        "longitude": 45.929643
    },
    {
        "name": "Nālpārayz Suflá",
        "country": "Iraq",
        "province": "Sulaymaniyah",
        "population": -1,
        "latitude": 35.574774,
        "longitude": 45.856984
    },
    {
        "name": "Kūndah Kuwayzah",
        "country": "Iraq",
        "province": "Sulaymaniyah",
        "population": -1,
        "latitude": 35.601893,
        "longitude": 45.778749
    },
    {
        "name": "Kānī Shāyān",
        "country": "Iraq",
        "province": "Sulaymaniyah",
        "population": -1,
        "latitude": 35.654361,
        "longitude": 45.882091
    },
    {
        "name": "Kaylū",
        "country": "Iraq",
        "province": "Sulaymaniyah",
        "population": -1,
        "latitude": 35.656845,
        "longitude": 45.956391
    },
    {
        "name": "Zerdkawe",
        "country": "Iraq",
        "province": "Sulaymaniyah",
        "population": -1,
        "latitude": 35.685069,
        "longitude": 45.826425
    },
    {
        "name": "Surîk",
        "country": "Iraq",
        "province": "Sulaymaniyah",
        "population": -1,
        "latitude": 35.224444,
        "longitude": 45.8775
    },
    {
        "name": "Leweran",
        "country": "Iraq",
        "province": "Sulaymaniyah",
        "population": -1,
        "latitude": 35.079189,
        "longitude": 45.914909
    },
    {
        "name": "‘Abbās Jaqal",
        "country": "Iraq",
        "province": "Sulaymaniyah",
        "population": -1,
        "latitude": 35.729417,
        "longitude": 45.474348
    },
    {
        "name": "Bayzāl",
        "country": "Iraq",
        "province": "Duhok",
        "population": -1,
        "latitude": 37.044167,
        "longitude": 42.817167
    },
    {
        "name": "Haruna",
        "country": "Iraq",
        "province": "Duhok",
        "population": -1,
        "latitude": 37.044596,
        "longitude": 42.847562
    },
    {
        "name": "Zirhewa",
        "country": "Iraq",
        "province": "Duhok",
        "population": -1,
        "latitude": 37.035369,
        "longitude": 42.856252
    },
    {
        "name": "Uzmana",
        "country": "Iraq",
        "province": "Duhok",
        "population": -1,
        "latitude": 37.058226,
        "longitude": 42.945031
    },
    {
        "name": "Khīlāfkī",
        "country": "Iraq",
        "province": "Duhok",
        "population": -1,
        "latitude": 37.11329,
        "longitude": 42.778939
    },
    {
        "name": "Bayshilk",
        "country": "Iraq",
        "province": "Duhok",
        "population": -1,
        "latitude": 37.082861,
        "longitude": 42.819804
    },
    {
        "name": "Zūrāwah as Suflá",
        "country": "Iraq",
        "province": "Duhok",
        "population": -1,
        "latitude": 37.079458,
        "longitude": 42.820162
    },
    {
        "name": "Temerava",
        "country": "Iraq",
        "province": "Duhok",
        "population": -1,
        "latitude": 37.052044,
        "longitude": 42.834581
    },
    {
        "name": "Chamtir",
        "country": "Iraq",
        "province": "Duhok",
        "population": -1,
        "latitude": 37.085185,
        "longitude": 42.882162
    },
    {
        "name": "Berkevir Bilik",
        "country": "Iraq",
        "province": "Duhok",
        "population": -1,
        "latitude": 37.104687,
        "longitude": 42.894859
    },
    {
        "name": "Bāgūlākah",
        "country": "Iraq",
        "province": "Duhok",
        "population": -1,
        "latitude": 37.123734,
        "longitude": 42.907184
    },
    {
        "name": "Spīn Dārūk",
        "country": "Iraq",
        "province": "Duhok",
        "population": -1,
        "latitude": 37.107306,
        "longitude": 42.923222
    },
    {
        "name": "Gund Kuse",
        "country": "Iraq",
        "province": "Duhok",
        "population": -1,
        "latitude": 37.091726,
        "longitude": 42.943852
    },
    {
        "name": "Kerpit Teymur",
        "country": "Iraq",
        "province": "Duhok",
        "population": -1,
        "latitude": 37.111196,
        "longitude": 42.95502
    },
    {
        "name": "Sar Sūlāf",
        "country": "Iraq",
        "province": "Duhok",
        "population": -1,
        "latitude": 37.16125,
        "longitude": 42.877056
    },
    {
        "name": "Mergasur",
        "country": "Iraq",
        "province": "Duhok",
        "population": -1,
        "latitude": 37.131424,
        "longitude": 42.894683
    },
    {
        "name": "Levo",
        "country": "Iraq",
        "province": "Duhok",
        "population": -1,
        "latitude": 37.148345,
        "longitude": 42.925838
    },
    {
        "name": "Kārā",
        "country": "Iraq",
        "province": "Duhok",
        "population": -1,
        "latitude": 37.190866,
        "longitude": 42.970602
    },
    {
        "name": "Mayrkay",
        "country": "Iraq",
        "province": "Duhok",
        "population": -1,
        "latitude": 37.210334,
        "longitude": 42.79311
    },
    {
        "name": "Girtik",
        "country": "Iraq",
        "province": "Arbīl",
        "population": -1,
        "latitude": 36.174944,
        "longitude": 44.637563
    },
    {
        "name": "Smaquł-î Sînan",
        "country": "Iraq",
        "province": "Arbīl",
        "population": -1,
        "latitude": 36.170359,
        "longitude": 44.553426
    },
    {
        "name": "Kurte Co",
        "country": "Iraq",
        "province": "Arbīl",
        "population": -1,
        "latitude": 36.165098,
        "longitude": 44.55961
    },
    {
        "name": "Kafroshyan",
        "country": "Iraq",
        "province": "Arbīl",
        "population": -1,
        "latitude": 36.096149,
        "longitude": 44.633899
    },
    {
        "name": "Hawāwān",
        "country": "Iraq",
        "province": "Arbīl",
        "population": -1,
        "latitude": 36.083059,
        "longitude": 44.676794
    },
    {
        "name": "Mirkawtawkah",
        "country": "Iraq",
        "province": "Arbīl",
        "population": -1,
        "latitude": 36.071105,
        "longitude": 44.663267
    },
    {
        "name": "Murtke",
        "country": "Iraq",
        "province": "Arbīl",
        "population": -1,
        "latitude": 36.03792,
        "longitude": 44.031625
    },
    {
        "name": "‘Umrah Sūr",
        "country": "Iraq",
        "province": "Arbīl",
        "population": -1,
        "latitude": 36.034961,
        "longitude": 44.171375
    },
    {
        "name": "Kêle Xiwar",
        "country": "Iraq",
        "province": "Arbīl",
        "population": -1,
        "latitude": 36.094993,
        "longitude": 44.613662
    },
    {
        "name": "Shaykh Rawwān",
        "country": "Iraq",
        "province": "Arbīl",
        "population": -1,
        "latitude": 36.084426,
        "longitude": 44.54608
    },
    {
        "name": "Shīlā",
        "country": "Iraq",
        "province": "Arbīl",
        "population": -1,
        "latitude": 36.039972,
        "longitude": 44.603778
    },
    {
        "name": "Bamurdkan",
        "country": "Iraq",
        "province": "Arbīl",
        "population": -1,
        "latitude": 36.028489,
        "longitude": 44.697252
    },
    {
        "name": "Wadlawk",
        "country": "Iraq",
        "province": "Arbīl",
        "population": -1,
        "latitude": 36.044438,
        "longitude": 44.73815
    },
    {
        "name": "Kasnazān",
        "country": "Iraq",
        "province": "Arbīl",
        "population": -1,
        "latitude": 36.20067,
        "longitude": 44.132627
    },
    {
        "name": "Sartike",
        "country": "Iraq",
        "province": "Arbīl",
        "population": -1,
        "latitude": 36.458528,
        "longitude": 44.497412
    },
    {
        "name": "Qesroke",
        "country": "Iraq",
        "province": "Arbīl",
        "population": -1,
        "latitude": 36.464915,
        "longitude": 44.370232
    },
    {
        "name": "Bīwkah",
        "country": "Iraq",
        "province": "Arbīl",
        "population": -1,
        "latitude": 36.189138,
        "longitude": 44.213693
    },
    {
        "name": "Mandayr",
        "country": "Iraq",
        "province": "Arbīl",
        "population": -1,
        "latitude": 36.315173,
        "longitude": 44.530362
    },
    {
        "name": "Mamyawe",
        "country": "Iraq",
        "province": "Sulaymaniyah",
        "population": -1,
        "latitude": 36.252416,
        "longitude": 44.703338
    },
    {
        "name": "Kawrāshir al ‘Ulyā",
        "country": "Iraq",
        "province": "Arbīl",
        "population": -1,
        "latitude": 36.37996,
        "longitude": 44.269649
    },
    {
        "name": "Bīrash",
        "country": "Iraq",
        "province": "Arbīl",
        "population": -1,
        "latitude": 36.357731,
        "longitude": 44.267062
    },
    {
        "name": "Darāsh",
        "country": "Iraq",
        "province": "Arbīl",
        "population": -1,
        "latitude": 36.385172,
        "longitude": 44.546681
    },
    {
        "name": "Xoran",
        "country": "Iraq",
        "province": "Sulaymaniyah",
        "population": -1,
        "latitude": 36.383228,
        "longitude": 44.578611
    },
    {
        "name": "Bnawe",
        "country": "Iraq",
        "province": "Arbīl",
        "population": -1,
        "latitude": 36.290063,
        "longitude": 44.266456
    },
    {
        "name": "Gomespan",
        "country": "Iraq",
        "province": "Arbīl",
        "population": -1,
        "latitude": 36.271616,
        "longitude": 44.299489
    },
    {
        "name": "Bard Bī",
        "country": "Iraq",
        "province": "Sulaymaniyah",
        "population": -1,
        "latitude": 36.380695,
        "longitude": 44.72556
    },
    {
        "name": "Qumawan",
        "country": "Iraq",
        "province": "Sulaymaniyah",
        "population": -1,
        "latitude": 36.279192,
        "longitude": 44.742776
    },
    {
        "name": "Solawk",
        "country": "Iraq",
        "province": "Arbīl",
        "population": -1,
        "latitude": 36.291524,
        "longitude": 44.409527
    },
    {
        "name": "Solawk",
        "country": "Iraq",
        "province": "Arbīl",
        "population": -1,
        "latitude": 36.294819,
        "longitude": 44.411693
    },
    {
        "name": "Gerwan",
        "country": "Iraq",
        "province": "Arbīl",
        "population": -1,
        "latitude": 36.408117,
        "longitude": 44.410873
    },
    {
        "name": "Gerwan",
        "country": "Iraq",
        "province": "Arbīl",
        "population": -1,
        "latitude": 36.419746,
        "longitude": 44.404169
    },
    {
        "name": "Kawrāshir as Suflá",
        "country": "Iraq",
        "province": "Arbīl",
        "population": -1,
        "latitude": 36.35792,
        "longitude": 44.291037
    },
    {
        "name": "Al Lilāwah",
        "country": "Iraq",
        "province": "Arbīl",
        "population": -1,
        "latitude": 36.301719,
        "longitude": 44.336113
    },
    {
        "name": "Dirrah Mīr",
        "country": "Iraq",
        "province": "Arbīl",
        "population": -1,
        "latitude": 36.54315,
        "longitude": 44.086272
    },
    {
        "name": "Qalātah Jin",
        "country": "Iraq",
        "province": "Arbīl",
        "population": -1,
        "latitude": 36.527194,
        "longitude": 44.10013
    },
    {
        "name": "Tala Car",
        "country": "Iraq",
        "province": "Arbīl",
        "population": -1,
        "latitude": 36.548411,
        "longitude": 44.112855
    },
    {
        "name": "Bīr Warmān",
        "country": "Iraq",
        "province": "Arbīl",
        "population": -1,
        "latitude": 36.534352,
        "longitude": 44.128002
    },
    {
        "name": "Qubah",
        "country": "Iraq",
        "province": "Arbīl",
        "population": -1,
        "latitude": 36.56532,
        "longitude": 44.202662
    },
    {
        "name": "Imām Khaţībān",
        "country": "Iraq",
        "province": "Arbīl",
        "population": -1,
        "latitude": 36.676556,
        "longitude": 44.715139
    },
    {
        "name": "Chawge",
        "country": "Iraq",
        "province": "Arbīl",
        "population": -1,
        "latitude": 36.679113,
        "longitude": 44.707497
    },