[
    {
        "name": "Tehran",
        "country": "Iran",
        "province": "Tehran",
        "population": 7153309,
        "latitude": 35.6943887761439,
        "longitude": 51.4215087890625
    },
    {
        "name": "Isfahan",
        "country": "Iran",
        "province": "Isfahan",
        "population": 1547164,
        "latitude": 32.65246,
        "longitude": 51.67462
    },
    {
        "name": "Mashhad",
        "country": "Iran",
        "province": "Razavi Khorasan",
        "population": 2307177,
        "latitude": 36.298072,
        "longitude": 59.605671
    },
    {
        "name": "Karaj",
        "country": "Iran",
        "province": "Alborz Province",
        "population": 1448075,
        "latitude": 35.832664,
        "longitude": 50.991545
    },
    {
        "name": "Tabriz",
        "country": "Iran",
        "province": "East Azerbaijan",
        "population": 1424641,
        "latitude": 38.08,
        "longitude": 46.2919
    },
    {
        "name": "Shiraz",
        "country": "Iran",
        "province": "Fars",
        "population": 1249942,
        "latitude": 29.610308,
        "longitude": 52.531135
    },
    {
        "name": "Ahvāz",
        "country": "Iran",
        "province": "Khuzestan",
        "population": 841145,
        "latitude": 31.31901,
        "longitude": 48.6842
    },
    {
        "name": "Qom",
        "country": "Iran",
        "province": "Qom",
        "population": 900000,
        "latitude": 34.6401,
        "longitude": 50.8764
    },
    {
        "name": "Semnan",
        "country": "Iran",
        "province": "Semnan",
        "population": 124826,
        "latitude": 35.576915,
        "longitude": 53.392046
    },
    {
        "name": "Arak",
        "country": "Iran",
        "province": "Markazi",
        "population": 503647,
        "latitude": 34.094935,
        "longitude": 49.698089
    },
    {
        "name": "Ābādān",
        "country": "Iran",
        "province": "Khuzestan",
        "population": 370180,
        "latitude": 30.3392,
        "longitude": 48.3043
    },
    {
        "name": "Bushehr",
        "country": "Iran",
        "province": "Bushehr",
        "population": 165377,
        "latitude": 28.96887,
        "longitude": 50.83657
    },
    {
        "name": "Birjand",
        "country": "Iran",
        "province": "South Khorasan Province",
        "population": 196982,
        "latitude": 32.866277,
        "longitude": 59.221139
    },
    {
        "name": "Bandar Abbas",
        "country": "Iran",
        "province": "Hormozgan",
        "population": 352173,
        "latitude": 27.1865,
        "longitude": 56.2808
    },
    {
        "name": "Ardabil",
        "country": "Iran",
        "province": "Ardabīl",
        "population": 410753,
        "latitude": 38.2498,
        "longitude": 48.2933
    },
    {
        "name": "Yasuj",
        "country": "Iran",
        "province": "Kohgiluyeh and Boyer-Ahmad",
        "population": 96786,
        "latitude": 30.668237,
        "longitude": 51.587963
    },
    {
        "name": "Hamadan",
        "country": "Iran",
        "province": "Hamadān",
        "population": 528256,
        "latitude": 34.799216,
        "longitude": 48.514556
    },
    {
        "name": "Qazvin",
        "country": "Iran",
        "province": "Qazvīn",
        "population": 333635,
        "latitude": 36.26877420298396,
        "longitude": 50.00410079956055
    },
    {
        "name": "Urmia",
        "country": "Iran",
        "province": "West Azerbaijan",
        "population": 577307,
        "latitude": 37.5527432804597,
        "longitude": 45.0760459899902
    },
    {
        "name": "Kermanshah",
        "country": "Iran",
        "province": "Kermānshāh",
        "population": 621100,
        "latitude": 34.314167,
        "longitude": 47.065
    },
    {
        "name": "Kerman",
        "country": "Iran",
        "province": "Kerman",
        "population": 577514,
        "latitude": 30.283209,
        "longitude": 57.07879
    },
    {
        "name": "Sari",
        "country": "Iran",
        "province": "Māzandarān",
        "population": 255396,
        "latitude": 36.563319,
        "longitude": 53.060087
    },
    {
        "name": "Sanandij",
        "country": "Iran",
        "province": "Kordestān",
        "population": 349176,
        "latitude": 35.314948,
        "longitude": 46.998831
    },
    {
        "name": "Rasht",
        "country": "Iran",
        "province": "Gīlān",
        "population": 594590,
        "latitude": 37.276108,
        "longitude": 49.58862
    },
    {
        "name": "Gorgan",
        "country": "Iran",
        "province": "Golestan",
        "population": 244937,
        "latitude": 36.8427,
        "longitude": 54.443907
    },
    {
        "name": "Yazd",
        "country": "Iran",
        "province": "Yazd",
        "population": 477905,
        "latitude": 31.897222,
        "longitude": 54.3675
    },
    {
        "name": "Kahrīz",
        "country": "Iran",
        "province": "Kermānshāh",
        "population": 766706,
        "latitude": 34.3838,
        "longitude": 47.0553
    },
    {
        "name": "Zahedan",
        "country": "Iran",
        "province": "Sistan and Baluchestan",
        "population": 551980,
        "latitude": 29.4963,
        "longitude": 60.8629
    },
    {
        "name": "Pasragad Branch",
        "country": "Iran",
        "province": "Hamadān",
        "population": 787878,
        "latitude": 34.77772,
        "longitude": 48.47168
    },
    {
        "name": "Sīrjān",
        "country": "Iran",
        "province": "Kerman",
        "population": 207645,
        "latitude": 29.45137,
        "longitude": 55.6809
    },
    {
        "name": "Shahr-e Kord",
        "country": "Iran",
        "province": "Chaharmahal and Bakhtiari",
        "population": 129153,
        "latitude": 32.326125,
        "longitude": 50.857196
    },
    {
        "name": "Bojnourd",
        "country": "Iran",
        "province": "North Khorasan",
        "population": 192041,
        "latitude": 37.47473,
        "longitude": 57.329031
    },
    {
        "name": "Īlām",
        "country": "Iran",
        "province": "Ilam Province",
        "population": 140940,
        "latitude": 33.6374,
        "longitude": 46.4227
    },
    {
        "name": "Neyshabur",
        "country": "Iran",
        "province": "Razavi Khorasan",
        "population": 220929,
        "latitude": 36.213288,
        "longitude": 58.795755
    },
    {
        "name": "Khorramshahr",
        "country": "Iran",
        "province": "Khuzestan",
        "population": 330606,
        "latitude": 30.44079,
        "longitude": 48.184283
    },
    {
        "name": "Khorramabad",
        "country": "Iran",
        "province": "Lorestan Province",
        "population": 329825,
        "latitude": 33.487778,
        "longitude": 48.355833
    },
    {
        "name": "Saqqez",
        "country": "Iran",
        "province": "Kordestān",
        "population": 151237,
        "latitude": 36.24991896302734,
        "longitude": 46.27349674701691
    },
    {
        "name": "Sabzawār",
        "country": "Iran",
        "province": "Razavi Khorasan",
        "population": 226183,
        "latitude": 36.212598,
        "longitude": 57.681906
    },
    {
        "name": "Mahabad",
        "country": "Iran",
        "province": "West Azerbaijan",
        "population": 162434,
        "latitude": 36.7631,
        "longitude": 45.7222
    },
    {
        "name": "Zanjān",
        "country": "Iran",
        "province": "Zanjan",
        "population": 357471,
        "latitude": 36.676421,
        "longitude": 48.496282
    },
    {
        "name": "Susa",
        "country": "Iran",
        "province": "Khuzestan",
        "population": 52284,
        "latitude": 32.1942,
        "longitude": 48.2436
    },
    {
        "name": "Ahar",
        "country": "Iran",
        "province": "East Azerbaijan",
        "population": 94348,
        "latitude": 38.4774,
        "longitude": 47.0699
    },
    {
        "name": "Bandar-e Anzali",
        "country": "Iran",
        "province": "Gīlān",
        "population": 110826,
        "latitude": 37.473182,
        "longitude": 49.457853
    },
    {
        "name": "Bam",
        "country": "Iran",
        "province": "Kerman",
        "population": 99268,
        "latitude": 29.106,
        "longitude": 58.357
    },
    {
        "name": "Babol",
        "country": "Iran",
        "province": "Māzandarān",
        "population": 202796,
        "latitude": 36.551016,
        "longitude": 52.678601
    },
    {
        "name": "Shahrud",
        "country": "Iran",
        "province": "Semnan",
        "population": 131889,
        "latitude": 36.418189,
        "longitude": 54.976282
    },
    {
        "name": "Dow Gonbadān",
        "country": "Iran",
        "province": "Kohgiluyeh and Boyer-Ahmad",
        "population": 94638,
        "latitude": 30.3586,
        "longitude": 50.7981
    },
    {
        "name": "Mīāndoāb",
        "country": "Iran",
        "province": "West Azerbaijan",
        "population": 132819,
        "latitude": 36.966671,
        "longitude": 46.109612
    },
    {
        "name": "Masjed Soleymān",
        "country": "Iran",
        "province": "Khuzestan",
        "population": 111510,
        "latitude": 31.9364,
        "longitude": 49.3039
    },
    {
        "name": "Piranshahr",
        "country": "Iran",
        "province": "West Azerbaijan",
        "population": 61973,
        "latitude": 36.701,
        "longitude": 45.1413
    },
    {
        "name": "Pārsābād",
        "country": "Iran",
        "province": "Ardabīl",
        "population": 101661,
        "latitude": 39.6482,
        "longitude": 47.9174
    },
    {
        "name": "Rafsanjān",
        "country": "Iran",
        "province": "Kerman",
        "population": 147680,
        "latitude": 30.4067,
        "longitude": 55.9939
    },
    {
        "name": "Gonbad-e Kāvūs",
        "country": "Iran",
        "province": "Golestan",
        "population": 131416,
        "latitude": 37.250042,
        "longitude": 55.167208
    },
    {
        "name": "Khowy",
        "country": "Iran",
        "province": "West Azerbaijan",
        "population": 175370,
        "latitude": 38.5503,
        "longitude": 44.9521
    },
    {
        "name": "Āzādshahr",
        "country": "Iran",
        "province": "Hamadān",
        "population": 514102,
        "latitude": 34.790491,
        "longitude": 48.570114
    },
    {
        "name": "Zabol",
        "country": "Iran",
        "province": "Sistan and Baluchestan",
        "population": 121989,
        "latitude": 31.0306,
        "longitude": 61.4949
    },
    {
        "name": "Iranshahr",
        "country": "Iran",
        "province": "Sistan and Baluchestan",
        "population": 131232,
        "latitude": 27.202446,
        "longitude": 60.684758
    },
    {
        "name": "Rehnān",
        "country": "Iran",
        "province": "Isfahan",
        "population": 49143,
        "latitude": 32.683246,
        "longitude": 51.601582
    },
    {
        "name": "Najafābād",
        "country": "Iran",
        "province": "Isfahan",
        "population": 223450,
        "latitude": 32.634638,
        "longitude": 51.36525
    },
    {
        "name": "Khomeynī Shahr",
        "country": "Iran",
        "province": "Isfahan",
        "population": 277334,
        "latitude": 32.685604,
        "longitude": 51.536093
    },
    {
        "name": "Kelīshād va Sūdarjān",
        "country": "Iran",
        "province": "Isfahan",
        "population": 33630,
        "latitude": 32.551183,
        "longitude": 51.527579
    },
    {
        "name": "Shūshtar",
        "country": "Iran",
        "province": "Khuzestan",
        "population": 77507,
        "latitude": 32.049721,
        "longitude": 48.848429
    },
    {
        "name": "Shīrvān",
        "country": "Iran",
        "province": "North Khorasan",
        "population": 82790,
        "latitude": 37.396693,
        "longitude": 57.929517
    },
    {
        "name": "Sāveh",
        "country": "Iran",
        "province": "Markazi",
        "population": 175533,
        "latitude": 35.0213,
        "longitude": 50.3566
    },
    {
        "name": "Āmol",
        "country": "Iran",
        "province": "Māzandarān",
        "population": 199382,
        "latitude": 36.469612,
        "longitude": 52.350724
    },
    {
        "name": "Alvand",
        "country": "Iran",
        "province": "Zanjan",
        "population": 74889,
        "latitude": 36.318854,
        "longitude": 49.167726
    },
    {
        "name": "Shahrīār",
        "country": "Iran",
        "province": "Tehran",
        "population": 58849,
        "latitude": 35.658842,
        "longitude": 51.05775
    },
    {
        "name": "Aligoodarz",
        "country": "Iran",
        "province": "Lorestan Province",
        "population": 91041,
        "latitude": 33.404002,
        "longitude": 49.691789
    },
    {
        "name": "Akbarābād",
        "country": "Iran",
        "province": "Fars",
        "population": 98342,
        "latitude": 29.2464,
        "longitude": 52.7793
    },
    {
        "name": "Būkān",
        "country": "Iran",
        "province": "West Azerbaijan",
        "population": 213331,
        "latitude": 36.521,
        "longitude": 46.2089
    },
    {
        "name": "Borūjerd",
        "country": "Iran",
        "province": "Lorestan Province",
        "population": 251958,
        "latitude": 33.8973,
        "longitude": 48.7516
    },
    {
        "name": "Borūjen",
        "country": "Iran",
        "province": "Chaharmahal and Bakhtiari",
        "population": 52654,
        "latitude": 31.965232,
        "longitude": 51.287295
    },
    {
        "name": "Borazjan",
        "country": "Iran",
        "province": "Bushehr",
        "population": 86059,
        "latitude": 29.269896,
        "longitude": 51.218803
    },
    {
        "name": "Bījār",
        "country": "Iran",
        "province": "Kordestān",
        "population": 53871,
        "latitude": 35.8667954174903,
        "longitude": 47.60505795478821
    },
    {
        "name": "Bonāb",
        "country": "Iran",
        "province": "East Azerbaijan",
        "population": 80359,
        "latitude": 37.3404,
        "longitude": 46.0561
    },
    {
        "name": "Behshahr",
        "country": "Iran",
        "province": "Māzandarān",
        "population": 93500,
        "latitude": 36.692347,
        "longitude": 53.552617
    },
    {
        "name": "Bardaskan",
        "country": "Iran",
        "province": "Razavi Khorasan",
        "population": 28233,
        "latitude": 35.26218,
        "longitude": 57.970745
    },
    {
        "name": "Bāneh",
        "country": "Iran",
        "province": "Kordestān",
        "population": 104799,
        "latitude": 35.9975,
        "longitude": 45.8853
    },
    {
        "name": "Dehdasht",
        "country": "Iran",
        "province": "Kohgiluyeh and Boyer-Ahmad",
        "population": 69726,
        "latitude": 30.794901,
        "longitude": 50.564575
    },
    {
        "name": "Naz̧arābād",
        "country": "Iran",
        "province": "Alborz Province",
        "population": 213388,
        "latitude": 35.954109,
        "longitude": 50.606075
    },
    {
        "name": "Naghadeh",
        "country": "Iran",
        "province": "West Azerbaijan",
        "population": 73528,
        "latitude": 36.9553,
        "longitude": 45.388
    },
    {
        "name": "Nahavand",
        "country": "Iran",
        "province": "Hamadān",
        "population": 76250,
        "latitude": 34.190877,
        "longitude": 48.374458
    },
    {
        "name": "Farrokh Shahr",
        "country": "Iran",
        "province": "Chaharmahal and Bakhtiari",
        "population": 32391,
        "latitude": 32.271743,
        "longitude": 50.980082
    },
    {
        "name": "Sarpol-e Z̄ahāb",
        "country": "Iran",
        "province": "Kermānshāh",
        "population": 51611,
        "latitude": 34.461092,
        "longitude": 45.862644
    },
    {
        "name": "Oshnavīyeh",
        "country": "Iran",
        "province": "West Azerbaijan",
        "population": 50661,
        "latitude": 37.0397,
        "longitude": 45.0983
    },
    {
        "name": "Khomeyn",
        "country": "Iran",
        "province": "Markazi",
        "population": 77425,
        "latitude": 33.638893,
        "longitude": 50.08003
    },
    {
        "name": "Khalkhāl",
        "country": "Iran",
        "province": "Ardabīl",
        "population": 51024,
        "latitude": 37.618373,
        "longitude": 48.529282
    },
    {
        "name": "Kāzerūn",
        "country": "Iran",
        "province": "Fars",
        "population": 94511,
        "latitude": 29.619188,
        "longitude": 51.653499
    },
    {
        "name": "Kāshmar",
        "country": "Iran",
        "province": "Razavi Khorasan",
        "population": 96151,
        "latitude": 35.23831,
        "longitude": 58.465575
    },
    {
        "name": "Salmās",
        "country": "Iran",
        "province": "West Azerbaijan",
        "population": 81606,
        "latitude": 38.1973,
        "longitude": 44.7653
    },
    {
        "name": "Qūchān",
        "country": "Iran",
        "province": "Razavi Khorasan",
        "population": 111752,
        "latitude": 37.105997,
        "longitude": 58.509547
    },
    {
        "name": "Qorveh",
        "country": "Iran",
        "province": "Kordestān",
        "population": 87953,
        "latitude": 35.166401,
        "longitude": 47.805638
    },
    {
        "name": "Bandar-e Genāveh",
        "country": "Iran",
        "province": "Bushehr",
        "population": 52750,
        "latitude": 29.5791,
        "longitude": 50.517
    },
    {
        "name": "Fasa",
        "country": "Iran",
        "province": "Fars",
        "population": 98061,
        "latitude": 28.9383,
        "longitude": 53.6482
    },
    {
        "name": "Marvdasht",
        "country": "Iran",
        "province": "Fars",
        "population": 148858,
        "latitude": 29.8742,
        "longitude": 52.8025
    },
    {
        "name": "Marīvān",
        "country": "Iran",
        "province": "Kordestān",
        "population": 91664,
        "latitude": 35.518287,
        "longitude": 46.182978
    },
    {
        "name": "Marand",
        "country": "Iran",
        "province": "East Azerbaijan",
        "population": 124191,
        "latitude": 38.4329,
        "longitude": 45.7749
    },
    {
        "name": "Malāyer",
        "country": "Iran",
        "province": "Hamadān",
        "population": 176573,
        "latitude": 34.301579,
        "longitude": 48.821656
    },
    {
        "name": "Kūhdasht",
        "country": "Iran",
        "province": "Lorestan Province",
        "population": 100208,
        "latitude": 33.533349,
        "longitude": 47.609989
    },
    {
        "name": "Varāmīn",
        "country": "Iran",
        "province": "Tehran",
        "population": 179603,
        "latitude": 35.3242,
        "longitude": 51.6457
    },
    {
        "name": "Torbat-e Ḩeydarīyeh",
        "country": "Iran",
        "province": "Razavi Khorasan",
        "population": 125633,
        "latitude": 35.274007,
        "longitude": 59.219487
    },
    {
        "name": "Tākestān",
        "country": "Iran",
        "province": "Qazvīn",
        "population": 71499,
        "latitude": 36.07057,
        "longitude": 49.695707
    },
    {
        "name": "Tabas",
        "country": "Iran",
        "province": "Yazd",
        "population": 49993,
        "latitude": 33.595856,
        "longitude": 56.924368
    },
    {
        "name": "Īstgāh-e Rāh Āhan-e Garmsār",
        "country": "Iran",
        "province": "Semnan",
        "population": 49491,
        "latitude": 35.234549,
        "longitude": 52.309415
    },
    {
        "name": "Qarchak",
        "country": "Iran",
        "province": "Tehran",
        "population": 251834,
        "latitude": 35.428668,
        "longitude": 51.575441
    },
    {
        "name": "Alvand",
        "country": "Iran",
        "province": "Qazvīn",
        "population": 90000,
        "latitude": 36.1893,
        "longitude": 50.0643
    },
    {
        "name": "Khāsh",
        "country": "Iran",
        "province": "Sistan and Baluchestan",
        "population": 69603,
        "latitude": 28.221072,
        "longitude": 61.215819
    },
    {
        "name": "Chabahar",
        "country": "Iran",
        "province": "Sistan and Baluchestan",
        "population": 47287,
        "latitude": 25.2919,
        "longitude": 60.643
    },
    {
        "name": "Khāneqāh",
        "country": "Iran",
        "province": "Ardabīl",
        "population": -1,
        "latitude": 37.291863,
        "longitude": 48.826199
    },
    {
        "name": "Owjīqāz-e Bālā",
        "country": "Iran",
        "province": "Ardabīl",
        "population": -1,
        "latitude": 37.7942,
        "longitude": 48.5104
    },
    {
        "name": "Kākāreẕā-ye Soflá",
        "country": "Iran",
        "province": "Lorestan Province",
        "population": -1,
        "latitude": 33.7251,
        "longitude": 48.2622
    },
    {
        "name": "Hāsūn-e Bozorg",
        "country": "Iran",
        "province": "West Azerbaijan",
        "population": -1,
        "latitude": 39.3864,
        "longitude": 44.698
    },
    {
        "name": "Qahderījān",
        "country": "Iran",
        "province": "Isfahan",
        "population": 29392,
        "latitude": 32.577301,
        "longitude": 51.453669
    },
    {
        "name": "Khowrzūq",
        "country": "Iran",
        "province": "Isfahan",
        "population": -1,
        "latitude": 32.777996,
        "longitude": 51.646849
    },
    {
        "name": "Falāvarjān",
        "country": "Iran",
        "province": "Isfahan",
        "population": 49843,
        "latitude": 32.555301,
        "longitude": 51.509735
    },
    {
        "name": "Dowlatābād",
        "country": "Iran",
        "province": "Isfahan",
        "population": 33607,
        "latitude": 32.79978,
        "longitude": 51.695527
    },
    {
        "name": "Dorcheh Pīāz",
        "country": "Iran",
        "province": "Isfahan",
        "population": 37462,
        "latitude": 32.6152778,
        "longitude": 51.5555556
    },
    {
        "name": "Abrīsham",
        "country": "Iran",
        "province": "Isfahan",
        "population": 20000,
        "latitude": 32.556134,
        "longitude": 51.573253
    },
    {
        "name": "Āmorzeydābād",
        "country": "Iran",
        "province": "Isfahan",
        "population": -1,
        "latitude": 32.705929,
        "longitude": 51.870143
    },
    {
        "name": "Chelūnsar",
        "country": "Iran",
        "province": "Gīlān",
        "population": -1,
        "latitude": 37.8712,
        "longitude": 48.8937
    },
    {
        "name": "Tīmīnārat",
        "country": "Iran",
        "province": "Isfahan",
        "population": -1,
        "latitude": 32.545323,
        "longitude": 52.019258
    },
    {
        "name": "Qarājeh-ye Feyẕollāh",
        "country": "Iran",
        "province": "East Azerbaijan",
        "population": -1,
        "latitude": 38.478,
        "longitude": 45.5281
    },
    {
        "name": "Ābtorsh",
        "country": "Iran",
        "province": "South Khorasan Province",
        "population": -1,
        "latitude": 32.776255,
        "longitude": 59.801428
    },
    {
        "name": "Godar Narmeh",
        "country": "Iran",
        "province": "South Khorasan Province",
        "population": -1,
        "latitude": 32.738342,
        "longitude": 59.211776
    },
    {
        "name": "Āzādshahr",
        "country": "Iran",
        "province": "Golestan",
        "population": 47590,
        "latitude": 37.08641,
        "longitude": 55.172224
    },
    {
        "name": "Tang-e Sorḩed",
        "country": "Iran",
        "province": "Sistan and Baluchestan",
        "population": -1,
        "latitude": 26.549971,
        "longitude": 59.933145
    },
    {
        "name": "Zorjīn",
        "country": "Iran",
        "province": "Markazi",
        "population": -1,
        "latitude": 34.929505,
        "longitude": 49.877799
    },
    {
        "name": "Zīr Rāhak",
        "country": "Iran",
        "province": "Bushehr",
        "population": -1,
        "latitude": 28.2927,
        "longitude": 51.2286
    },
    {
        "name": "Zīārat",
        "country": "Iran",
        "province": "Hormozgan",
        "population": -1,
        "latitude": 26.6503,
        "longitude": 57.0805
    },
    {
        "name": "Ziabar (Gaskar)",
        "country": "Iran",
        "province": "Gīlān",
        "population": 4500,
        "latitude": 37.4261,
        "longitude": 49.2459
    },
    {
        "name": "Zavnīq",
        "country": "Iran",
        "province": "Zanjan",
        "population": -1,
        "latitude": 36.229453,
        "longitude": 48.473406
    },
    {
        "name": "Zarrīn Choghā-ye Pā’īn",
        "country": "Iran",
        "province": "Lorestan Province",
        "population": -1,
        "latitude": 33.6461,
        "longitude": 48.2693
    },
    {
        "name": "Sorkh Garbūh",
        "country": "Iran",
        "province": "Māzandarān",
        "population": -1,
        "latitude": 36.56259,
        "longitude": 54.051831
    },
    {
        "name": "Sonqor",
        "country": "Iran",
        "province": "Kermānshāh",
        "population": 43174,
        "latitude": 34.781866,
        "longitude": 47.599455
    },
    {
        "name": "Seh Kāneh",
        "country": "Iran",
        "province": "Lorestan Province",
        "population": -1,
        "latitude": 33.086392,
        "longitude": 49.620111
    },
    {
        "name": "Sīūjān",
        "country": "Iran",
        "province": "South Khorasan Province",
        "population": -1,
        "latitude": 32.868183,
        "longitude": 58.965247
    },
    {
        "name": "Sīāvashān",
        "country": "Iran",
        "province": "Markazi",
        "population": -1,
        "latitude": 34.446869,
        "longitude": 49.992018
    },
    {
        "name": "Sīāh Vorūd",
        "country": "Iran",
        "province": "Zanjan",
        "population": -1,
        "latitude": 37.117793,
        "longitude": 48.872538
    },
    {
        "name": "Sīāh Makān-e Bozorg",
        "country": "Iran",
        "province": "Bushehr",
        "population": -1,
        "latitude": 30.0633,
        "longitude": 50.3251
    },
    {
        "name": "Chafteh Sajābī",
        "country": "Iran",
        "province": "Kermānshāh",
        "population": -1,
        "latitude": 34.126652,
        "longitude": 46.597765
    },
    {
        "name": "Shūrekī",
        "country": "Iran",
        "province": "Bushehr",
        "population": -1,
        "latitude": 28.8345,
        "longitude": 51.2006
    },
    {
        "name": "Pol-e Shūrāb",
        "country": "Iran",
        "province": "Lorestan Province",
        "population": -1,
        "latitude": 33.452838,
        "longitude": 48.182392
    },
    {
        "name": "Shīrak",
        "country": "Iran",
        "province": "South Khorasan Province",
        "population": -1,
        "latitude": 33.210976,
        "longitude": 59.090381
    },
    {
        "name": "Shanbeh",
        "country": "Iran",
        "province": "Bushehr",
        "population": -1,
        "latitude": 28.395647,
        "longitude": 51.76366
    },
    {
        "name": "Kalāteh-ye Darībāgh",
        "country": "Iran",
        "province": "South Khorasan Province",
        "population": -1,
        "latitude": 32.705143,
        "longitude": 59.486481
    },
    {
        "name": "Tūmājān Darreh",
        "country": "Iran",
        "province": "Gīlān",
        "population": -1,
        "latitude": 36.904091,
        "longitude": 50.095868
    },
    {
        "name": "Shahr-e Bābak",
        "country": "Iran",
        "province": "Kerman",
        "population": 52409,
        "latitude": 30.1165,
        "longitude": 55.1186
    },
    {
        "name": "Shahrasb",
        "country": "Iran",
        "province": "Yazd",
        "population": -1,
        "latitude": 31.1424,
        "longitude": 53.331
    },
    {
        "name": "Shahrak-e Pā’īn",
        "country": "Iran",
        "province": "East Azerbaijan",
        "population": -1,
        "latitude": 38.1935,
        "longitude": 46.6978
    },
    {
        "name": "Shāh Kūh-e Soflá",
        "country": "Iran",
        "province": "Golestan",
        "population": -1,
        "latitude": 36.5625,
        "longitude": 54.417222
    },
    {
        "name": "Emām Deh",
        "country": "Iran",
        "province": "Māzandarān",
        "population": -1,
        "latitude": 36.756442,
        "longitude": 53.591974
    },
    {
        "name": "Shāh Bolāgh-e Pā’īn",
        "country": "Iran",
        "province": "East Azerbaijan",
        "population": -1,
        "latitude": 38.465399,
        "longitude": 46.407526
    },
    {
        "name": "Emāmzādeh ‘Abdollāh",
        "country": "Iran",
        "province": "Bushehr",
        "population": -1,
        "latitude": 30.177241,
        "longitude": 50.098479
    },
    {
        "name": "Shādegān",
        "country": "Iran",
        "province": "Khuzestan",
        "population": 37220,
        "latitude": 30.64924,
        "longitude": 48.664969
    },
    {
        "name": "Seyf-e Pā’īn",
        "country": "Iran",
        "province": "Kordestān",
        "population": -1,
        "latitude": 35.5825,
        "longitude": 46.147
    },
    {
        "name": "Sarīshbāz",
        "country": "Iran",
        "province": "Zanjan",
        "population": -1,
        "latitude": 35.848331,
        "longitude": 48.48484
    },
    {
        "name": "Sang-e Tūk",
        "country": "Iran",
        "province": "South Khorasan Province",
        "population": -1,
        "latitude": 32.981123,
        "longitude": 58.986528
    },
    {
        "name": "Semīrom",
        "country": "Iran",
        "province": "Isfahan",
        "population": 27220,
        "latitude": 31.4166667,
        "longitude": 51.5666667
    },
    {
        "name": "Sabz Kandar",
        "country": "Iran",
        "province": "Markazi",
        "population": -1,
        "latitude": 33.938561,
        "longitude": 50.515422
    },
    {
        "name": "Seh Konār-e ‘Olyā",
        "country": "Iran",
        "province": "Hormozgan",
        "population": -1,
        "latitude": 26.836475,
        "longitude": 54.22493
    },
    {
        "name": "Āq Gonbad",
        "country": "Iran",
        "province": "East Azerbaijan",
        "population": -1,
        "latitude": 37.8163,
        "longitude": 45.423
    },
    {
        "name": "Sefīdān-e Jadīd",
        "country": "Iran",
        "province": "East Azerbaijan",
        "population": -1,
        "latitude": 38.281539,
        "longitude": 46.339729
    },
    {
        "name": "sedeyen-e Yek",
        "country": "Iran",
        "province": "Khuzestan",
        "population": 1082,
        "latitude": 31.362048,
        "longitude": 48.818325
    },
    {
        "name": "Bahmanyārī-ye Gharbī",
        "country": "Iran",
        "province": "Bushehr",
        "population": -1,
        "latitude": 29.7247,
        "longitude": 50.5318
    },
    {
        "name": "Ārandān",
        "country": "Iran",
        "province": "Kordestān",
        "population": -1,
        "latitude": 35.3859,
        "longitude": 46.916
    },
    {
        "name": "Āqjeh Gonbad",
        "country": "Iran",
        "province": "Zanjan",
        "population": -1,
        "latitude": 35.796351,
        "longitude": 48.218127
    },
    {
        "name": "Āq Bolāgh-e Āqdāgh",
        "country": "Iran",
        "province": "Hamadān",
        "population": -1,
        "latitude": 35.612307,
        "longitude": 48.441663
    },
    {
        "name": "Āq Bolāgh",
        "country": "Iran",
        "province": "Zanjan",
        "population": -1,
        "latitude": 36.696877,
        "longitude": 48.061112
    },
    {
        "name": "Īnjī Līn",
        "country": "Iran",
        "province": "Zanjan",
        "population": -1,
        "latitude": 36.385938,
        "longitude": 49.206074
    },
    {
        "name": "Pol-e Angūr",
        "country": "Iran",
        "province": "Hormozgan",
        "population": -1,
        "latitude": 27.0014,
        "longitude": 55.7295
    },
    {
        "name": "Anderyān",
        "country": "Iran",
        "province": "East Azerbaijan",
        "population": -1,
        "latitude": 38.554439,
        "longitude": 46.28874
    },
    {
        "name": "Jangīyeh",
        "country": "Iran",
        "province": "Khuzestan",
        "population": -1,
        "latitude": 31.239992,
        "longitude": 48.623215
    },
    {
        "name": "Alvār-e Pā’īn",
        "country": "Iran",
        "province": "East Azerbaijan",
        "population": -1,
        "latitude": 38.1446,
        "longitude": 46.1465
    },
    {
        "name": "Allāh Darreh-ye ‘Olyā",
        "country": "Iran",
        "province": "Kordestān",
        "population": -1,
        "latitude": 35.766667,
        "longitude": 46.966667
    },
    {
        "name": "Ālenjeh",
        "country": "Iran",
        "province": "Zanjan",
        "population": -1,
        "latitude": 36.240631,
        "longitude": 48.393672
    },
    {
        "name": "‘Alīābād-e Mīrzā Abū ol Qāsemī",
        "country": "Iran",
        "province": "Tehran",
        "population": -1,
        "latitude": 35.3587,
        "longitude": 51.8981
    },
    {
        "name": "Allāh Kabūd-e Davāzdah Emām",
        "country": "Iran",
        "province": "Kordestān",
        "population": -1,
        "latitude": 35.786027,
        "longitude": 47.590377
    },
    {
        "name": "Alavijeh",
        "country": "Iran",
        "province": "Isfahan",
        "population": 14550,
        "latitude": 33.054797,
        "longitude": 51.08331
    },
    {
        "name": "Aleshtar",
        "country": "Iran",
        "province": "Lorestan Province",
        "population": 27701,
        "latitude": 33.86419,
        "longitude": 48.262576
    },
    {
        "name": "Ḩoseynābād",
        "country": "Iran",
        "province": "South Khorasan Province",
        "population": -1,
        "latitude": 32.547674,
        "longitude": 59.024396
    },
    {
        "name": "Ajan Yalī",
        "country": "Iran",
        "province": "Golestan",
        "population": -1,
        "latitude": 37.39934,
        "longitude": 55.520392
    },
    {
        "name": "Ajab Shīr",
        "country": "Iran",
        "province": "East Azerbaijan",
        "population": 29675,
        "latitude": 37.4776,
        "longitude": 45.8943
    },
    {
        "name": "Aḩshām Qā’edhā",
        "country": "Iran",
        "province": "Bushehr",
        "population": -1,
        "latitude": 28.469718,
        "longitude": 51.303904
    },
    {
        "name": "Āqcheh Qeshlāq-e Soflá",
        "country": "Iran",
        "province": "East Azerbaijan",
        "population": -1,
        "latitude": 38.6608,
        "longitude": 47.1913
    },
    {
        "name": "Āqcheh Qeshlāq-e ‘Olyā",
        "country": "Iran",
        "province": "East Azerbaijan",
        "population": -1,
        "latitude": 38.663997,
        "longitude": 47.150844
    },
    {
        "name": "Aghajari",
        "country": "Iran",
        "province": "Khuzestan",
        "population": 21785,
        "latitude": 30.7006,
        "longitude": 49.8315
    },
    {
        "name": "Dom Rūd-e Soflá",
        "country": "Iran",
        "province": "Lorestan Province",
        "population": -1,
        "latitude": 33.3274,
        "longitude": 47.8913
    },
    {
        "name": "Ābyek",
        "country": "Iran",
        "province": "Markazi",
        "population": 55128,
        "latitude": 36.0666667,
        "longitude": 50.55
    },
    {
        "name": "Abū ol Vafā’",
        "country": "Iran",
        "province": "Lorestan Province",
        "population": -1,
        "latitude": 33.500486,
        "longitude": 47.409858
    },
    {
        "name": "Abū Dabos",
        "country": "Iran",
        "province": "Khuzestan",
        "population": -1,
        "latitude": 31.24916623,
        "longitude": 48.62849193
    },
    {
        "name": "Ābkhowrag",
        "country": "Iran",
        "province": "South Khorasan Province",
        "population": -1,
        "latitude": 34.325813,
        "longitude": 57.118029
    },
    {
        "name": "Abhar",
        "country": "Iran",
        "province": "Zanjan",
        "population": 69889,
        "latitude": 36.1468,
        "longitude": 49.218
    },
    {
        "name": "Ābdānān",
        "country": "Iran",
        "province": "Ilam Province",
        "population": 19360,
        "latitude": 32.9926,
        "longitude": 47.4198
    },
    {
        "name": "Abdāllār",
        "country": "Iran",
        "province": "Zanjan",
        "population": -1,
        "latitude": 36.102673,
        "longitude": 48.358031
    },
    {
        "name": "Abbasabad",
        "country": "Iran",
        "province": "Māzandarān",
        "population": 13482,
        "latitude": 36.727686,
        "longitude": 51.105737
    },
    {
        "name": "Abarlāq",
        "country": "Iran",
        "province": "Hamadān",
        "population": -1,
        "latitude": 34.671186,
        "longitude": 48.228975
    },
    {
        "name": "Īvalā-ye ‘Olyā",
        "country": "Iran",
        "province": "Hamadān",
        "population": -1,
        "latitude": 34.69164,
        "longitude": 48.236825
    },
    {
        "name": "Pūtār",
        "country": "Iran",
        "province": "Kerman",
        "population": -1,
        "latitude": 29.002452,
        "longitude": 58.051534
    },
    {
        "name": "Abadeh",
        "country": "Iran",
        "province": "Fars",
        "population": 59116,
        "latitude": 31.1608,
        "longitude": 52.6506
    },
    {
        "name": "Dāngī-ye Akbarābād",
        "country": "Iran",
        "province": "Lorestan Province",
        "population": -1,
        "latitude": 33.489412,
        "longitude": 48.607209
    },
    {
        "name": "Deh-e Shāţer",
        "country": "Iran",
        "province": "Hamadān",
        "population": -1,
        "latitude": 34.37909,
        "longitude": 48.547645
    },
    {
        "name": "Dāmghān",
        "country": "Iran",
        "province": "Semnan",
        "population": 67694,
        "latitude": 36.167905,
        "longitude": 54.342924
    },
    {
        "name": "Damāvand",
        "country": "Iran",
        "province": "Tehran",
        "population": 29144,
        "latitude": 35.718418,
        "longitude": 52.069575
    },
    {
        "name": "Dālī Z̄āl Bekr",
        "country": "Iran",
        "province": "Lorestan Province",
        "population": -1,
        "latitude": 33.5274,
        "longitude": 48.462
    },
    {
        "name": "Dahaneh-ye Sang-e Kelīdar",
        "country": "Iran",
        "province": "Razavi Khorasan",
        "population": -1,
        "latitude": 36.156648,
        "longitude": 58.252029
    },
    {
        "name": "Rabb",
        "country": "Iran",
        "province": "Hormozgan",
        "population": -1,
        "latitude": 26.851105,
        "longitude": 54.134104
    },
    {
        "name": "Sarchāt Dāvūdak",
        "country": "Iran",
        "province": "Lorestan Province",
        "population": -1,
        "latitude": 32.734066,
        "longitude": 49.563629
    },
    {
        "name": "Chūzūk",
        "country": "Iran",
        "province": "Zanjan",
        "population": -1,
        "latitude": 36.301741,
        "longitude": 48.433532
    },
    {
        "name": "Chūljeh Qeshlāq",
        "country": "Iran",
        "province": "Zanjan",
        "population": -1,
        "latitude": 36.235327,
        "longitude": 48.09399
    },
    {
        "name": "Chūl Bolāgh",
        "country": "Iran",
        "province": "Kordestān",
        "population": -1,
        "latitude": 35.973246,
        "longitude": 46.957024
    },
    {
        "name": "Chaghā Seyf od Dīn",
        "country": "Iran",
        "province": "Markazi",
        "population": -1,
        "latitude": 33.666626,
        "longitude": 49.634838
    },
    {
        "name": "Chaqābol",
        "country": "Iran",
        "province": "Lorestan Province",
        "population": -1,
        "latitude": 34.014447,
        "longitude": 48.508715
    },
    {
        "name": "Chaqā Jangā-ye ‘Olyā",
        "country": "Iran",
        "province": "Kermānshāh",
        "population": -1,
        "latitude": 33.9772,
        "longitude": 46.7023
    },
    {
        "name": "Chenārān",
        "country": "Iran",
        "province": "Razavi Khorasan",
        "population": 46940,
        "latitude": 36.645462,
        "longitude": 59.121232
    },
    {
        "name": "Chelleh Khāneh-ye Pā’īn",
        "country": "Iran",
        "province": "East Azerbaijan",
        "population": -1,
        "latitude": 38.2421,
        "longitude": 46.0575
    },
    {
        "name": "Chehregān",
        "country": "Iran",
        "province": "East Azerbaijan",
        "population": -1,
        "latitude": 38.3451,
        "longitude": 45.2784
    },
    {
        "name": "Chāvor",
        "country": "Iran",
        "province": "Zanjan",
        "population": -1,
        "latitude": 36.942829,
        "longitude": 48.08176
    },
    {
        "name": "Chū’ebdeh-ye Yek",
        "country": "Iran",
        "province": "Khuzestan",
        "population": -1,
        "latitude": 30.2035,
        "longitude": 48.5538
    },
    {
        "name": "Chaqābol",
        "country": "Iran",
        "province": "Lorestan Province",
        "population": -1,
        "latitude": 33.280853,
        "longitude": 47.508999
    },
    {
        "name": "Chāh Peyyat-e ‘Olyā",
        "country": "Iran",
        "province": "Lorestan Province",
        "population": -1,
        "latitude": 33.510008,
        "longitude": 47.102778
    },
    {
        "name": "Jangalvā",
        "country": "Iran",
        "province": "Kohgiluyeh and Boyer-Ahmad",
        "population": -1,
        "latitude": 30.806773,
        "longitude": 50.479462
    },
    {
        "name": "Cham Takleh",
        "country": "Iran",
        "province": "Lorestan Province",
        "population": -1,
        "latitude": 33.735392,
        "longitude": 48.090353
    },
    {
        "name": "Cham-e Mehr",
        "country": "Iran",
        "province": "Lorestan Province",
        "population": -1,
        "latitude": 33.119292,
        "longitude": 47.552288
    },
    {
        "name": "Chameshg",
        "country": "Iran",
        "province": "Lorestan Province",
        "population": -1,
        "latitude": 33.227114,
        "longitude": 48.206245
    },
    {
        "name": "Chālūs",
        "country": "Iran",
        "province": "Māzandarān",
        "population": 69638,
        "latitude": 36.654996,
        "longitude": 51.420397
    },
    {
        "name": "Chāleh ‘Alī Aḩrān",
        "country": "Iran",
        "province": "Hormozgan",
        "population": -1,
        "latitude": 26.999427,
        "longitude": 54.151568
    },
    {
        "name": "Chāvoshī",
        "country": "Iran",
        "province": "Bushehr",
        "population": -1,
        "latitude": 28.679479,
        "longitude": 51.238392
    },
    {
        "name": "Chāhū-ye Gharbī",
        "country": "Iran",
        "province": "Hormozgan",
        "population": -1,
        "latitude": 26.6846,
        "longitude": 55.4825
    },
    {
        "name": "Chāh Ḩowẕ",
        "country": "Iran",
        "province": "South Khorasan Province",
        "population": -1,
        "latitude": 32.98323,
        "longitude": 59.1614
    },
    {
        "name": "Chāganī",
        "country": "Iran",
        "province": "Fars",
        "population": -1,
        "latitude": 28.4002,
        "longitude": 55.3293
    },
    {
        "name": "Chābahār",
        "country": "Iran",
        "province": "Hamadān",
        "population": -1,
        "latitude": 35.042555,
        "longitude": 49.204168
    },
    {
        "name": "Chaghalū-ye Soflá",
        "country": "Iran",
        "province": "Zanjan",
        "population": -1,
        "latitude": 35.993813,
        "longitude": 48.111911
    },
    {
        "name": "Chaghalū-ye ‘Olyā",
        "country": "Iran",
        "province": "Zanjan",
        "population": -1,
        "latitude": 35.992831,
        "longitude": 48.057733
    },
    {
        "name": "Chaqāţaram",
        "country": "Iran",
        "province": "Lorestan Province",
        "population": -1,
        "latitude": 33.410666,
        "longitude": 49.564351
    },
    {
        "name": "Chābolkān Ḩājjī",
        "country": "Iran",
        "province": "Kordestān",
        "population": -1,
        "latitude": 35.5228,
        "longitude": 46.6883
    },
    {
        "name": "Bū’īn-e Soflá",
        "country": "Iran",
        "province": "Kordestān",
        "population": -1,
        "latitude": 35.9389,
        "longitude": 45.9357
    },
    {
        "name": "Bū’īn-e ‘Olyā",
        "country": "Iran",
        "province": "Kordestān",
        "population": -1,
        "latitude": 35.9652,
        "longitude": 46.0174
    },
    {
        "name": "Banjī Meskī",
        "country": "Iran",
        "province": "Hormozgan",
        "population": -1,
        "latitude": 25.8964,
        "longitude": 57.3138
    },
    {
        "name": "Banādak Sādāt",
        "country": "Iran",
        "province": "Yazd",
        "population": -1,
        "latitude": 31.57153,
        "longitude": 54.202766
    },
    {
        "name": "Boveyr Deh-e Salāmāt",
        "country": "Iran",
        "province": "Khuzestan",
        "population": -1,
        "latitude": 31.3889,
        "longitude": 48.912264
    },
    {
        "name": "Baqmaj",
        "country": "Iran",
        "province": "Razavi Khorasan",
        "population": -1,
        "latitude": 36.845627,
        "longitude": 59.247668
    },
    {
        "name": "Khānīleh Bālā",
        "country": "Iran",
        "province": "Khuzestan",
        "population": -1,
        "latitude": 32.75998,
        "longitude": 48.286531
    },
    {
        "name": "Shahrak-e Kūlūrī",
        "country": "Iran",
        "province": "Khuzestan",
        "population": 1941,
        "latitude": 32.352762,
        "longitude": 48.470593
    },
    {
        "name": "Boneh-ye Ḩājjī ‘Alī",
        "country": "Iran",
        "province": "Khuzestan",
        "population": -1,
        "latitude": 32.9138,
        "longitude": 48.3445
    },
    {
        "name": "Bonārī-ye Soflá",
        "country": "Iran",
        "province": "Kohgiluyeh and Boyer-Ahmad",
        "population": -1,
        "latitude": 30.696337,
        "longitude": 50.782693
    },
    {
        "name": "Kalāteh-ye Bojdī",
        "country": "Iran",
        "province": "South Khorasan Province",
        "population": -1,
        "latitude": 32.946867,
        "longitude": 59.296706
    },
    {
        "name": "Bīmorgh",
        "country": "Iran",
        "province": "Razavi Khorasan",
        "population": -1,
        "latitude": 34.412135,
        "longitude": 58.961424
    },
    {
        "name": "Bīland",
        "country": "Iran",
        "province": "Razavi Khorasan",
        "population": -1,
        "latitude": 34.391804,
        "longitude": 58.700662
    },
    {
        "name": "Bīkhūyeh",
        "country": "Iran",
        "province": "Fars",
        "population": -1,
        "latitude": 27.917137,
        "longitude": 55.248706
    },
    {
        "name": "Bayātān-e Soflá",
        "country": "Iran",
        "province": "Hamadān",
        "population": -1,
        "latitude": 34.025372,
        "longitude": 48.957798
    },
    {
        "name": "Bayātān-e ‘Olyā",
        "country": "Iran",
        "province": "Hamadān",
        "population": -1,
        "latitude": 34.02842,
        "longitude": 48.964974
    },
    {
        "name": "Bīārjomand",
        "country": "Iran",
        "province": "Semnan",
        "population": -1,
        "latitude": 36.080564,
        "longitude": 55.809697
    },
    {
        "name": "Berkeh Dokān",
        "country": "Iran",
        "province": "Hormozgan",
        "population": -1,
        "latitude": 27.2738,
        "longitude": 52.9346
    },
    {
        "name": "Behbahān",
        "country": "Iran",
        "province": "Khuzestan",
        "population": 79327,
        "latitude": 30.5959,
        "longitude": 50.2417
    },
    {
        "name": "Bāzvand",
        "country": "Iran",
        "province": "Lorestan Province",
        "population": -1,
        "latitude": 33.265453,
        "longitude": 47.551528
    },
    {
        "name": "Bāz Kīā Gūrāb",
        "country": "Iran",
        "province": "Gīlān",
        "population": -1,
        "latitude": 37.220875,
        "longitude": 49.960187
    },
    {
        "name": "Bāzeh ‘Āsheqān",
        "country": "Iran",
        "province": "Razavi Khorasan",
        "population": -1,
        "latitude": 34.96761,
        "longitude": 59.552386
    },
    {
        "name": "Beyk Jān",
        "country": "Iran",
        "province": "West Azerbaijan",
        "population": -1,
        "latitude": 39.0823,
        "longitude": 45.2627
    },
    {
        "name": "Bāvkī",
        "country": "Iran",
        "province": "Lorestan Province",
        "population": -1,
        "latitude": 33.330008,
        "longitude": 49.593061
    },
    {
        "name": "Barīm",
        "country": "Iran",
        "province": "Kerman",
        "population": -1,
        "latitude": 30.820748,
        "longitude": 56.96501
    },
    {
        "name": "Borqebān",
        "country": "Iran",
        "province": "Razavi Khorasan",
        "population": -1,
        "latitude": 36.397909,
        "longitude": 57.892561
    },
    {
        "name": "Bareh Anār",
        "country": "Iran",
        "province": "Lorestan Province",
        "population": -1,
        "latitude": 33.6266,
        "longitude": 47.3242
    },
    {
        "name": "Bān-e Rūshān",
        "country": "Iran",
        "province": "Ilam Province",
        "population": -1,
        "latitude": 33.5587,
        "longitude": 46.2192
    },
    {
        "name": "Bandeh Qorā",
        "country": "Iran",
        "province": "Razavi Khorasan",
        "population": -1,
        "latitude": 35.504664,
        "longitude": 58.210888
    },
    {
        "name": "Bandar-e Ţāḩūneh",
        "country": "Iran",
        "province": "Hormozgan",
        "population": -1,
        "latitude": 26.707668,
        "longitude": 54.203937
    },
    {
        "name": "Bandar-e Mīchā’īl",
        "country": "Iran",
        "province": "Hormozgan",
        "population": -1,
        "latitude": 26.8192,
        "longitude": 53.5415
    },
    {
        "name": "Bandar-e Lengeh",
        "country": "Iran",
        "province": "Hormozgan",
        "population": 22768,
        "latitude": 26.557918,
        "longitude": 54.880669
    },
    {
        "name": "Balūţ Bek",
        "country": "Iran",
        "province": "Lorestan Province",
        "population": -1,
        "latitude": 34.004355,
        "longitude": 48.837337
    },
    {
        "name": "Bakhs",
        "country": "Iran",
        "province": "Fars",
        "population": -1,
        "latitude": 30.256014,
        "longitude": 51.418295
    },
    {
        "name": "Bājgān",
        "country": "Iran",
        "province": "Yazd",
        "population": -1,
        "latitude": 31.457544,
        "longitude": 55.881563
    },
    {
        "name": "Bahār",
        "country": "Iran",
        "province": "Hamadān",
        "population": 28645,
        "latitude": 34.9072,
        "longitude": 48.4414
    },
    {
        "name": "Bahmanābād",
        "country": "Iran",
        "province": "South Khorasan Province",
        "population": -1,
        "latitude": 33.81488,
        "longitude": 59.878086
    },
    {
        "name": "Bīgam Āghā",
        "country": "Iran",
        "province": "Zanjan",
        "population": -1,
        "latitude": 35.912805,
        "longitude": 48.484321
    },
    {
        "name": "Bāghestān-e ‘Olyā",
        "country": "Iran",
        "province": "South Khorasan Province",
        "population": -1,
        "latitude": 34.102042,
        "longitude": 58.292831
    },
    {
        "name": "Bāghān",
        "country": "Iran",
        "province": "Bushehr",
        "population": -1,
        "latitude": 28.210005,
        "longitude": 51.881865
    },
    {
        "name": "Bāfq",
        "country": "Iran",
        "province": "Yazd",
        "population": 31215,
        "latitude": 31.603498,
        "longitude": 55.402492
    },
    {
        "name": "Bābolsar",
        "country": "Iran",
        "province": "Māzandarān",
        "population": 48051,
        "latitude": 36.699286,
        "longitude": 52.650111
    },
    {
        "name": "Dār-e Bīd Khūn",
        "country": "Iran",
        "province": "Kerman",
        "population": -1,
        "latitude": 30.770328,
        "longitude": 56.814015
    },
    {
        "name": "Tall-e Bābā Mobārak",
        "country": "Iran",
        "province": "Bushehr",
        "population": -1,
        "latitude": 27.858575,
        "longitude": 52.301778
    },
    {
        "name": "Bābā Kalān",
        "country": "Iran",
        "province": "Kohgiluyeh and Boyer-Ahmad",
        "population": -1,
        "latitude": 30.1163,
        "longitude": 50.8199
    },
    {
        "name": "Hashtrūd",
        "country": "Iran",
        "province": "East Azerbaijan",
        "population": 16888,
        "latitude": 37.4779,
        "longitude": 47.0508
    },
    {
        "name": "Owrāzān",
        "country": "Iran",
        "province": "Alborz Province",
        "population": -1,
        "latitude": 36.132309,
        "longitude": 50.876589
    },
    {
        "name": "Āvarzamān",
        "country": "Iran",
        "province": "Hamadān",
        "population": -1,
        "latitude": 34.266141,
        "longitude": 48.511853
    },
    {
        "name": "Āstārā",
        "country": "Iran",
        "province": "Gīlān",
        "population": 39065,
        "latitude": 38.430841,
        "longitude": 48.869944
    },
    {
        "name": "Āstāneh-ye Ashrafīyeh",
        "country": "Iran",
        "province": "Gīlān",
        "population": 42784,
        "latitude": 37.263178,
        "longitude": 49.943248
    },
    {
        "name": "Eshtākhān",
        "country": "Iran",
        "province": "South Khorasan Province",
        "population": -1,
        "latitude": 32.915154,
        "longitude": 59.590744
    },
    {
        "name": "Āsh Mestīān",
        "country": "Iran",
        "province": "Markazi",
        "population": -1,
        "latitude": 33.582785,
        "longitude": 49.827246
    },
    {
        "name": "Ashketūyeh",
        "country": "Iran",
        "province": "Kerman",
        "population": -1,
        "latitude": 26.731901,
        "longitude": 58.858553
    },
    {
        "name": "‘Āsheqlū",
        "country": "Iran",
        "province": "East Azerbaijan",
        "population": -1,
        "latitude": 38.9867,
        "longitude": 46.6999
    },
    {
        "name": "Asadābād",
        "country": "Iran",
        "province": "Hamadān",
        "population": 59617,
        "latitude": 34.782413,
        "longitude": 48.120118
    },
    {
        "name": "Ortālekh",
        "country": "Iran",
        "province": "Markazi",
        "population": -1,
        "latitude": 33.730499,
        "longitude": 49.449003
    },
    {
        "name": "Ārmādlū",
        "country": "Iran",
        "province": "North Khorasan",
        "population": -1,
        "latitude": 37.297897,
        "longitude": 56.180879
    },
    {
        "name": "Arkūyen",
        "country": "Iran",
        "province": "Zanjan",
        "population": -1,
        "latitude": 36.314004,
        "longitude": 48.140327
    },
    {
        "name": "Erkes-e Soflá",
        "country": "Iran",
        "province": "Hamadān",
        "population": -1,
        "latitude": 34.073905,
        "longitude": 48.863904
    },
    {
        "name": "Ardakān",
        "country": "Iran",
        "province": "Yazd",
        "population": 58834,
        "latitude": 32.310011,
        "longitude": 54.017474
    },
    {
        "name": "Mazra‘eh-ye Dahantag Chāh Asbān",
        "country": "Iran",
        "province": "South Khorasan Province",
        "population": -1,
        "latitude": 33.023856,
        "longitude": 59.049455
    },
    {
        "name": "Qūrīān",
        "country": "Iran",
        "province": "South Khorasan Province",
        "population": -1,
        "latitude": 32.577655,
        "longitude": 58.997162
    },
    {
        "name": "Mehr Jūshān",
        "country": "Iran",
        "province": "Hormozgan",
        "population": -1,
        "latitude": 28.6461,
        "longitude": 55.5902
    },
    {
        "name": "Chāhārdān",
        "country": "Iran",
        "province": "Kerman",
        "population": -1,
        "latitude": 29.848066,
        "longitude": 56.410134
    },
    {
        "name": "Sheykh Hābīl",
        "country": "Iran",
        "province": "Kohgiluyeh and Boyer-Ahmad",
        "population": -1,
        "latitude": 30.944309,
        "longitude": 50.691943
    },
    {
        "name": "Bādengān-e ‘Olyā",
        "country": "Iran",
        "province": "Kohgiluyeh and Boyer-Ahmad",
        "population": -1,
        "latitude": 30.97527035,
        "longitude": 51.30155292
    },
    {
        "name": "Qamīsh Āghol",
        "country": "Iran",
        "province": "East Azerbaijan",
        "population": -1,
        "latitude": 38.5392,
        "longitude": 45.4696
    },
    {
        "name": "Kamālābād",
        "country": "Iran",
        "province": "West Azerbaijan",
        "population": -1,
        "latitude": 38.9639,
        "longitude": 45.0489
    },
    {
        "name": "Gūzī Ḩājjīlār",
        "country": "Iran",
        "province": "East Azerbaijan",
        "population": -1,
        "latitude": 38.6051,
        "longitude": 46.2454
    },
    {
        "name": "Dāsh Āltū",
        "country": "Iran",
        "province": "Zanjan",
        "population": -1,
        "latitude": 35.988856,
        "longitude": 48.332554
    },
    {
        "name": "Shahrak-e Moţahharī",
        "country": "Iran",
        "province": "Khuzestan",
        "population": -1,
        "latitude": 32.269082,
        "longitude": 48.384105
    },
    {
        "name": "Cheshmeh ‘Eynāq",
        "country": "Iran",
        "province": "Khuzestan",
        "population": -1,
        "latitude": 32.049636,
        "longitude": 49.315789
    },
    {
        "name": "Khorramdarreh",
        "country": "Iran",
        "province": "Zanjan",
        "population": 50528,
        "latitude": 36.207769,
        "longitude": 49.19527
    },
    {
        "name": "Yengī Kand-e Jāme‘ os Sarā’",
        "country": "Iran",
        "province": "Zanjan",
        "population": -1,
        "latitude": 36.247357,
        "longitude": 47.999542
    },
    {
        "name": "Mazra‘eh-ye Pānzdah Khordād",
        "country": "Iran",
        "province": "Tehran",
        "population": -1,
        "latitude": 35.5794,
        "longitude": 50.7136
    },
    {
        "name": "Mâkiyân",
        "country": "Iran",
        "province": "Khuzestan",
        "population": -1,
        "latitude": 31.29546,
        "longitude": 49.193274
    },
    {
        "name": "Balūkānlū",
        "country": "Iran",
        "province": "Ardabīl",
        "population": -1,
        "latitude": 37.793024,
        "longitude": 48.513067
    },
    {
        "name": "Kalvārī",
        "country": "Iran",
        "province": "Chaharmahal and Bakhtiari",
        "population": -1,
        "latitude": 31.290834,
        "longitude": 51.233992
    },
    {
        "name": "Īlvār",
        "country": "Iran",
        "province": "Golestan",
        "population": -1,
        "latitude": 36.797778,
        "longitude": 54.1975
    },
    {
        "name": "Tamer-e Qarah Qūzī",
        "country": "Iran",
        "province": "Golestan",
        "population": -1,
        "latitude": 37.497769,
        "longitude": 55.499921
    },
    {
        "name": "Ūqchī Kūchek",
        "country": "Iran",
        "province": "Golestan",
        "population": -1,
        "latitude": 37.693218,
        "longitude": 55.383778
    },
    {
        "name": "Ashkām Chāl",
        "country": "Iran",
        "province": "Gīlān",
        "population": -1,
        "latitude": 37.355196,
        "longitude": 49.968583
    },
    {
        "name": "Eskanān",
        "country": "Iran",
        "province": "Hamadān",
        "population": -1,
        "latitude": 34.357718,
        "longitude": 48.592717
    },
    {
        "name": "Oshgālī",
        "country": "Iran",
        "province": "Bushehr",
        "population": -1,
        "latitude": 28.999014,
        "longitude": 51.265938
    },
    {
        "name": "Esfarāyen",
        "country": "Iran",
        "province": "North Khorasan",
        "population": 59678,
        "latitude": 37.076448,
        "longitude": 57.510086
    },
    {
        "name": "Esfahrūd",
        "country": "Iran",
        "province": "South Khorasan Province",
        "population": -1,
        "latitude": 32.804176,
        "longitude": 59.302922
    },
    {
        "name": "Ammāmeh-ye Soflá",
        "country": "Iran",
        "province": "Tehran",
        "population": -1,
        "latitude": 35.9003,
        "longitude": 51.5837
    },
    {
        "name": "Dūskām",
        "country": "Iran",
        "province": "South Khorasan Province",
        "population": -1,
        "latitude": 32.741158,
        "longitude": 59.11619
    },
    {
        "name": "Dodeh",
        "country": "Iran",
        "province": "Qazvīn",
        "population": -1,
        "latitude": 36.372069,
        "longitude": 49.685623
    },
    {
        "name": "Dobb-e Hardān",
        "country": "Iran",
        "province": "Khuzestan",
        "population": -1,
        "latitude": 31.30384599,
        "longitude": 48.51373466
    },
    {
        "name": "Dowlowjerdīn-e Bālā",
        "country": "Iran",
        "province": "Hamadān",
        "population": -1,
        "latitude": 35.347817,
        "longitude": 49.109066
    },
    {
        "name": "Doshman Kandī",
        "country": "Iran",
        "province": "Zanjan",
        "population": -1,
        "latitude": 36.546152,
        "longitude": 48.329262
    },
    {
        "name": "Dūst-e Īrān",
        "country": "Iran",
        "province": "Fars",
        "population": -1,
        "latitude": 29.785074,
        "longitude": 51.784155
    },
    {
        "name": "Domrīādān",
        "country": "Iran",
        "province": "Bushehr",
        "population": -1,
        "latitude": 28.8416,
        "longitude": 51.2842
    },
    {
        "name": "Dīzaj-e Yekān",
        "country": "Iran",
        "province": "East Azerbaijan",
        "population": -1,
        "latitude": 38.4347,
        "longitude": 45.7468
    },
    {
        "name": "Bandar-e Sharafkhāneh",
        "country": "Iran",
        "province": "East Azerbaijan",
        "population": -1,
        "latitude": 38.177061,
        "longitude": 45.488151
    },
    {
        "name": "Dīzaj Ḩoseyn Beyg",
        "country": "Iran",
        "province": "East Azerbaijan",
        "population": -1,
        "latitude": 38.4669,
        "longitude": 45.6176
    },
    {
        "name": "Dīzaj-e ‘Olyā",
        "country": "Iran",
        "province": "East Azerbaijan",
        "population": -1,
        "latitude": 38.3996,
        "longitude": 45.7794
    },
    {
        "name": "Cheshmeh Malek",
        "country": "Iran",
        "province": "Hamadān",
        "population": -1,
        "latitude": 34.754895,
        "longitude": 48.493059
    },
    {
        "name": "Deylāvand-e Soflá",
        "country": "Iran",
        "province": "Lorestan Province",
        "population": -1,
        "latitude": 33.7012,
        "longitude": 47.1002
    },
    {
        "name": "Dīgeh Sarā",
        "country": "Iran",
        "province": "Gīlān",
        "population": -1,
        "latitude": 37.638026,
        "longitude": 48.993309
    },
    {
        "name": "Dezvand-e Soflá",
        "country": "Iran",
        "province": "Kordestān",
        "population": -1,
        "latitude": 35.0995,
        "longitude": 46.5575
    },
    {
        "name": "Delvār",
        "country": "Iran",
        "province": "Bushehr",
        "population": -1,
        "latitude": 28.7626,
        "longitude": 51.0697
    },
    {
        "name": "Delījān",
        "country": "Iran",
        "province": "Markazi",
        "population": 33508,
        "latitude": 33.9905,
        "longitude": 50.6838
    },
    {
        "name": "Del Ārām",
        "country": "Iran",
        "province": "Bushehr",
        "population": -1,
        "latitude": 28.6643,
        "longitude": 51.0757
    },
    {
        "name": "Yūsef ‘Alī",
        "country": "Iran",
        "province": "Lorestan Province",
        "population": -1,
        "latitude": 34.078809,
        "longitude": 48.702027
    },
    {
        "name": "Deh-e Shāh",
        "country": "Iran",
        "province": "Kerman",
        "population": -1,
        "latitude": 30.418358,
        "longitude": 57.179573
    },
    {
        "name": "Dehshīr-e Soflá",
        "country": "Iran",
        "province": "Zanjan",
        "population": -1,
        "latitude": 36.541156,
        "longitude": 48.084497
    },
    {
        "name": "Dehshīr-e ‘Olyā",
        "country": "Iran",
        "province": "Zanjan",
        "population": -1,
        "latitude": 36.567764,
        "longitude": 48.083003
    },
    {
        "name": "Deh Raqeh",
        "country": "Iran",
        "province": "Kordestān",
        "population": -1,
        "latitude": 35.688221,
        "longitude": 47.328247
    },
    {
        "name": "Dehnow",
        "country": "Iran",
        "province": "Chaharmahal and Bakhtiari",
        "population": -1,
        "latitude": 31.90482,
        "longitude": 50.704396
    },
    {
        "name": "Deymoghān",
        "country": "Iran",
        "province": "Hormozgan",
        "population": -1,
        "latitude": 27.9357,
        "longitude": 56.7771
    },
    {
        "name": "Dehlorān",
        "country": "Iran",
        "province": "Ilam Province",
        "population": 46002,
        "latitude": 32.6941,
        "longitude": 47.2679
    },
    {
        "name": "Golzār",
        "country": "Iran",
        "province": "Kerman",
        "population": -1,
        "latitude": 29.7113,
        "longitude": 57.0394
    },
    {
        "name": "Dehnow Khvājeh",
        "country": "Iran",
        "province": "Hormozgan",
        "population": -1,
        "latitude": 27.052355,
        "longitude": 54.048423
    },
    {
        "name": "Māzarīn",
        "country": "Iran",
        "province": "Yazd",
        "population": -1,
        "latitude": 31.848069,
        "longitude": 55.877459
    },
    {
        "name": "Dāydār-e Soflá",
        "country": "Iran",
        "province": "Zanjan",
        "population": -1,
        "latitude": 36.139167,
        "longitude": 48.112507
    },
    {
        "name": "Dasht-e Z̄āl-e Shomālī",
        "country": "Iran",
        "province": "Bushehr",
        "population": -1,
        "latitude": 28.399722,
        "longitude": 51.678611
    },
    {
        "name": "Sūsangerd",
        "country": "Iran",
        "province": "Khuzestan",
        "population": 41443,
        "latitude": 31.563497,
        "longitude": 48.189576
    },
    {
        "name": "Dāsh Feshal",
        "country": "Iran",
        "province": "West Azerbaijan",
        "population": -1,
        "latitude": 39.142,
        "longitude": 44.6863
    },
    {
        "name": "Darāshekaf",
        "country": "Iran",
        "province": "South Khorasan Province",
        "population": -1,
        "latitude": 32.20828,
        "longitude": 59.438242
    },
    {
        "name": "Darreh Zīārat-e Pā’īn",
        "country": "Iran",
        "province": "Kordestān",
        "population": -1,
        "latitude": 36.007,
        "longitude": 46.2847
    },
    {
        "name": "Darreh Shahr",
        "country": "Iran",
        "province": "Ilam Province",
        "population": 24961,
        "latitude": 33.144468,
        "longitude": 47.379903
    },
    {
        "name": "Darvīān-e Sheykh Aḩmad",
        "country": "Iran",
        "province": "Kordestān",
        "population": -1,
        "latitude": 35.9351,
        "longitude": 46.4603
    },
    {
        "name": "Darreh Tang-e Bālā",
        "country": "Iran",
        "province": "Lorestan Province",
        "population": -1,
        "latitude": 33.932729,
        "longitude": 48.280992
    },
    {
        "name": "Darreh Gazān",
        "country": "Iran",
        "province": "South Khorasan Province",
        "population": -1,
        "latitude": 33.1066,
        "longitude": 59.243248
    },
    {
        "name": "Dār Ghīās̄",
        "country": "Iran",
        "province": "Kordestān",
        "population": -1,
        "latitude": 35.703585,
        "longitude": 47.72674
    },
    {
        "name": "Dārāb",
        "country": "Iran",
        "province": "Fars",
        "population": 63319,
        "latitude": 28.751706,
        "longitude": 54.540646
    },
    {
        "name": "Jūraqān",
        "country": "Iran",
        "province": "Hamadān",
        "population": -1,
        "latitude": 34.8849,
        "longitude": 48.554442
    },
    {
        "name": "Jowshīn",
        "country": "Iran",
        "province": "East Azerbaijan",
        "population": -1,
        "latitude": 38.6201,
        "longitude": 46.3773
    },
    {
        "name": "Jūbījārkol",
        "country": "Iran",
        "province": "Gīlān",
        "population": -1,
        "latitude": 37.285773,
        "longitude": 49.782134
    },
    {
        "name": "Jenāḩ",
        "country": "Iran",
        "province": "Hormozgan",
        "population": -1,
        "latitude": 27.020158,
        "longitude": 54.283977
    },
    {
        "name": "Jejag",
        "country": "Iran",
        "province": "South Khorasan Province",
        "population": -1,
        "latitude": 33.09881,
        "longitude": 59.483907
    },
    {
        "name": "Jeq Jeq-e ‘Olyā",
        "country": "Iran",
        "province": "Ardabīl",
        "population": -1,
        "latitude": 37.868864,
        "longitude": 48.250046
    },
    {
        "name": "Jazlāndasht",
        "country": "Iran",
        "province": "Zanjan",
        "population": -1,
        "latitude": 37.016102,
        "longitude": 48.78021
    },
    {
        "name": "Javānrūd",
        "country": "Iran",
        "province": "Kermānshāh",
        "population": 38657,
        "latitude": 34.7961111,
        "longitude": 46.5172222
    },
    {
        "name": "Jetūţ",
        "country": "Iran",
        "province": "Bushehr",
        "population": -1,
        "latitude": 29.3568,
        "longitude": 51.1465
    },
    {
        "name": "Jambarjūq",
        "country": "Iran",
        "province": "Razavi Khorasan",
        "population": -1,
        "latitude": 36.479287,
        "longitude": 58.200579
    },
    {
        "name": "Jā’īnak",
        "country": "Iran",
        "province": "Bushehr",
        "population": -1,
        "latitude": 28.7879,
        "longitude": 51.0691
    },
    {
        "name": "Jafreh-ye ‘Ellatbāsh",
        "country": "Iran",
        "province": "Bushehr",
        "population": -1,
        "latitude": 28.964167,
        "longitude": 50.825556
    },
    {
        "name": "Īvarā‘",
        "country": "Iran",
        "province": "Hamadān",
        "population": -1,
        "latitude": 34.837558,
        "longitude": 48.011917
    },
    {
        "name": "Tīlkū",
        "country": "Iran",
        "province": "Kordestān",
        "population": -1,
        "latitude": 36.1406,
        "longitude": 46.75
    },
    {
        "name": "Īvāneh-ye Sāmen",
        "country": "Iran",
        "province": "Hamadān",
        "population": -1,
        "latitude": 34.243053,
        "longitude": 48.597578
    },
    {
        "name": "Ḩūrmoghān-e Soflá",
        "country": "Iran",
        "province": "East Azerbaijan",
        "population": -1,
        "latitude": 38.7141,
        "longitude": 47.0159
    },
    {
        "name": "Ḩūrmoghān-e Olya",
        "country": "Iran",
        "province": "East Azerbaijan",
        "population": -1,
        "latitude": 38.7159,
        "longitude": 47.0311
    },
    {
        "name": "Hūnestān",
        "country": "Iran",
        "province": "Semnan",
        "population": -1,
        "latitude": 36.575183,
        "longitude": 55.848029
    },
    {
        "name": "Hengūyeh",
        "country": "Iran",
        "province": "Hormozgan",
        "population": -1,
        "latitude": 27.069891,
        "longitude": 54.007683
    },
    {
        "name": "Holvar-e Soflá",
        "country": "Iran",
        "province": "Hamadān",
        "population": -1,
        "latitude": 34.679812,
        "longitude": 48.134299
    },
    {
        "name": "Holvar-e Bālā",
        "country": "Iran",
        "province": "Hamadān",
        "population": -1,
        "latitude": 34.693186,
        "longitude": 48.165407
    },
    {
        "name": "Bandar-e Hengām",
        "country": "Iran",
        "province": "Hormozgan",
        "population": -1,
        "latitude": 26.6831,
        "longitude": 55.8926
    },
    {
        "name": "Hendīman",
        "country": "Iran",
        "province": "Kordestān",
        "population": -1,
        "latitude": 34.9975,
        "longitude": 46.7908333
    },
    {
        "name": "Ḩashām Balm",
        "country": "Iran",
        "province": "Hormozgan",
        "population": -1,
        "latitude": 27.9535,
        "longitude": 56.6841
    },
    {
        "name": "Ḩoseynābād-e Qūsh Bolāgh",
        "country": "Iran",
        "province": "Hamadān",
        "population": -1,
        "latitude": 34.424052,
        "longitude": 48.654518
    },
    {
        "name": "Harūz-e ‘Olyā",
        "country": "Iran",
        "province": "Kerman",
        "population": -1,
        "latitude": 30.727194,
        "longitude": 57.047796
    },
    {
        "name": "Howrūk",
        "country": "Iran",
        "province": "Yazd",
        "population": -1,
        "latitude": 31.170213,
        "longitude": 53.216933
    },
    {
        "name": "Harsīn",
        "country": "Iran",
        "province": "Kermānshāh",
        "population": 57647,
        "latitude": 34.2721,
        "longitude": 47.5861
    },
    {
        "name": "Harmedal",
        "country": "Iran",
        "province": "Kordestān",
        "population": -1,
        "latitude": 35.88,
        "longitude": 46.2008
    },
    {
        "name": "Ḩaq ol Khvājeh",
        "country": "Iran",
        "province": "Semnan",
        "population": -1,
        "latitude": 37.148975,
        "longitude": 55.990008
    },
    {
        "name": "Ḩājjī Ḩāẕer",
        "country": "Iran",
        "province": "Ilam Province",
        "population": -1,
        "latitude": 33.9056,
        "longitude": 46.2139
    },
    {
        "name": "Ḩājj Ārash",
        "country": "Iran",
        "province": "Zanjan",
        "population": -1,
        "latitude": 36.683377,
        "longitude": 48.160484
    },
    {
        "name": "Ḩājjīābād-e Bostejān",
        "country": "Iran",
        "province": "Semnan",
        "population": -1,
        "latitude": 36.198539,
        "longitude": 54.409975
    },
    {
        "name": "Qabāleh Fīrūzī",
        "country": "Iran",
        "province": "Fars",
        "population": -1,
        "latitude": 30.0745,
        "longitude": 52.4286
    },
    {
        "name": "Gavīdaraq",
        "country": "Iran",
        "province": "East Azerbaijan",
        "population": -1,
        "latitude": 38.344367,
        "longitude": 46.85607
    },
    {
        "name": "Golbargān",
        "country": "Iran",
        "province": "South Khorasan Province",
        "population": -1,
        "latitude": 32.793341,
        "longitude": 59.058909
    },
    {
        "name": "Gūshkī-ye Bālā",
        "country": "Iran",
        "province": "Lorestan Province",
        "population": -1,
        "latitude": 34.029538,
        "longitude": 48.798656
    },
    {
        "name": "Gūreh Chīn",
        "country": "Iran",
        "province": "Lorestan Province",
        "population": -1,
        "latitude": 33.490145,
        "longitude": 49.627139
    },
    {
        "name": "Nowjeh Deh-e Karīmī",
        "country": "Iran",
        "province": "East Azerbaijan",
        "population": -1,
        "latitude": 38.751804,
        "longitude": 47.028506
    },
    {
        "name": "Nowghāb",
        "country": "Iran",
        "province": "South Khorasan Province",
        "population": -1,
        "latitude": 33.115907,
        "longitude": 59.193622
    },
    {
        "name": "Bohrāz",
        "country": "Iran",
        "province": "Hamadān",
        "population": -1,
        "latitude": 34.692206,
        "longitude": 48.085012
    },
    {
        "name": "Nayrej",
        "country": "Iran",
        "province": "Qazvīn",
        "population": -1,
        "latitude": 35.670166,
        "longitude": 49.083478
    },
    {
        "name": "Neyrīz",
        "country": "Iran",
        "province": "Fars",
        "population": 45506,
        "latitude": 29.1988,
        "longitude": 54.3278
    },
    {
        "name": "Nekā",
        "country": "Iran",
        "province": "Māzandarān",
        "population": 48847,
        "latitude": 36.650786,
        "longitude": 53.299048
    },
    {
        "name": "Negar-e Bālā",
        "country": "Iran",
        "province": "Hormozgan",
        "population": -1,
        "latitude": 25.847682,
        "longitude": 57.629298
    },
    {
        "name": "Naz̧arlū",
        "country": "Iran",
        "province": "East Azerbaijan",
        "population": -1,
        "latitude": 38.1796,
        "longitude": 45.9125
    },
    {
        "name": "Nām Nīk",
        "country": "Iran",
        "province": "Semnan",
        "population": -1,
        "latitude": 37.126113,
        "longitude": 55.684092
    },
    {
        "name": "Najm Sheykhān",
        "country": "Iran",
        "province": "Zanjan",
        "population": -1,
        "latitude": 36.284888,
        "longitude": 48.2276
    },
    {
        "name": "Najī",
        "country": "Iran",
        "province": "Kordestān",
        "population": -1,
        "latitude": 35.2524,
        "longitude": 46.6025
    },
    {
        "name": "Najafābād",
        "country": "Iran",
        "province": "West Azerbaijan",
        "population": -1,
        "latitude": 38.0832,
        "longitude": 45.1026
    },
    {
        "name": "Mokhvor",
        "country": "Iran",
        "province": "West Azerbaijan",
        "population": -1,
        "latitude": 39.0083,
        "longitude": 44.7965
    },
    {
        "name": "Modbeg-e Vosţá ‘Akāshī",
        "country": "Iran",
        "province": "Khuzestan",
        "population": -1,
        "latitude": 30.848619,
        "longitude": 49.449646
    },
    {
        "name": "Modbeg-e Vosţá ‘Abdol‘alī",
        "country": "Iran",
        "province": "Khuzestan",
        "population": -1,
        "latitude": 30.843454,
        "longitude": 49.442655
    },
    {
        "name": "Moshīrābād",
        "country": "Iran",
        "province": "Kordestān",
        "population": -1,
        "latitude": 35.147622,
        "longitude": 47.716355
    },
    {
        "name": "Mūqātol",
        "country": "Iran",
        "province": "West Azerbaijan",
        "population": -1,
        "latitude": 38.038,
        "longitude": 45.1469
    },
    {
        "name": "Malḩamdarreh",
        "country": "Iran",
        "province": "Hamadān",
        "population": -1,
        "latitude": 34.831463,
        "longitude": 48.145267
    },
    {
        "name": "Mohr",
        "country": "Iran",
        "province": "Fars",
        "population": 35000,
        "latitude": 27.5552,
        "longitude": 52.8836
    },
    {
        "name": "Modāvād",
        "country": "Iran",
        "province": "Lorestan Province",
        "population": -1,
        "latitude": 33.598223,
        "longitude": 49.561123
    },
    {
        "name": "Mīshījān-e Bālā",
        "country": "Iran",
        "province": "Markazi",
        "population": -1,
        "latitude": 33.678429,
        "longitude": 50.12592
    },
    {
        "name": "Mīrzāvand",
        "country": "Iran",
        "province": "Lorestan Province",
        "population": -1,
        "latitude": 33.5962,
        "longitude": 48.0576
    },
    {
        "name": "Gīl Kalā",
        "country": "Iran",
        "province": "Māzandarān",
        "population": -1,
        "latitude": 36.326965,
        "longitude": 51.569751
    },
    {
        "name": "Merkeh Derīzh",
        "country": "Iran",
        "province": "Kordestān",
        "population": -1,
        "latitude": 35.6733,
        "longitude": 46.1053
    },
    {
        "name": "Mīnāb",
        "country": "Iran",
        "province": "Hormozgan",
        "population": 70790,
        "latitude": 27.131043,
        "longitude": 57.087159
    },
    {
        "name": "Mīānlū",
        "country": "Iran",
        "province": "Bushehr",
        "population": -1,
        "latitude": 27.7712,
        "longitude": 52.1306
    },
    {
        "name": "Eslāmābād",
        "country": "Iran",
        "province": "Yazd",
        "population": -1,
        "latitude": 32.029722,
        "longitude": 54.123611
    },
    {
        "name": "Meybod",
        "country": "Iran",
        "province": "Yazd",
        "population": 51874,
        "latitude": 32.250137,
        "longitude": 54.016585
    },
    {
        "name": "Meshk-e ‘Anbar",
        "country": "Iran",
        "province": "East Azerbaijan",
        "population": -1,
        "latitude": 38.437824,
        "longitude": 46.484891
    },
    {
        "name": "Mahrīz",
        "country": "Iran",
        "province": "Yazd",
        "population": 36720,
        "latitude": 31.584279,
        "longitude": 54.442798
    },
    {
        "name": "Mazra‘eh-ye Ḩoseyn-e ‘Olyā",
        "country": "Iran",
        "province": "Markazi",
        "population": -1,
        "latitude": 33.659328,
        "longitude": 49.927284
    },
    {
        "name": "Mazra‘eh-ye Chol",
        "country": "Iran",
        "province": "East Azerbaijan",
        "population": -1,
        "latitude": 38.5687,
        "longitude": 46.4131
    },
    {
        "name": "Mazra‘eh-ye Pā’īn",
        "country": "Iran",
        "province": "Markazi",
        "population": -1,
        "latitude": 33.760014,
        "longitude": 49.945787
    },
    {
        "name": "Mazaj",
        "country": "Iran",
        "province": "Semnan",
        "population": -1,
        "latitude": 36.610237,
        "longitude": 55.403259
    },
    {
        "name": "Māyān-e Pā’īn",
        "country": "Iran",
        "province": "East Azerbaijan",
        "population": -1,
        "latitude": 38.0822,
        "longitude": 46.1078
    },
    {
        "name": "Masjed-e ‘Olyā",
        "country": "Iran",
        "province": "Hamadān",
        "population": -1,
        "latitude": 35.543086,
        "longitude": 48.263667
    },
    {
        "name": "Eslāmābād-e Mashnaq",
        "country": "Iran",
        "province": "East Azerbaijan",
        "population": -1,
        "latitude": 38.2292,
        "longitude": 45.5709
    },
    {
        "name": "Bardsīr",
        "country": "Iran",
        "province": "Kerman",
        "population": 37192,
        "latitude": 29.92266,
        "longitude": 56.574335
    },
    {
        "name": "Qerkhlār",
        "country": "Iran",
        "province": "East Azerbaijan",
        "population": -1,
        "latitude": 38.5096,
        "longitude": 45.3912
    },
    {
        "name": "Qāzeqlū",
        "country": "Iran",
        "province": "Zanjan",
        "population": -1,
        "latitude": 35.891486,
        "longitude": 48.339448
    },
    {
        "name": "Qāẕīān Bālā Maḩalleh",
        "country": "Iran",
        "province": "Gīlān",
        "population": -1,
        "latitude": 37.085418,
        "longitude": 49.683738
    },
    {
        "name": "Deh-e Kohneh",
        "country": "Iran",
        "province": "Fars",
        "population": -1,
        "latitude": 30.480494,
        "longitude": 53.130473
    },
    {
        "name": "Qaţvand",
        "country": "Iran",
        "province": "Kordestān",
        "population": -1,
        "latitude": 35.5457,
        "longitude": 46.5421
    },
    {
        "name": "Qārqūlūq-e Bālā",
        "country": "Iran",
        "province": "West Azerbaijan",
        "population": -1,
        "latitude": 39.283,
        "longitude": 45.1162
    },
    {
        "name": "Qārkhatlū",
        "country": "Iran",
        "province": "Zanjan",
        "population": -1,
        "latitude": 36.471661,
        "longitude": 48.396273
    },
    {
        "name": "Qarah Ẕīā’ od Dīn",
        "country": "Iran",
        "province": "West Azerbaijan",
        "population": 31947,
        "latitude": 38.8915,
        "longitude": 45.0255
    },
    {
        "name": "Qareh Tūlkī-ye Bālā",
        "country": "Iran",
        "province": "West Azerbaijan",
        "population": -1,
        "latitude": 39.0624,
        "longitude": 44.5906
    },
    {
        "name": "Qareh Tappeh-ye Bālā",
        "country": "Iran",
        "province": "East Azerbaijan",
        "population": -1,
        "latitude": 38.276,
        "longitude": 45.3632
    },
    {
        "name": "Qarah Tappeh",
        "country": "Iran",
        "province": "West Azerbaijan",
        "population": -1,
        "latitude": 39.3189,
        "longitude": 44.661
    },
    {
        "name": "Qarah Moḩammad",
        "country": "Iran",
        "province": "Zanjan",
        "population": -1,
        "latitude": 35.724984,
        "longitude": 48.49875
    },
    {
        "name": "Qarah Kūl",
        "country": "Iran",
        "province": "Zanjan",
        "population": -1,
        "latitude": 36.778677,
        "longitude": 48.033667
    },
    {
        "name": "Qarah Dūlākh",
        "country": "Iran",
        "province": "Zanjan",
        "population": -1,
        "latitude": 36.106983,
        "longitude": 48.164212
    },
    {
        "name": "Qarah Chīrān",
        "country": "Iran",
        "province": "Zanjan",
        "population": -1,
        "latitude": 36.889284,
        "longitude": 48.263173
    },
    {
        "name": "Qarah Bolāgh-e Panjeh",
        "country": "Iran",
        "province": "Kordestān",
        "population": -1,
        "latitude": 35.11581,
        "longitude": 47.503404
    },
    {
        "name": "Qarah Āghāj",
        "country": "Iran",
        "province": "West Azerbaijan",
        "population": -1,
        "latitude": 39.0733,
        "longitude": 44.9837
    },
    {
        "name": "Qarah Āghāj Bāzār",
        "country": "Iran",
        "province": "East Azerbaijan",
        "population": -1,
        "latitude": 37.1288,
        "longitude": 46.9754
    },
    {
        "name": "Qareh Āghāj",
        "country": "Iran",
        "province": "Zanjan",
        "population": -1,
        "latitude": 36.769875,
        "longitude": 48.095883
    },
    {
        "name": "Qarah Qayah",
        "country": "Iran",
        "province": "Hamadān",
        "population": -1,
        "latitude": 35.268,
        "longitude": 49.2494
    },
    {
        "name": "Qovīn Ārūq-e Soflá",
        "country": "Iran",
        "province": "Markazi",
        "population": -1,
        "latitude": 34.043658,
        "longitude": 49.544553
    },
    {
        "name": "Qovīn Ārūq-e ‘Olyā",
        "country": "Iran",
        "province": "Markazi",
        "population": -1,
        "latitude": 34.053813,
        "longitude": 49.574493
    },
    {
        "name": "Qānqolī Chā-ye Soflá",
        "country": "Iran",
        "province": "Zanjan",
        "population": -1,
        "latitude": 36.8718,
        "longitude": 48.975516
    },
    {
        "name": "Qanāt-e Kāsīān",
        "country": "Iran",
        "province": "Lorestan Province",
        "population": -1,
        "latitude": 33.6598,
        "longitude": 48.6179
    },
    {
        "name": "Āshkārā",
        "country": "Iran",
        "province": "Hormozgan",
        "population": -1,
        "latitude": 28.1393,
        "longitude": 56.1646
    },
    {
        "name": "Qamīshlū",
        "country": "Iran",
        "province": "Zanjan",
        "population": -1,
        "latitude": 36.151192,
        "longitude": 48.313575
    },
    {
        "name": "Qal‘eh Ra’īsī",
        "country": "Iran",
        "province": "Kohgiluyeh and Boyer-Ahmad",
        "population": -1,
        "latitude": 31.19,
        "longitude": 50.442
    },
    {
        "name": "Qal‘eh-ye Pasījān",
        "country": "Iran",
        "province": "Markazi",
        "population": -1,
        "latitude": 33.860762,
        "longitude": 49.573812
    },
    {
        "name": "Cheshmeh Sārān",
        "country": "Iran",
        "province": "Hamadān",
        "population": -1,
        "latitude": 34.169724,
        "longitude": 48.545967
    },
    {
        "name": "Qal‘eh Jīq",
        "country": "Iran",
        "province": "East Azerbaijan",
        "population": -1,
        "latitude": 38.6369,
        "longitude": 47.1988
    },
    {
        "name": "Qal‘eh-ye Ḩeydar",
        "country": "Iran",
        "province": "Bushehr",
        "population": -1,
        "latitude": 29.637,
        "longitude": 50.4571
    },
    {
        "name": "Qal‘eh-ye ‘Abd or Reẕā",
        "country": "Iran",
        "province": "Lorestan Province",
        "population": -1,
        "latitude": 33.283584,
        "longitude": 49.821258
    },
    {
        "name": "Qal‘eh Now",
        "country": "Iran",
        "province": "Hamadān",
        "population": -1,
        "latitude": 34.030529,
        "longitude": 48.918786
    },
    {
        "name": "Qal‘eh Now-e Kharaqān",
        "country": "Iran",
        "province": "Semnan",
        "population": -1,
        "latitude": 36.632412,
        "longitude": 55.072085
    },
    {
        "name": "Bahārāb",
        "country": "Iran",
        "province": "Hamadān",
        "population": -1,
        "latitude": 34.635852,
        "longitude": 48.18597
    },
    {
        "name": "Dībāj",
        "country": "Iran",
        "province": "Semnan",
        "population": -1,
        "latitude": 36.426947,
        "longitude": 54.223697
    },
    {
        "name": "Qalāteh Rashkeh",
        "country": "Iran",
        "province": "Kordestān",
        "population": -1,
        "latitude": 35.646,
        "longitude": 46.983
    },
    {
        "name": "Qeyk",
        "country": "Iran",
        "province": "South Khorasan Province",
        "population": -1,
        "latitude": 32.73105,
        "longitude": 59.975168
    },
    {
        "name": "Qā’en",
        "country": "Iran",
        "province": "South Khorasan Province",
        "population": 40157,
        "latitude": 33.726539,
        "longitude": 59.184393
    },
    {
        "name": "Posht-e Tang-e Fīrūzābād",
        "country": "Iran",
        "province": "Lorestan Province",
        "population": -1,
        "latitude": 33.9229,
        "longitude": 48.0959
    },
    {
        "name": "Posht-e Jū",
        "country": "Iran",
        "province": "Lorestan Province",
        "population": -1,
        "latitude": 33.180543,
        "longitude": 48.290288
    },
    {
        "name": "Robāţ-e Posht-e Bādām",
        "country": "Iran",
        "province": "Yazd",
        "population": -1,
        "latitude": 33.014811,
        "longitude": 55.562517
    },
    {
        "name": "Mazra‘eh Polowlī",
        "country": "Iran",
        "province": "Markazi",
        "population": -1,
        "latitude": 33.593945,
        "longitude": 49.696119
    },
    {
        "name": "Pīshvā",
        "country": "Iran",
        "province": "Tehran",
        "population": 53856,
        "latitude": 35.308,
        "longitude": 51.7267
    },
    {
        "name": "Maḩalleh-ye Pīrkolā Chāy",
        "country": "Iran",
        "province": "Gīlān",
        "population": -1,
        "latitude": 37.263251,
        "longitude": 49.628114
    },
    {
        "name": "Sūlāvī",
        "country": "Iran",
        "province": "Ilam Province",
        "population": -1,
        "latitude": 33.819469,
        "longitude": 47.440107
    },
    {
        "name": "Pey Ostān",
        "country": "Iran",
        "province": "South Khorasan Province",
        "population": -1,
        "latitude": 34.071476,
        "longitude": 56.463322
    },
    {
        "name": "Peykūh",
        "country": "Iran",
        "province": "South Khorasan Province",
        "population": -1,
        "latitude": 33.086143,
        "longitude": 57.371108
    },
    {
        "name": "Pol-e Bābā Ḩoseyn",
        "country": "Iran",
        "province": "Lorestan Province",
        "population": -1,
        "latitude": 33.395054,
        "longitude": 48.426125
    },
    {
        "name": "Posūch",
        "country": "Iran",
        "province": "South Khorasan Province",
        "population": -1,
        "latitude": 33.013867,
        "longitude": 59.300665
    },
    {
        "name": "Pasheh Gān",
        "country": "Iran",
        "province": "Kohgiluyeh and Boyer-Ahmad",
        "population": -1,
        "latitude": 30.3194,
        "longitude": 50.8131
    },
    {
        "name": "Parsbānej",
        "country": "Iran",
        "province": "Qazvīn",
        "population": -1,
        "latitude": 35.473701,
        "longitude": 49.387841
    },
    {
        "name": "Pā Qalātūn-e Pā’īn",
        "country": "Iran",
        "province": "Hormozgan",
        "population": -1,
        "latitude": 27.3952,
        "longitude": 56.793
    },
    {
        "name": "Pā Qalāt",
        "country": "Iran",
        "province": "Fars",
        "population": -1,
        "latitude": 27.276045,
        "longitude": 53.721004
    },
    {
        "name": "Panj Peykar",
        "country": "Iran",
        "province": "Golestan",
        "population": -1,
        "latitude": 36.949267,
        "longitude": 54.16016
    },
    {
        "name": "Pakāchīk",
        "country": "Iran",
        "province": "West Azerbaijan",
        "population": -1,
        "latitude": 38.596359,
        "longitude": 45.010842
    },
    {
        "name": "Owrtā Bolāgh",
        "country": "Iran",
        "province": "Zanjan",
        "population": -1,
        "latitude": 36.96158,
        "longitude": 48.379829
    },
    {
        "name": "Ūgholbeyk-e Soflá",
        "country": "Iran",
        "province": "Zanjan",
        "population": -1,
        "latitude": 36.434823,
        "longitude": 48.471909
    },
    {
        "name": "Ūgholbeyk-e ‘Olyā",
        "country": "Iran",
        "province": "Zanjan",
        "population": -1,
        "latitude": 36.481649,
        "longitude": 48.469592
    },
    {
        "name": "Oshtelaq-e Pā’īn",
        "country": "Iran",
        "province": "East Azerbaijan",
        "population": -1,
        "latitude": 38.0243,
        "longitude": 46.9812
    },
    {
        "name": "Orūj-e Moḩammad Kandī",
        "country": "Iran",
        "province": "West Azerbaijan",
        "population": -1,
        "latitude": 39.2686,
        "longitude": 45.0262
    },
    {
        "name": "Vartāqmīsh",
        "country": "Iran",
        "province": "Hamadān",
        "population": -1,
        "latitude": 35.570422,
        "longitude": 48.628873
    },
    {
        "name": "Omm ol Khassá-ye Vosţá",
        "country": "Iran",
        "province": "Khuzestan",
        "population": -1,
        "latitude": 30.74918,
        "longitude": 49.458552
    },
    {
        "name": "Omm ol Khassá-ye Soflá",
        "country": "Iran",
        "province": "Khuzestan",
        "population": -1,
        "latitude": 30.741137,
        "longitude": 49.456396
    },
    {
        "name": "Omīdīyeh",
        "country": "Iran",
        "province": "Khuzestan",
        "population": 46983,
        "latitude": 30.762766,
        "longitude": 49.702257
    },
    {
        "name": "Owchūnak",
        "country": "Iran",
        "province": "Tehran",
        "population": -1,
        "latitude": 35.566485,
        "longitude": 52.235294
    },
    {
        "name": "Nūrābād",
        "country": "Iran",
        "province": "Fars",
        "population": 64041,
        "latitude": 30.114052,
        "longitude": 51.521744
    },
    {
        "name": "Nowshahr",
        "country": "Iran",
        "province": "Māzandarān",
        "population": 40000,
        "latitude": 36.64852,
        "longitude": 51.496206
    },
    {
        "name": "Nowkār-e Nakhlī",
        "country": "Iran",
        "province": "Bushehr",
        "population": -1,
        "latitude": 29.185225,
        "longitude": 51.032159
    },
    {
        "name": "Pol-e Shekasteh",
        "country": "Iran",
        "province": "Hamadān",
        "population": -1,
        "latitude": 34.629299,
        "longitude": 48.04447
    },
    {
        "name": "Amrūdīyeh",
        "country": "Iran",
        "province": "Kerman",
        "population": -1,
        "latitude": 30.842582,
        "longitude": 56.836483
    },
    {
        "name": "Khomeh-ye ‘Olyā",
        "country": "Iran",
        "province": "Lorestan Province",
        "population": -1,
        "latitude": 33.48124,
        "longitude": 49.738659
    },
    {
        "name": "Kheẕerlū",
        "country": "Iran",
        "province": "West Azerbaijan",
        "population": -1,
        "latitude": 39.0421,
        "longitude": 44.3371
    },
    {
        "name": "Khaẕrīāt",
        "country": "Iran",
        "province": "Khuzestan",
        "population": -1,
        "latitude": 30.751167,
        "longitude": 49.34938
    },
    {
        "name": "Pardeh Gūsheh",
        "country": "Iran",
        "province": "Gīlān",
        "population": -1,
        "latitude": 37.708702,
        "longitude": 48.891848
    },
    {
        "name": "Karfaleh-ye Lādan",
        "country": "Iran",
        "province": "Lorestan Province",
        "population": -1,
        "latitude": 33.4898,
        "longitude": 48.1124
    },
    {
        "name": "Kharānaq",
        "country": "Iran",
        "province": "Yazd",
        "population": -1,
        "latitude": 32.346195,
        "longitude": 54.665749
    },