[
    {
        "name": "Rome",
        "country": "Italy",
        "province": "Lazio",
        "population": 2318895,
        "latitude": 41.891934052998856,
        "longitude": 12.51132607922509
    },
    {
        "name": "Palermo",
        "country": "Italy",
        "province": "Sicily",
        "population": 648260,
        "latitude": 38.1166,
        "longitude": 13.3636
    },
    {
        "name": "Naples",
        "country": "Italy",
        "province": "Campania",
        "population": 909048,
        "latitude": 40.85216,
        "longitude": 14.26811
    },
    {
        "name": "Modena",
        "country": "Italy",
        "province": "Emilia-Romagna",
        "population": 184732,
        "latitude": 44.64783400724508,
        "longitude": 10.92538833618164
    },
    {
        "name": "Milan",
        "country": "Italy",
        "province": "Lombardy",
        "population": 1371498,
        "latitude": 45.4642693810258,
        "longitude": 9.1895055770874
    },
    {
        "name": "Florence",
        "country": "Italy",
        "province": "Tuscany",
        "population": 367150,
        "latitude": 43.77925380701532,
        "longitude": 11.246261761337584
    },
    {
        "name": "Turin",
        "country": "Italy",
        "province": "Piedmont",
        "population": 847287,
        "latitude": 45.0704898496472,
        "longitude": 7.68682479858398
    },
    {
        "name": "Cagliari",
        "country": "Italy",
        "province": "Sardinia",
        "population": 149257,
        "latitude": 39.230535238453236,
        "longitude": 9.119168121428238
    },
    {
        "name": "Ancona",
        "country": "Italy",
        "province": "The Marches",
        "population": 89994,
        "latitude": 43.59419928578274,
        "longitude": 13.503370407651147
    },
    {
        "name": "Rimini",
        "country": "Italy",
        "province": "Emilia-Romagna",
        "population": 148688,
        "latitude": 44.05754522920029,
        "longitude": 12.56527557325842
    },
    {
        "name": "Potenza",
        "country": "Italy",
        "province": "Basilicate",
        "population": 56433,
        "latitude": 40.64175080592058,
        "longitude": 15.807940565001758
    },
    {
        "name": "Bolzano",
        "country": "Italy",
        "province": "Trentino-Alto Adige",
        "population": 107436,
        "latitude": 46.49067156646696,
        "longitude": 11.339821130180834
    },
    {
        "name": "Bologna",
        "country": "Italy",
        "province": "Emilia-Romagna",
        "population": 394843,
        "latitude": 44.4938114812334,
        "longitude": 11.3387489318848
    },
    {
        "name": "Bari",
        "country": "Italy",
        "province": "Apulia",
        "population": 316491,
        "latitude": 41.12066,
        "longitude": 16.86982
    },
    {
        "name": "Perugia",
        "country": "Italy",
        "province": "Umbria",
        "population": 120137,
        "latitude": 43.112195741543545,
        "longitude": 12.388780117034912
    },
    {
        "name": "Padua",
        "country": "Italy",
        "province": "Veneto",
        "population": 203725,
        "latitude": 45.40797277237152,
        "longitude": 11.885862733152718
    },
    {
        "name": "Genoa",
        "country": "Italy",
        "province": "Liguria",
        "population": 580097,
        "latitude": 44.40478,
        "longitude": 8.94439
    },
    {
        "name": "Forlì",
        "country": "Italy",
        "province": "Emilia-Romagna",
        "population": 116696,
        "latitude": 44.22177,
        "longitude": 12.04144
    },
    {
        "name": "Ferrara",
        "country": "Italy",
        "province": "Emilia-Romagna",
        "population": 132009,
        "latitude": 44.83804,
        "longitude": 11.62057
    },
    {
        "name": "Venice",
        "country": "Italy",
        "province": "Veneto",
        "population": 51298,
        "latitude": 45.4371342147904,
        "longitude": 12.332650434521076
    },
    {
        "name": "Trieste",
        "country": "Italy",
        "province": "Friuli Venezia Giulia",
        "population": 204338,
        "latitude": 45.64953,
        "longitude": 13.77678
    },
    {
        "name": "Trento",
        "country": "Italy",
        "province": "Trentino-Alto Adige",
        "population": 120709,
        "latitude": 46.0678714011874,
        "longitude": 11.1210823059082
    },
    {
        "name": "Syracuse",
        "country": "Italy",
        "province": "Sicily",
        "population": 121605,
        "latitude": 37.07542,
        "longitude": 15.28664
    },
    {
        "name": "Messina",
        "country": "Italy",
        "province": "Sicily",
        "population": 219948,
        "latitude": 38.19393661132784,
        "longitude": 15.552559966639844
    },
    {
        "name": "Catanzaro",
        "country": "Italy",
        "province": "Calabria",
        "population": 78970,
        "latitude": 38.88247239952063,
        "longitude": 16.600860986085152
    },
    {
        "name": "Aosta",
        "country": "Italy",
        "province": "Aosta Valley",
        "population": 35261,
        "latitude": 45.737640269619604,
        "longitude": 7.317221478905349
    },
    {
        "name": "Salerno",
        "country": "Italy",
        "province": "Campania",
        "population": 125797,
        "latitude": 40.675454993712464,
        "longitude": 14.793277245858185
    },
    {
        "name": "Ravenna",
        "country": "Italy",
        "province": "Emilia-Romagna",
        "population": 80868,
        "latitude": 44.413437735941386,
        "longitude": 12.201212187178747
    },
    {
        "name": "Prato",
        "country": "Italy",
        "province": "Tuscany",
        "population": 195089,
        "latitude": 43.8805,
        "longitude": 11.09699
    },
    {
        "name": "Vicenza",
        "country": "Italy",
        "province": "Veneto",
        "population": 111980,
        "latitude": 45.546716653656354,
        "longitude": 11.547502409910376
    },
    {
        "name": "Campobasso",
        "country": "Italy",
        "province": "Molise",
        "population": 49230,
        "latitude": 41.559474670504926,
        "longitude": 14.667372169419446
    },
    {
        "name": "Brescia",
        "country": "Italy",
        "province": "Lombardy",
        "population": 200423,
        "latitude": 45.53558328241292,
        "longitude": 10.214722667806893
    },
    {
        "name": "Bergamo",
        "country": "Italy",
        "province": "Lombardy",
        "population": 121200,
        "latitude": 45.696011862629746,
        "longitude": 9.667210212502914
    },
    {
        "name": "Pisa",
        "country": "Italy",
        "province": "Tuscany",
        "population": 109960,
        "latitude": 43.70853454720805,
        "longitude": 10.403598511775325
    },
    {
        "name": "Piacenza",
        "country": "Italy",
        "province": "Emilia-Romagna",
        "population": 103607,
        "latitude": 45.05242,
        "longitude": 9.69342
    },
    {
        "name": "Pescara",
        "country": "Italy",
        "province": "Abruzzo",
        "population": 119554,
        "latitude": 42.45840086261321,
        "longitude": 14.202826619268551
    },
    {
        "name": "Pesaro",
        "country": "Italy",
        "province": "The Marches",
        "population": 77241,
        "latitude": 43.90921,
        "longitude": 12.9164
    },
    {
        "name": "Parma",
        "country": "Italy",
        "province": "Emilia-Romagna",
        "population": 198292,
        "latitude": 44.799353347109836,
        "longitude": 10.326176778448673
    },
    {
        "name": "Novara",
        "country": "Italy",
        "province": "Piedmont",
        "population": 101916,
        "latitude": 45.44694,
        "longitude": 8.62118
    },
    {
        "name": "Monza",
        "country": "Italy",
        "province": "Lombardy",
        "population": 124398,
        "latitude": 45.580053729976164,
        "longitude": 9.272455242683055
    },
    {
        "name": "Mestre",
        "country": "Italy",
        "province": "Veneto",
        "population": 147662,
        "latitude": 45.49167,
        "longitude": 12.24538
    },
    {
        "name": "Mantova",
        "country": "Italy",
        "province": "Lombardy",
        "population": 39260,
        "latitude": 45.1603137936814,
        "longitude": 10.7978439331055
    },
    {
        "name": "Lucca",
        "country": "Italy",
        "province": "Tuscany",
        "population": 81748,
        "latitude": 43.84369,
        "longitude": 10.50447
    },
    {
        "name": "Livorno",
        "country": "Italy",
        "province": "Tuscany",
        "population": 157017,
        "latitude": 43.544265152344494,
        "longitude": 10.326152711826676
    },
    {
        "name": "Lecce",
        "country": "Italy",
        "province": "Apulia",
        "population": 80695,
        "latitude": 40.354808436715295,
        "longitude": 18.1724446582255
    },
    {
        "name": "Latina",
        "country": "Italy",
        "province": "Lazio",
        "population": 76305,
        "latitude": 41.46614198566051,
        "longitude": 12.904300689697266
    },
    {
        "name": "L’Aquila",
        "country": "Italy",
        "province": "Abruzzo",
        "population": 33691,
        "latitude": 42.3505519866732,
        "longitude": 13.399543762207
    },
    {
        "name": "Foggia",
        "country": "Italy",
        "province": "Apulia",
        "population": 137032,
        "latitude": 41.458445020901195,
        "longitude": 15.551879167208389
    },
    {
        "name": "Verona",
        "country": "Italy",
        "province": "Veneto",
        "population": 258031,
        "latitude": 45.429899562845634,
        "longitude": 10.984444606091342
    },
    {
        "name": "Terni",
        "country": "Italy",
        "province": "Umbria",
        "population": 111189,
        "latitude": 42.56335,
        "longitude": 12.64329
    },
    {
        "name": "Taranto",
        "country": "Italy",
        "province": "Apulia",
        "population": 198585,
        "latitude": 40.46438,
        "longitude": 17.24707
    },
    {
        "name": "Sassari",
        "country": "Italy",
        "province": "Sardinia",
        "population": 91895,
        "latitude": 40.72586,
        "longitude": 8.55552
    },
    {
        "name": "Reggio Calabria",
        "country": "Italy",
        "province": "Calabria",
        "population": 182455,
        "latitude": 38.110467,
        "longitude": 15.661294
    },
    {
        "name": "Catania",
        "country": "Italy",
        "province": "Sicily",
        "population": 311584,
        "latitude": 37.49223188203155,
        "longitude": 15.07041272681263
    },
    {
        "name": "Aprilia",
        "country": "Italy",
        "province": "Lazio",
        "population": 74977,
        "latitude": 41.59452,
        "longitude": 12.65419
    },
    {
        "name": "Andria",
        "country": "Italy",
        "province": "Apulia",
        "population": 99784,
        "latitude": 41.231171480667335,
        "longitude": 16.297970976598197
    },
    {
        "name": "Alghero",
        "country": "Italy",
        "province": "Sardinia",
        "population": 34261,
        "latitude": 40.55969,
        "longitude": 8.31953
    },
    {
        "name": "Alessandria",
        "country": "Italy",
        "province": "Piedmont",
        "population": 92104,
        "latitude": 44.909235669983154,
        "longitude": 8.610073801160066
    },
    {
        "name": "Acilia-Castel Fusano-Ostia Antica",
        "country": "Italy",
        "province": "Lazio",
        "population": 129362,
        "latitude": 41.763373532621614,
        "longitude": 12.330780029296875
    },
    {
        "name": "Santa Maria Capua Vetere",
        "country": "Italy",
        "province": "Campania",
        "population": 31743,
        "latitude": 41.08156163922832,
        "longitude": 14.253416218155275
    },
    {
        "name": "Sanremo",
        "country": "Italy",
        "province": "Liguria",
        "population": 47043,
        "latitude": 43.817250452810875,
        "longitude": 7.777204513549805
    },
    {
        "name": "Reggio Emilia",
        "country": "Italy",
        "province": "Emilia-Romagna",
        "population": 171944,
        "latitude": 44.698250405038,
        "longitude": 10.6312465667725
    },
    {
        "name": "Pozzuoli",
        "country": "Italy",
        "province": "Campania",
        "population": 81231,
        "latitude": 40.84394,
        "longitude": 14.0952
    },
    {
        "name": "Vigevano",
        "country": "Italy",
        "province": "Lombardy",
        "population": 57970,
        "latitude": 45.31406907482428,
        "longitude": 8.854372886717906
    },
    {
        "name": "Caserta",
        "country": "Italy",
        "province": "Campania",
        "population": 72844,
        "latitude": 41.07262,
        "longitude": 14.33231
    },
    {
        "name": "Carrara",
        "country": "Italy",
        "province": "Tuscany",
        "population": 58666,
        "latitude": 44.07926,
        "longitude": 10.09789
    },
    {
        "name": "Capua",
        "country": "Italy",
        "province": "Campania",
        "population": 15438,
        "latitude": 41.105187063163456,
        "longitude": 14.212692868850398
    },
    {
        "name": "Busto Arsizio",
        "country": "Italy",
        "province": "Lombardy",
        "population": 83405,
        "latitude": 45.61127561558146,
        "longitude": 8.849143981933594
    },
    {
        "name": "Brindisi",
        "country": "Italy",
        "province": "Apulia",
        "population": 87141,
        "latitude": 40.632145351426914,
        "longitude": 17.936065964306756
    },
    {
        "name": "Boscoreale",
        "country": "Italy",
        "province": "Campania",
        "population": 26861,
        "latitude": 40.77274,
        "longitude": 14.48118
    },
    {
        "name": "Bitonto",
        "country": "Italy",
        "province": "Apulia",
        "population": 51661,
        "latitude": 41.110060375780954,
        "longitude": 16.69085995994025
    },
    {
        "name": "Benevento",
        "country": "Italy",
        "province": "Campania",
        "population": 58418,
        "latitude": 41.1307,
        "longitude": 14.77816
    },
    {
        "name": "Barletta",
        "country": "Italy",
        "province": "Apulia",
        "population": 93279,
        "latitude": 41.31429296212533,
        "longitude": 16.281654148722083
    },
    {
        "name": "Avellino",
        "country": "Italy",
        "province": "Campania",
        "population": 48104,
        "latitude": 40.91494,
        "longitude": 14.79103
    },
    {
        "name": "Asti",
        "country": "Italy",
        "province": "Piedmont",
        "population": 74348,
        "latitude": 44.90161680665054,
        "longitude": 8.207507914083543
    },
    {
        "name": "Ascoli Piceno",
        "country": "Italy",
        "province": "The Marches",
        "population": 41741,
        "latitude": 42.85351,
        "longitude": 13.57395
    },
    {
        "name": "Pistoia",
        "country": "Italy",
        "province": "Tuscany",
        "population": 73832,
        "latitude": 43.93063703017654,
        "longitude": 10.923652088941623
    },
    {
        "name": "Pavia",
        "country": "Italy",
        "province": "Lombardy",
        "population": 65734,
        "latitude": 45.192054943384555,
        "longitude": 9.159167605177121
    },
    {
        "name": "Nuoro",
        "country": "Italy",
        "province": "Sardinia",
        "population": 35948,
        "latitude": 40.31991,
        "longitude": 9.32568
    },
    {
        "name": "Molfetta",
        "country": "Italy",
        "province": "Apulia",
        "population": 59557,
        "latitude": 41.20036,
        "longitude": 16.59905
    },
    {
        "name": "Matera",
        "country": "Italy",
        "province": "Basilicate",
        "population": 60403,
        "latitude": 40.66599,
        "longitude": 16.60463
    },
    {
        "name": "Massa",
        "country": "Italy",
        "province": "Tuscany",
        "population": 64783,
        "latitude": 44.03541,
        "longitude": 10.13927
    },
    {
        "name": "Macerata",
        "country": "Italy",
        "province": "The Marches",
        "population": 30842,
        "latitude": 43.29788555002941,
        "longitude": 13.452930450439453
    },
    {
        "name": "Lido di Ostia",
        "country": "Italy",
        "province": "Lazio",
        "population": 85301,
        "latitude": 41.732123544018656,
        "longitude": 12.276535034179688
    },
    {
        "name": "Legnano",
        "country": "Italy",
        "province": "Lombardy",
        "population": 57589,
        "latitude": 45.59788,
        "longitude": 8.91506
    },
    {
        "name": "La Spezia",
        "country": "Italy",
        "province": "Liguria",
        "population": 93288,
        "latitude": 44.103,
        "longitude": 9.82375
    },
    {
        "name": "Imola",
        "country": "Italy",
        "province": "Emilia-Romagna",
        "population": 69953,
        "latitude": 44.35916014967043,
        "longitude": 11.713202924586854
    },
    {
        "name": "Iesi",
        "country": "Italy",
        "province": "The Marches",
        "population": 36985,
        "latitude": 43.5214187545503,
        "longitude": 13.2436752319336
    },
    {
        "name": "Giugliano in Campania",
        "country": "Italy",
        "province": "Campania",
        "population": 80269,
        "latitude": 40.92849,
        "longitude": 14.20197
    },
    {
        "name": "Fuorigrotta",
        "country": "Italy",
        "province": "Campania",
        "population": 76521,
        "latitude": 40.8333333,
        "longitude": 14.2
    },
    {
        "name": "Ercolano",
        "country": "Italy",
        "province": "Campania",
        "population": 53576,
        "latitude": 40.80783,
        "longitude": 14.35012
    },
    {
        "name": "Cremona",
        "country": "Italy",
        "province": "Lombardy",
        "population": 71223,
        "latitude": 45.13325,
        "longitude": 10.02129
    },
    {
        "name": "Como",
        "country": "Italy",
        "province": "Lombardy",
        "population": 84808,
        "latitude": 45.80819,
        "longitude": 9.0832
    },
    {
        "name": "Cinisello Balsamo",
        "country": "Italy",
        "province": "Lombardy",
        "population": 75943,
        "latitude": 45.55823,
        "longitude": 9.21495
    },
    {
        "name": "Chieti",
        "country": "Italy",
        "province": "Abruzzo",
        "population": 44444,
        "latitude": 42.34827,
        "longitude": 14.16494
    },
    {
        "name": "Cesena",
        "country": "Italy",
        "province": "Emilia-Romagna",
        "population": 97137,
        "latitude": 44.13910215406817,
        "longitude": 12.243146896362305
    },
    {
        "name": "Varese",
        "country": "Italy",
        "province": "Lombardy",
        "population": 80588,
        "latitude": 45.82058,
        "longitude": 8.82511
    },
    {
        "name": "Treviso",
        "country": "Italy",
        "province": "Veneto",
        "population": 85760,
        "latitude": 45.66673,
        "longitude": 12.2416
    },
    {
        "name": "Trani",
        "country": "Italy",
        "province": "Apulia",
        "population": 53981,
        "latitude": 41.2773255616178,
        "longitude": 16.410108859563202
    },
    {
        "name": "Torre del Greco",
        "country": "Italy",
        "province": "Campania",
        "population": 85332,
        "latitude": 40.78931,
        "longitude": 14.36806
    },
    {
        "name": "Teramo",
        "country": "Italy",
        "province": "Abruzzo",
        "population": 54338,
        "latitude": 42.661231502989224,
        "longitude": 13.699007034301758
    },
    {
        "name": "Siena",
        "country": "Italy",
        "province": "Tuscany",
        "population": 53901,
        "latitude": 43.31822,
        "longitude": 11.33064
    },
    {
        "name": "Sesto San Giovanni",
        "country": "Italy",
        "province": "Lombardy",
        "population": 81822,
        "latitude": 45.53329,
        "longitude": 9.22585
    },
    {
        "name": "Sesto Fiorentino",
        "country": "Italy",
        "province": "Tuscany",
        "population": 45656,
        "latitude": 43.83192557661251,
        "longitude": 11.199237737320917
    },
    {
        "name": "Savona",
        "country": "Italy",
        "province": "Liguria",
        "population": 61345,
        "latitude": 44.30904797611,
        "longitude": 8.47715377807617
    },
    {
        "name": "Vittoria",
        "country": "Italy",
        "province": "Sicily",
        "population": 50852,
        "latitude": 36.951506744592365,
        "longitude": 14.527877668008621
    },
    {
        "name": "Trapani",
        "country": "Italy",
        "province": "Sicily",
        "population": 67531,
        "latitude": 38.0176,
        "longitude": 12.53617
    },
    {
        "name": "Campora San Giovanni",
        "country": "Italy",
        "province": "Calabria",
        "population": 3002,
        "latitude": 39.06798017367507,
        "longitude": 16.095657348632812
    },
    {
        "name": "Ragusa",
        "country": "Italy",
        "province": "Sicily",
        "population": 74251,
        "latitude": 36.92574,
        "longitude": 14.72443
    },
    {
        "name": "Quartu Sant'Elena",
        "country": "Italy",
        "province": "Sardinia",
        "population": 66620,
        "latitude": 39.229354888495976,
        "longitude": 9.25004401899284
    },
    {
        "name": "Marsala",
        "country": "Italy",
        "province": "Sicily",
        "population": 77915,
        "latitude": 37.7992,
        "longitude": 12.4367
    },
    {
        "name": "Gela",
        "country": "Italy",
        "province": "Sicily",
        "population": 75001,
        "latitude": 37.07381,
        "longitude": 14.24038
    },
    {
        "name": "Crotone",
        "country": "Italy",
        "province": "Calabria",
        "population": 64603,
        "latitude": 39.08077,
        "longitude": 17.12764
    },
    {
        "name": "Cosenza",
        "country": "Italy",
        "province": "Calabria",
        "population": 63852,
        "latitude": 39.2989,
        "longitude": 16.25307
    },
    {
        "name": "Caltanissetta",
        "country": "Italy",
        "province": "Sicily",
        "population": 62797,
        "latitude": 37.49025,
        "longitude": 14.06216
    },
    {
        "name": "Agrigento",
        "country": "Italy",
        "province": "Sicily",
        "population": 32514,
        "latitude": 37.31065,
        "longitude": 13.57661
    },
    {
        "name": "Arezzo",
        "country": "Italy",
        "province": "Tuscany",
        "population": 100734,
        "latitude": 43.46276,
        "longitude": 11.88068
    },
    {
        "name": "Ardea",
        "country": "Italy",
        "province": "Lazio",
        "population": 17078,
        "latitude": 41.60742,
        "longitude": 12.54158
    },
    {
        "name": "Anzio",
        "country": "Italy",
        "province": "Lazio",
        "population": 45403,
        "latitude": 41.45263,
        "longitude": 12.62157
    },
    {
        "name": "Altamura",
        "country": "Italy",
        "province": "Apulia",
        "population": 70539,
        "latitude": 40.82664289557176,
        "longitude": 16.5495204836785
    },
    {
        "name": "Albano Laziale",
        "country": "Italy",
        "province": "Lazio",
        "population": 26684,
        "latitude": 41.72748,
        "longitude": 12.659
    },
    {
        "name": "Afragola",
        "country": "Italy",
        "province": "Campania",
        "population": 64470,
        "latitude": 40.92298,
        "longitude": 14.30935
    },
    {
        "name": "Acerra",
        "country": "Italy",
        "province": "Campania",
        "population": 59910,
        "latitude": 40.94477,
        "longitude": 14.3714
    },
    {
        "name": "Abbiategrasso",
        "country": "Italy",
        "province": "Lombardy",
        "population": 32784,
        "latitude": 45.39820890405686,
        "longitude": 8.916778564453125
    },
    {
        "name": "San Severo",
        "country": "Italy",
        "province": "Apulia",
        "population": 51919,
        "latitude": 41.68563965931457,
        "longitude": 15.381476674399016
    },
    {
        "name": "San Miniato Basso",
        "country": "Italy",
        "province": "Tuscany",
        "population": 26365,
        "latitude": 43.69332,
        "longitude": 10.84119
    },
    {
        "name": "San Giovanni Rotondo",
        "country": "Italy",
        "province": "Apulia",
        "population": 27124,
        "latitude": 41.70643337773648,
        "longitude": 15.727701187133789
    },
    {
        "name": "San Donato Milanese",
        "country": "Italy",
        "province": "Lombardy",
        "population": 28351,
        "latitude": 45.41047,
        "longitude": 9.26838
    },
    {
        "name": "San Donà di Piave",
        "country": "Italy",
        "province": "Veneto",
        "population": 41856,
        "latitude": 45.63019,
        "longitude": 12.5681
    },
    {
        "name": "Rovigo",
        "country": "Italy",
        "province": "Veneto",
        "population": 50279,
        "latitude": 45.06982,
        "longitude": 11.79022
    },
    {
        "name": "Rodeneck-Rodengo",
        "country": "Italy",
        "province": "Trentino-Alto Adige",
        "population": 1170,
        "latitude": 46.8,
        "longitude": 11.7
    },
    {
        "name": "Rivoli",
        "country": "Italy",
        "province": "Piedmont",
        "population": 48629,
        "latitude": 45.07073,
        "longitude": 7.51465
    },
    {
        "name": "Rieti",
        "country": "Italy",
        "province": "Lazio",
        "population": 39068,
        "latitude": 42.40476,
        "longitude": 12.85735
    },
    {
        "name": "Riccione",
        "country": "Italy",
        "province": "Emilia-Romagna",
        "population": 32744,
        "latitude": 43.9994212657662,
        "longitude": 12.6568937301636
    },
    {
        "name": "Rho",
        "country": "Italy",
        "province": "Lombardy",
        "population": 47086,
        "latitude": 45.53245,
        "longitude": 9.0402
    },
    {
        "name": "Rapallo",
        "country": "Italy",
        "province": "Liguria",
        "population": 26993,
        "latitude": 44.349601161976146,
        "longitude": 9.227957725524902
    },
    {
        "name": "Ratschings",
        "country": "Italy",
        "province": "Trentino-Alto Adige",
        "population": 4363,
        "latitude": 46.8666667,
        "longitude": 11.3
    },
    {
        "name": "Civitanova Marche",
        "country": "Italy",
        "province": "The Marches",
        "population": 42251,
        "latitude": 43.30491,
        "longitude": 13.72068
    },
    {
        "name": "Portici",
        "country": "Italy",
        "province": "Campania",
        "population": 53801,
        "latitude": 40.8156280824969,
        "longitude": 14.337158203125
    },
    {
        "name": "Pordenone",
        "country": "Italy",
        "province": "Friuli Venezia Giulia",
        "population": 49878,
        "latitude": 45.95688974865999,
        "longitude": 12.660514020271451
    },
    {
        "name": "Ponticelli",
        "country": "Italy",
        "province": "Campania",
        "population": 52284,
        "latitude": 40.854201976425095,
        "longitude": 14.330377578735352
    },
    {
        "name": "Voghera",
        "country": "Italy",
        "province": "Lombardy",
        "population": 38464,
        "latitude": 44.99151,
        "longitude": 9.01175
    },
    {
        "name": "Viterbo",
        "country": "Italy",
        "province": "Lazio",
        "population": 47134,
        "latitude": 42.41937,
        "longitude": 12.1056
    },
    {
        "name": "Viareggio",
        "country": "Italy",
        "province": "Tuscany",
        "population": 62169,
        "latitude": 43.86693,
        "longitude": 10.2502
    },
    {
        "name": "Casoria",
        "country": "Italy",
        "province": "Campania",
        "population": 73918,
        "latitude": 40.90751,
        "longitude": 14.293
    },
    {
        "name": "Casalnuovo di Napoli",
        "country": "Italy",
        "province": "Campania",
        "population": 45796,
        "latitude": 40.90969,
        "longitude": 14.34205
    },
    {
        "name": "Casale Monferrato",
        "country": "Italy",
        "province": "Piedmont",
        "population": 33213,
        "latitude": 45.13338071007337,
        "longitude": 8.452502561069203
    },
    {
        "name": "Casalecchio di Reno",
        "country": "Italy",
        "province": "Emilia-Romagna",
        "population": 33789,
        "latitude": 44.47562973820644,
        "longitude": 11.274949268529772
    },
    {
        "name": "Carpi",
        "country": "Italy",
        "province": "Emilia-Romagna",
        "population": 71148,
        "latitude": 44.78237,
        "longitude": 10.877697
    },
    {
        "name": "Capri",
        "country": "Italy",
        "province": "Campania",
        "population": 6770,
        "latitude": 40.55073426208936,
        "longitude": 14.242627769708633
    },
    {
        "name": "Canosa di Puglia",
        "country": "Italy",
        "province": "Apulia",
        "population": 29847,
        "latitude": 41.21953949319399,
        "longitude": 16.06767605578489
    },
    {
        "name": "Candela",
        "country": "Italy",
        "province": "Apulia",
        "population": 2197,
        "latitude": 41.136008527577175,
        "longitude": 15.515371394124282
    },
    {
        "name": "Caivano",
        "country": "Italy",
        "province": "Campania",
        "population": 34604,
        "latitude": 40.95753056518928,
        "longitude": 14.305908698868102
    },
    {
        "name": "Brixen",
        "country": "Italy",
        "province": "Trentino-Alto Adige",
        "population": 15868,
        "latitude": 46.71503251232532,
        "longitude": 11.65597915649414
    },
    {
        "name": "Bisceglie",
        "country": "Italy",
        "province": "Apulia",
        "population": 55385,
        "latitude": 41.24264,
        "longitude": 16.50104
    },
    {
        "name": "Biella",
        "country": "Italy",
        "province": "Piedmont",
        "population": 43030,
        "latitude": 45.56304,
        "longitude": 8.05796
    },
    {
        "name": "Belluno",
        "country": "Italy",
        "province": "Veneto",
        "population": 25064,
        "latitude": 46.14262,
        "longitude": 12.2156
    },
    {
        "name": "Bacoli",
        "country": "Italy",
        "province": "Campania",
        "population": 25590,
        "latitude": 40.79672,
        "longitude": 14.07349
    },
    {
        "name": "Avezzano",
        "country": "Italy",
        "province": "Abruzzo",
        "population": 37808,
        "latitude": 42.02896,
        "longitude": 13.42641
    },
    {
        "name": "Aversa",
        "country": "Italy",
        "province": "Campania",
        "population": 52974,
        "latitude": 40.97259189128011,
        "longitude": 14.207448574046449
    },
    {
        "name": "Piombino",
        "country": "Italy",
        "province": "Tuscany",
        "population": 34041,
        "latitude": 42.92554,
        "longitude": 10.52585
    },
    {
        "name": "Pinerolo",
        "country": "Italy",
        "province": "Piedmont",
        "population": 30866,
        "latitude": 44.88533623201708,
        "longitude": 7.3313501900062485
    },
    {
        "name": "Pianura",
        "country": "Italy",
        "province": "Campania",
        "population": 57821,
        "latitude": 40.85907082169306,
        "longitude": 14.173135757446289
    },
    {
        "name": "Pescia",
        "country": "Italy",
        "province": "Tuscany",
        "population": 11567,
        "latitude": 43.88709557972552,
        "longitude": 10.688487862183187
    },
    {
        "name": "Olbia",
        "country": "Italy",
        "province": "Sardinia",
        "population": 60345,
        "latitude": 40.92337,
        "longitude": 9.49802
    },
    {
        "name": "Nocera Inferiore",
        "country": "Italy",
        "province": "Campania",
        "population": 45608,
        "latitude": 40.7454,
        "longitude": 14.64542
    },
    {
        "name": "Nichelino",
        "country": "Italy",
        "province": "Piedmont",
        "population": 47760,
        "latitude": 45.00031,
        "longitude": 7.65305
    },
    {
        "name": "Nettuno",
        "country": "Italy",
        "province": "Lazio",
        "population": 49873,
        "latitude": 41.45794,
        "longitude": 12.66393
    },
    {
        "name": "Montignoso",
        "country": "Italy",
        "province": "Tuscany",
        "population": 10023,
        "latitude": 44.024045,
        "longitude": 10.172594
    },
    {
        "name": "Monopoli",
        "country": "Italy",
        "province": "Apulia",
        "population": 37738,
        "latitude": 40.94918330570401,
        "longitude": 17.297165185491085
    },
    {
        "name": "Monfalcone",
        "country": "Italy",
        "province": "Friuli Venezia Giulia",
        "population": 26706,
        "latitude": 45.80463,
        "longitude": 13.53292
    },
    {
        "name": "Moncalieri",
        "country": "Italy",
        "province": "Piedmont",
        "population": 56134,
        "latitude": 44.9994,
        "longitude": 7.68236
    },
    {
        "name": "Molina di Ledro",
        "country": "Italy",
        "province": "Trentino-Alto Adige",
        "population": 1064,
        "latitude": 45.8709485647881,
        "longitude": 10.774081787570413
    },
    {
        "name": "Mira",
        "country": "Italy",
        "province": "Veneto",
        "population": 32881,
        "latitude": 45.4346,
        "longitude": 12.12942
    },
    {
        "name": "Meran",
        "country": "Italy",
        "province": "Trentino-Alto Adige",
        "population": 41051,
        "latitude": 46.668169276101594,
        "longitude": 11.159534454345703
    },
    {
        "name": "Massarosa",
        "country": "Italy",
        "province": "Tuscany",
        "population": 22435,
        "latitude": 43.86637535648147,
        "longitude": 10.344576469732745
    },
    {
        "name": "Marino",
        "country": "Italy",
        "province": "Lazio",
        "population": 44142,
        "latitude": 41.76984,
        "longitude": 12.65917
    },
    {
        "name": "Marano di Napoli",
        "country": "Italy",
        "province": "Campania",
        "population": 49920,
        "latitude": 40.8971,
        "longitude": 14.18824
    },
    {
        "name": "Manfredonia",
        "country": "Italy",
        "province": "Apulia",
        "population": 56932,
        "latitude": 41.63065,
        "longitude": 15.91876
    },
    {
        "name": "Lucera",
        "country": "Italy",
        "province": "Apulia",
        "population": 32222,
        "latitude": 41.505497383316154,
        "longitude": 15.339104335093708
    },
    {
        "name": "Lodi",
        "country": "Italy",
        "province": "Lombardy",
        "population": 40767,
        "latitude": 45.30988590211066,
        "longitude": 9.500850591100864
    },
    {
        "name": "Lecco",
        "country": "Italy",
        "province": "Lombardy",
        "population": 46580,
        "latitude": 45.85589,
        "longitude": 9.39704
    },
    {
        "name": "Lavello",
        "country": "Italy",
        "province": "Basilicate",
        "population": 13086,
        "latitude": 41.047685765540265,
        "longitude": 15.789145589959384
    },
    {
        "name": "Lanciano",
        "country": "Italy",
        "province": "Abruzzo",
        "population": 34791,
        "latitude": 42.22718,
        "longitude": 14.39024
    },
    {
        "name": "Laives",
        "country": "Italy",
        "province": "Trentino-Alto Adige",
        "population": 10710,
        "latitude": 46.4267948272853,
        "longitude": 11.3384056091309
    },
    {
        "name": "Ladispoli",
        "country": "Italy",
        "province": "Lazio",
        "population": 34204,
        "latitude": 41.95068,
        "longitude": 12.075
    },
    {
        "name": "Ivrea",
        "country": "Italy",
        "province": "Piedmont",
        "population": 23599,
        "latitude": 45.467234039304785,
        "longitude": 7.876167297363281
    },
    {
        "name": "Imperia",
        "country": "Italy",
        "province": "Liguria",
        "population": 42328,
        "latitude": 43.88917,
        "longitude": 8.03933
    },
    {
        "name": "Grugliasco",
        "country": "Italy",
        "province": "Piedmont",
        "population": 36700,
        "latitude": 45.06516,
        "longitude": 7.57954
    },
    {
        "name": "Gorizia",
        "country": "Italy",
        "province": "Friuli Venezia Giulia",
        "population": 34428,
        "latitude": 45.9408845287259,
        "longitude": 13.6216735839844
    },
    {
        "name": "Giussano",
        "country": "Italy",
        "province": "Lombardy",
        "population": 25916,
        "latitude": 45.70004,
        "longitude": 9.2089
    },
    {
        "name": "Gallarate",
        "country": "Italy",
        "province": "Lombardy",
        "population": 50439,
        "latitude": 45.66018729088871,
        "longitude": 8.791637420654297
    },
    {
        "name": "Frosinone",
        "country": "Italy",
        "province": "Lazio",
        "population": 44505,
        "latitude": 41.63976,
        "longitude": 13.34109
    },
    {
        "name": "Formigine",
        "country": "Italy",
        "province": "Emilia-Romagna",
        "population": 34328,
        "latitude": 44.57268,
        "longitude": 10.84737
    },
    {
        "name": "Fondi",
        "country": "Italy",
        "province": "Lazio",
        "population": 39762,
        "latitude": 41.35787,
        "longitude": 13.42718
    },
    {
        "name": "Foligno",
        "country": "Italy",
        "province": "Umbria",
        "population": 56918,
        "latitude": 42.95488,
        "longitude": 12.70268
    },
    {
        "name": "Fiumicino",
        "country": "Italy",
        "province": "Lazio",
        "population": 34556,
        "latitude": 41.77093,
        "longitude": 12.23662
    },
    {
        "name": "Fermo",
        "country": "Italy",
        "province": "The Marches",
        "population": 18109,
        "latitude": 43.162961283775196,
        "longitude": 13.722736025389278
    },
    {
        "name": "Fano",
        "country": "Italy",
        "province": "The Marches",
        "population": 60978,
        "latitude": 43.84052,
        "longitude": 13.01665
    },
    {
        "name": "Faenza",
        "country": "Italy",
        "province": "Emilia-Romagna",
        "population": 41714,
        "latitude": 44.29007,
        "longitude": 11.87948
    },
    {
        "name": "Empoli",
        "country": "Italy",
        "province": "Tuscany",
        "population": 34394,
        "latitude": 43.71795,
        "longitude": 10.94758
    },
    {
        "name": "Dragoni",
        "country": "Italy",
        "province": "Campania",
        "population": 2108,
        "latitude": 41.27619386106766,
        "longitude": 14.30368423461914
    },
    {
        "name": "Desio",
        "country": "Italy",
        "province": "Lombardy",
        "population": 41960,
        "latitude": 45.61830554174883,
        "longitude": 9.202494984969672
    },
    {
        "name": "Crema",
        "country": "Italy",
        "province": "Lombardy",
        "population": 31481,
        "latitude": 45.362640455743175,
        "longitude": 9.681759066243556
    },
    {
        "name": "Correggio",
        "country": "Italy",
        "province": "Emilia-Romagna",
        "population": 15571,
        "latitude": 44.767373026809956,
        "longitude": 10.783448730751147
    },
    {
        "name": "Conegliano",
        "country": "Italy",
        "province": "Veneto",
        "population": 30765,
        "latitude": 45.88805,
        "longitude": 12.30201
    },
    {
        "name": "Collegno",
        "country": "Italy",
        "province": "Piedmont",
        "population": 46524,
        "latitude": 45.07873,
        "longitude": 7.56735
    },
    {
        "name": "Civitavecchia",
        "country": "Italy",
        "province": "Lazio",
        "population": 47543,
        "latitude": 42.093254702193164,
        "longitude": 11.796741485595703
    },
    {
        "name": "Ciampino",
        "country": "Italy",
        "province": "Lazio",
        "population": 38277,
        "latitude": 41.80064,
        "longitude": 12.60158
    },
    {
        "name": "Chioggia",
        "country": "Italy",
        "province": "Veneto",
        "population": 41897,
        "latitude": 45.218566102167244,
        "longitude": 12.27773666381836
    },
    {
        "name": "Chieri",
        "country": "Italy",
        "province": "Piedmont",
        "population": 36749,
        "latitude": 45.01053712437916,
        "longitude": 7.821334340540202
    },
    {
        "name": "Cervia",
        "country": "Italy",
        "province": "Emilia-Romagna",
        "population": 28700,
        "latitude": 44.26204368657846,
        "longitude": 12.34811782836914
    },
    {
        "name": "Cento",
        "country": "Italy",
        "province": "Emilia-Romagna",
        "population": 18191,
        "latitude": 44.73098869637162,
        "longitude": 11.287163463729938
    },
    {
        "name": "Cava de' Tirreni",
        "country": "Italy",
        "province": "Campania",
        "population": 53130,
        "latitude": 40.69954,
        "longitude": 14.70773
    },
    {
        "name": "Castellammare di Stabia",
        "country": "Italy",
        "province": "Campania",
        "population": 66164,
        "latitude": 40.70211,
        "longitude": 14.48685
    },
    {
        "name": "Vercelli",
        "country": "Italy",
        "province": "Piedmont",
        "population": 45875,
        "latitude": 45.321631305372506,
        "longitude": 8.419889145875823
    },
    {
        "name": "Ventimiglia",
        "country": "Italy",
        "province": "Liguria",
        "population": 24120,
        "latitude": 43.7895607497757,
        "longitude": 7.6087188720703125
    },
    {
        "name": "Venaria Reale",
        "country": "Italy",
        "province": "Piedmont",
        "population": 33531,
        "latitude": 45.125968059104395,
        "longitude": 7.631361846788417
    },
    {
        "name": "Velletri",
        "country": "Italy",
        "province": "Lazio",
        "population": 52911,
        "latitude": 41.68573,
        "longitude": 12.77753
    },
    {
        "name": "Vasto",
        "country": "Italy",
        "province": "Abruzzo",
        "population": 41409,
        "latitude": 42.1115,
        "longitude": 14.70649
    },
    {
        "name": "Udine",
        "country": "Italy",
        "province": "Friuli Venezia Giulia",
        "population": 100170,
        "latitude": 46.0693,
        "longitude": 13.23715
    },
    {
        "name": "Torre Annunziata",
        "country": "Italy",
        "province": "Campania",
        "population": 43521,
        "latitude": 40.75337,
        "longitude": 14.45251
    },
    {
        "name": "Tivoli",
        "country": "Italy",
        "province": "Lazio",
        "population": 22018,
        "latitude": 41.95952,
        "longitude": 12.8016
    },
    {
        "name": "Terracina",
        "country": "Italy",
        "province": "Lazio",
        "population": 30980,
        "latitude": 41.29174,
        "longitude": 13.24359
    },
    {
        "name": "Tarvisio",
        "country": "Italy",
        "province": "Friuli Venezia Giulia",
        "population": 2509,
        "latitude": 46.50566762626783,
        "longitude": 13.586893943110727
    },
    {
        "name": "Spoleto",
        "country": "Italy",
        "province": "Umbria",
        "population": 19266,
        "latitude": 42.74071,
        "longitude": 12.73899
    },
    {
        "name": "Sorrento",
        "country": "Italy",
        "province": "Campania",
        "population": 14724,
        "latitude": 40.62678,
        "longitude": 14.37771
    },
    {
        "name": "Sondrio",
        "country": "Italy",
        "province": "Lombardy",
        "population": 19208,
        "latitude": 46.16852423007473,
        "longitude": 9.871342057522071
    },
    {
        "name": "Settimo Torinese",
        "country": "Italy",
        "province": "Piedmont",
        "population": 47485,
        "latitude": 45.13925,
        "longitude": 7.77008
    },
    {
        "name": "Senigallia",
        "country": "Italy",
        "province": "The Marches",
        "population": 30882,
        "latitude": 43.71625998749248,
        "longitude": 13.208818311751827
    },
    {
        "name": "Segrate",
        "country": "Italy",
        "province": "Lombardy",
        "population": 28296,
        "latitude": 45.49185,
        "longitude": 9.29812
    },
    {
        "name": "Lamezia Terme",
        "country": "Italy",
        "province": "Calabria",
        "population": 70501,
        "latitude": 38.96255,
        "longitude": 16.30938
    },
    {
        "name": "Sciacca",
        "country": "Italy",
        "province": "Sicily",
        "population": 40569,
        "latitude": 37.50693429782622,
        "longitude": 13.08398723602295
    },
    {
        "name": "Paternò",
        "country": "Italy",
        "province": "Sicily",
        "population": 46030,
        "latitude": 37.56674838208043,
        "longitude": 14.902538730830976
    },
    {
        "name": "Paola",
        "country": "Italy",
        "province": "Calabria",
        "population": 12649,
        "latitude": 39.36313170747624,
        "longitude": 16.03691355214162
    },
    {
        "name": "Pantelleria",
        "country": "Italy",
        "province": "Sicily",
        "population": 3455,
        "latitude": 36.82835946900649,
        "longitude": 11.946111862194854
    },
    {
        "name": "Oristano",
        "country": "Italy",
        "province": "Sardinia",
        "population": 31671,
        "latitude": 39.9036,
        "longitude": 8.59257
    },
    {
        "name": "Niscemi",
        "country": "Italy",
        "province": "Sicily",
        "population": 26893,
        "latitude": 37.146494771160015,
        "longitude": 14.393811666562993
    },
    {
        "name": "Modica",
        "country": "Italy",
        "province": "Sicily",
        "population": 54456,
        "latitude": 36.85868,
        "longitude": 14.75966
    },
    {
        "name": "Milazzo",
        "country": "Italy",
        "province": "Sicily",
        "population": 31771,
        "latitude": 38.22008,
        "longitude": 15.24023
    },
    {
        "name": "Mazzarino",
        "country": "Italy",
        "province": "Sicily",
        "population": 11870,
        "latitude": 37.301884209674654,
        "longitude": 14.20958760734754
    },
    {
        "name": "Mazara del Vallo",
        "country": "Italy",
        "province": "Sicily",
        "population": 51534,
        "latitude": 37.65535,
        "longitude": 12.58986
    },
    {
        "name": "Mascalucia",
        "country": "Italy",
        "province": "Sicily",
        "population": 32179,
        "latitude": 37.57465,
        "longitude": 15.04964
    },
    {
        "name": "Locri",
        "country": "Italy",
        "province": "Calabria",
        "population": 10486,
        "latitude": 38.23868241192179,
        "longitude": 16.25956512383013
    },
    {
        "name": "Enna",
        "country": "Italy",
        "province": "Sicily",
        "population": 22998,
        "latitude": 37.5655,
        "longitude": 14.27433
    },
    {
        "name": "Corleone",
        "country": "Italy",
        "province": "Sicily",
        "population": 10290,
        "latitude": 37.813377825468294,
        "longitude": 13.30169677734375
    },
    {
        "name": "Comiso",
        "country": "Italy",
        "province": "Sicily",
        "population": 26298,
        "latitude": 36.94893,
        "longitude": 14.60731
    },
    {
        "name": "Cefalù",
        "country": "Italy",
        "province": "Sicily",
        "population": 11613,
        "latitude": 38.038560098042794,
        "longitude": 14.022846221923828
    },
    {
        "name": "Castelvetrano",
        "country": "Italy",
        "province": "Sicily",
        "population": 31680,
        "latitude": 37.68080688171324,
        "longitude": 12.79194154197904
    },
    {
        "name": "Casteldaccia",
        "country": "Italy",
        "province": "Sicily",
        "population": 10091,
        "latitude": 38.051205957327745,
        "longitude": 13.530414449887258
    },
    {
        "name": "Carini",
        "country": "Italy",
        "province": "Sicily",
        "population": 35082,
        "latitude": 38.1324,
        "longitude": 13.18274
    },
    {
        "name": "Carbonia",
        "country": "Italy",
        "province": "Sardinia",
        "population": 21664,
        "latitude": 39.16464813392735,
        "longitude": 8.521295619126878
    },
    {
        "name": "Caltagirone",
        "country": "Italy",
        "province": "Sicily",
        "population": 38391,
        "latitude": 37.23785,
        "longitude": 14.51551
    },
    {
        "name": "Bronte",
        "country": "Italy",
        "province": "Sicily",
        "population": 19074,
        "latitude": 37.788634510080804,
        "longitude": 14.833768099526264
    },
    {
        "name": "Barcellona Pozzo di Gotto",
        "country": "Italy",
        "province": "Sicily",
        "population": 34598,
        "latitude": 38.14772,
        "longitude": 15.21469
    },
    {
        "name": "Bagheria",
        "country": "Italy",
        "province": "Sicily",
        "population": 53149,
        "latitude": 38.078918,
        "longitude": 13.512365
    },
    {
        "name": "Avola",
        "country": "Italy",
        "province": "Sicily",
        "population": 28666,
        "latitude": 36.90839769953301,
        "longitude": 15.139367840905662
    },
    {
        "name": "Augusta",
        "country": "Italy",
        "province": "Sicily",
        "population": 30723,
        "latitude": 37.24065,
        "longitude": 15.22121
    },
    {
        "name": "Assemini",
        "country": "Italy",
        "province": "Sardinia",
        "population": 25257,
        "latitude": 39.29123,
        "longitude": 8.99879
    },
    {
        "name": "Alcamo",
        "country": "Italy",
        "province": "Sicily",
        "population": 44431,
        "latitude": 37.9779,
        "longitude": 12.96473
    },
    {
        "name": "Viganella",
        "country": "Italy",
        "province": "Piedmont",
        "population": 103,
        "latitude": 46.0517310390598,
        "longitude": 8.19374084472656
    },
    {
        "name": "San Vito al Torre",
        "country": "Italy",
        "province": "Friuli Venezia Giulia",
        "population": 1083,
        "latitude": 45.89586741182084,
        "longitude": 13.37587513495699
    },
    {
        "name": "Ponzano Veneto",
        "country": "Italy",
        "province": "Veneto",
        "population": 10238,
        "latitude": 45.715409104509355,
        "longitude": 12.204437255859375
    },
    {
        "name": "Casier",
        "country": "Italy",
        "province": "Veneto",
        "population": 3508,
        "latitude": 45.64228794631055,
        "longitude": 12.293275538098767
    },
    {
        "name": "Spinea",
        "country": "Italy",
        "province": "Veneto",
        "population": 23710,
        "latitude": 45.49107,
        "longitude": 12.155
    },
    {
        "name": "Socchieve",
        "country": "Italy",
        "province": "Friuli Venezia Giulia",
        "population": 320,
        "latitude": 46.396495750864126,
        "longitude": 12.84799575805664
    },
    {
        "name": "Argenta",
        "country": "Italy",
        "province": "Emilia-Romagna",
        "population": 7064,
        "latitude": 44.6139730575573,
        "longitude": 11.835470608135124
    },
    {
        "name": "Arese",
        "country": "Italy",
        "province": "Lombardy",
        "population": 19138,
        "latitude": 45.55048,
        "longitude": 9.07741
    },
    {
        "name": "Arenzano",
        "country": "Italy",
        "province": "Liguria",
        "population": 11226,
        "latitude": 44.40521253514266,
        "longitude": 8.683147430419922
    },
    {
        "name": "Arcore",
        "country": "Italy",
        "province": "Lombardy",
        "population": 16690,
        "latitude": 45.626748005619916,
        "longitude": 9.324535526814396
    },
    {
        "name": "Arco",
        "country": "Italy",
        "province": "Trentino-Alto Adige",
        "population": 12072,
        "latitude": 45.917721261594224,
        "longitude": 10.88672161102295
    },
    {
        "name": "Arce",
        "country": "Italy",
        "province": "Lazio",
        "population": 2154,
        "latitude": 41.5778683584372,
        "longitude": 13.585709221829337
    },
    {
        "name": "Aquino",
        "country": "Italy",
        "province": "Lazio",
        "population": 3735,
        "latitude": 41.49388429555208,
        "longitude": 13.70520257269992
    },
    {
        "name": "Aquilonia",
        "country": "Italy",
        "province": "Campania",
        "population": 1695,
        "latitude": 40.98688276801415,
        "longitude": 15.475097025688807
    },
    {
        "name": "Aquileia",
        "country": "Italy",
        "province": "Friuli Venezia Giulia",
        "population": 2939,
        "latitude": 45.76829946606989,
        "longitude": 13.367793671709661
    },
    {
        "name": "Apricena",
        "country": "Italy",
        "province": "Apulia",
        "population": 13195,
        "latitude": 41.786289850652466,
        "longitude": 15.443935101308666
    },
    {
        "name": "Anzano del Parco",
        "country": "Italy",
        "province": "Lombardy",
        "population": 1616,
        "latitude": 45.770061689158425,
        "longitude": 9.197523179935
    },
    {
        "name": "Antrodoco",
        "country": "Italy",
        "province": "Lazio",
        "population": 2517,
        "latitude": 42.414975253662796,
        "longitude": 13.076727823095
    },
    {
        "name": "Altrei",
        "country": "Italy",
        "province": "Trentino-Alto Adige",
        "population": 226,
        "latitude": 46.27809961517844,
        "longitude": 11.366646726048502
    },
    {
        "name": "Annone di Brianza",
        "country": "Italy",
        "province": "Lombardy",
        "population": 2244,
        "latitude": 45.802161207186856,
        "longitude": 9.33119478541196
    },
    {
        "name": "Annicco",
        "country": "Italy",
        "province": "Lombardy",
        "population": 1499,
        "latitude": 45.24344453933485,
        "longitude": 9.879052209429465
    },
    {
        "name": "Anguillara",
        "country": "Italy",
        "province": "Lazio",
        "population": 14121,
        "latitude": 42.079203604478465,
        "longitude": 12.283677409076416
    },
    {
        "name": "Angri",
        "country": "Italy",
        "province": "Campania",
        "population": 31632,
        "latitude": 40.73815,
        "longitude": 14.5707
    },
    {
        "name": "Anagni",
        "country": "Italy",
        "province": "Lazio",
        "population": 9206,
        "latitude": 41.743501558123945,
        "longitude": 13.155422296702426
    },
    {
        "name": "Amelia",
        "country": "Italy",
        "province": "Umbria",
        "population": 5537,
        "latitude": 42.551770780839114,
        "longitude": 12.420755645583442
    },
    {
        "name": "Amalfi",
        "country": "Italy",
        "province": "Campania",
        "population": 4933,
        "latitude": 40.6348965462337,
        "longitude": 14.6023750305176
    },
    {
        "name": "Alzano Lombardo",
        "country": "Italy",
        "province": "Lombardy",
        "population": 12750,
        "latitude": 45.73681306324576,
        "longitude": 9.726379371465699
    },
    {
        "name": "Alvito",
        "country": "Italy",
        "province": "Lazio",
        "population": 988,
        "latitude": 41.69001558841481,
        "longitude": 13.747954741203959
    },
    {
        "name": "Alviano",
        "country": "Italy",
        "province": "Umbria",
        "population": 388,
        "latitude": 42.590841965785565,
        "longitude": 12.297747547964804
    },
    {
        "name": "Altavilla Vicentina",
        "country": "Italy",
        "province": "Veneto",
        "population": 10128,
        "latitude": 45.51328523405873,
        "longitude": 11.468765435000638
    },
    {
        "name": "Altare",
        "country": "Italy",
        "province": "Liguria",
        "population": 2068,
        "latitude": 44.33566240961321,
        "longitude": 8.334106364593218
    },
    {
        "name": "Alpignano",
        "country": "Italy",
        "province": "Piedmont",
        "population": 16598,
        "latitude": 45.09346,
        "longitude": 7.52392
    },
    {
        "name": "Allerona",
        "country": "Italy",
        "province": "Umbria",
        "population": 388,
        "latitude": 42.8117368282678,
        "longitude": 11.974507308889661
    },
    {
        "name": "Alife",
        "country": "Italy",
        "province": "Campania",
        "population": 3477,
        "latitude": 41.32612,
        "longitude": 14.334026
    },
    {
        "name": "Aliano",
        "country": "Italy",
        "province": "Basilicate",
        "population": 761,
        "latitude": 40.31358730984122,
        "longitude": 16.22983621979923
    },
    {
        "name": "Alfonsine",
        "country": "Italy",
        "province": "Emilia-Romagna",
        "population": 9838,
        "latitude": 44.50767763658315,
        "longitude": 12.037427063181449
    },
    {
        "name": "Alfano",
        "country": "Italy",
        "province": "Campania",
        "population": 1097,
        "latitude": 40.17687323735917,
        "longitude": 15.424501141547099
    },
    {
        "name": "Albuzzano",
        "country": "Italy",
        "province": "Lombardy",
        "population": 2225,
        "latitude": 45.18719278155084,
        "longitude": 9.273828347938707
    },
    {
        "name": "Albino",
        "country": "Italy",
        "province": "Lombardy",
        "population": 13263,
        "latitude": 45.76444383485079,
        "longitude": 9.79904079570905
    },
    {
        "name": "Albignasego",
        "country": "Italy",
        "province": "Veneto",
        "population": 16477,
        "latitude": 45.34705,
        "longitude": 11.86781
    },
    {
        "name": "Alberobello",
        "country": "Italy",
        "province": "Apulia",
        "population": 9391,
        "latitude": 40.78447848119266,
        "longitude": 17.236184483484596
    },
    {
        "name": "Albenga",
        "country": "Italy",
        "province": "Liguria",
        "population": 17103,
        "latitude": 44.04996644206354,
        "longitude": 8.21828842163086
    },
    {
        "name": "Alba",
        "country": "Italy",
        "province": "Piedmont",
        "population": 24923,
        "latitude": 44.69989765840318,
        "longitude": 8.034696578979492
    },
    {
        "name": "Alatri",
        "country": "Italy",
        "province": "Lazio",
        "population": 10308,
        "latitude": 41.731872119043445,
        "longitude": 13.341204225266651
    },
    {
        "name": "Alassio",
        "country": "Italy",
        "province": "Liguria",
        "population": 10623,
        "latitude": 44.00392826295004,
        "longitude": 8.167133331298828
    },
    {
        "name": "Airuno",
        "country": "Italy",
        "province": "Lombardy",
        "population": 2762,
        "latitude": 45.75352035921654,
        "longitude": 9.427650317358532
    },
    {
        "name": "Airasca",
        "country": "Italy",
        "province": "Piedmont",
        "population": 3583,
        "latitude": 44.917185195846244,
        "longitude": 7.4832187449656065
    },
    {
        "name": "Aiello del Friuli",
        "country": "Italy",
        "province": "Friuli Venezia Giulia",
        "population": 2199,
        "latitude": 45.87276215690029,
        "longitude": 13.360377045885237
    },
    {
        "name": "Agropoli",
        "country": "Italy",
        "province": "Campania",
        "population": 17335,
        "latitude": 40.34923,
        "longitude": 14.99067
    },
    {
        "name": "Agrate Brianza",
        "country": "Italy",
        "province": "Lombardy",
        "population": 14493,
        "latitude": 45.57431335707315,
        "longitude": 9.347930986699057
    },
    {
        "name": "Agliana",
        "country": "Italy",
        "province": "Tuscany",
        "population": 14561,
        "latitude": 43.90246007464472,
        "longitude": 11.005305703525101
    },
    {
        "name": "Aggius",
        "country": "Italy",
        "province": "Sardinia",
        "population": 1381,
        "latitude": 40.92994595980974,
        "longitude": 9.065165726537247
    },
    {
        "name": "Adria",
        "country": "Italy",
        "province": "Veneto",
        "population": 12986,
        "latitude": 45.054446575483865,
        "longitude": 12.055985154047669
    },
    {
        "name": "Adelfia",
        "country": "Italy",
        "province": "Apulia",
        "population": 16756,
        "latitude": 41.00329821523835,
        "longitude": 16.872079464637423
    },
    {
        "name": "Acqui Terme",
        "country": "Italy",
        "province": "Piedmont",
        "population": 17828,
        "latitude": 44.67552,
        "longitude": 8.46934
    },
    {
        "name": "Acquaviva delle Fonti",
        "country": "Italy",
        "province": "Apulia",
        "population": 20536,
        "latitude": 40.8970425182193,
        "longitude": 16.843304732529035
    },
    {
        "name": "Acerno",
        "country": "Italy",
        "province": "Campania",
        "population": 2872,
        "latitude": 40.737713,
        "longitude": 15.056949
    },
    {
        "name": "Abano Terme",
        "country": "Italy",
        "province": "Veneto",
        "population": 18224,
        "latitude": 45.35753375100099,
        "longitude": 11.787247335516252
    },
    {
        "name": "Santa Teresa Gallura",
        "country": "Italy",
        "province": "Sardinia",
        "population": 3283,
        "latitude": 41.23858657964162,
        "longitude": 9.188732069867967
    },
    {
        "name": "Sant'Arpino",
        "country": "Italy",
        "province": "Campania",
        "population": 12028,
        "latitude": 40.95716096335077,
        "longitude": 14.25074832731139
    },
    {
        "name": "Santarcangelo di Romagna",
        "country": "Italy",
        "province": "Emilia-Romagna",
        "population": 10934,
        "latitude": 44.06325901813531,
        "longitude": 12.446565628051758
    },
    {
        "name": "Sant'Antonino di Susa",
        "country": "Italy",
        "province": "Piedmont",
        "population": 4156,
        "latitude": 45.10763299569416,
        "longitude": 7.27332576548441
    },
    {
        "name": "Sant'Antonio Abate",
        "country": "Italy",
        "province": "Campania",
        "population": 18859,
        "latitude": 40.7215169210288,
        "longitude": 14.540207470247239
    },
    {
        "name": "Sant'Antimo",
        "country": "Italy",
        "province": "Campania",
        "population": 33561,
        "latitude": 40.94223209354109,
        "longitude": 14.234761677276639
    },
    {
        "name": "Sant'Angelo Lodigiano",
        "country": "Italy",
        "province": "Lombardy",
        "population": 11516,
        "latitude": 45.235263322018575,
        "longitude": 9.406508489235893
    },
    {
        "name": "Sant'Anastasia",
        "country": "Italy",
        "province": "Campania",
        "population": 20733,
        "latitude": 40.86842,
        "longitude": 14.40196
    },
    {
        "name": "Sant'Ambrogio di Valpolicella",
        "country": "Italy",
        "province": "Veneto",
        "population": 10384,
        "latitude": 45.520887,
        "longitude": 10.836183
    },
    {
        "name": "Sant'Ambrogio di Torino",
        "country": "Italy",
        "province": "Piedmont",
        "population": 4688,
        "latitude": 45.096221830412254,
        "longitude": 7.366002180165872
    },
    {
        "name": "Santa Marinella",
        "country": "Italy",
        "province": "Lazio",
        "population": 14034,
        "latitude": 42.03425,
        "longitude": 11.85416
    },
    {
        "name": "Santa Maria a Vico",
        "country": "Italy",
        "province": "Campania",
        "population": 14095,
        "latitude": 41.02610853777225,
        "longitude": 14.46514851455949
    },
    {
        "name": "Sant'Agnello",
        "country": "Italy",
        "province": "Campania",
        "population": 7674,
        "latitude": 40.62942355865275,
        "longitude": 14.399570615124553
    },
    {
        "name": "Sant'Agata de' Goti",
        "country": "Italy",
        "province": "Campania",
        "population": 11558,
        "latitude": 41.089316,
        "longitude": 14.497433
    },
    {
        "name": "Sant'Agata Bolognese",
        "country": "Italy",
        "province": "Emilia-Romagna",
        "population": 5591,
        "latitude": 44.660155465281576,
        "longitude": 11.132921198978138
    },
    {
        "name": "Sansepolcro",
        "country": "Italy",
        "province": "Tuscany",
        "population": 12364,
        "latitude": 43.57258340212991,
        "longitude": 12.138578071433866
    },
    {
        "name": "San Salvo",
        "country": "Italy",
        "province": "Abruzzo",
        "population": 17123,
        "latitude": 42.04413,
        "longitude": 14.73335
    },
    {
        "name": "San Prisco",
        "country": "Italy",
        "province": "Campania",
        "population": 11869,
        "latitude": 41.08592300790199,
        "longitude": 14.2767526467861
    },
    {
        "name": "San Pietro Vernotico",
        "country": "Italy",
        "province": "Apulia",
        "population": 13667,
        "latitude": 40.48890388824359,
        "longitude": 17.9975244978543
    },
    {
        "name": "San Pietro al Natisone",
        "country": "Italy",
        "province": "Friuli Venezia Giulia",
        "population": 1445,
        "latitude": 46.11443719217265,
        "longitude": 13.482963158503155
    },
    {
        "name": "San Pancrazio Salentino",
        "country": "Italy",
        "province": "Apulia",
        "population": 10184,
        "latitude": 40.41799872414703,
        "longitude": 17.83419265471707
    },
    {
        "name": "St. Pankraz",
        "country": "Italy",
        "province": "Trentino-Alto Adige",
        "population": 323,
        "latitude": 46.58600218374536,
        "longitude": 11.085706346753849
    },
    {
        "name": "San Mauro Torinese",
        "country": "Italy",
        "province": "Piedmont",
        "population": 18521,
        "latitude": 45.1035919958261,
        "longitude": 7.768027433543611
    },
    {
        "name": "San Mauro Pascoli",
        "country": "Italy",
        "province": "Emilia-Romagna",
        "population": 8372,
        "latitude": 44.10890350059755,
        "longitude": 12.419526572817597
    },
    {
        "name": "San Martino in Rio",
        "country": "Italy",
        "province": "Emilia-Romagna",
        "population": 6093,
        "latitude": 44.733682241982116,
        "longitude": 10.784903261485455
    },
    {
        "name": "San Martino Buon Albergo",
        "country": "Italy",
        "province": "Veneto",
        "population": 11818,
        "latitude": 45.420825632782595,
        "longitude": 11.095615946700846
    },
    {
        "name": "San Martino in Passiria",
        "country": "Italy",
        "province": "Trentino-Alto Adige",
        "population": 1783,
        "latitude": 46.783923,
        "longitude": 11.227268
    },
    {
        "name": "San Marco la Catola",
        "country": "Italy",
        "province": "Apulia",
        "population": 1077,
        "latitude": 41.524829,
        "longitude": 15.005938
    },
    {
        "name": "San Marco in Lamis",
        "country": "Italy",
        "province": "Apulia",
        "population": 13388,
        "latitude": 41.71209900154619,
        "longitude": 15.63824687643687
    },
    {
        "name": "San Mango sul Calore",
        "country": "Italy",
        "province": "Campania",
        "population": 644,
        "latitude": 40.95889900909664,
        "longitude": 14.972512604680038
    },
    {
        "name": "San Lorenzo Nuovo",
        "country": "Italy",
        "province": "Lazio",
        "population": 1921,
        "latitude": 42.68626375931585,
        "longitude": 11.90718473227142
    },
    {
        "name": "St. Lorenzen",
        "country": "Italy",
        "province": "Trentino-Alto Adige",
        "population": 1221,
        "latitude": 46.78514453563339,
        "longitude": 11.908116266365331
    },
    {
        "name": "Saint Leonhard in Passeier",
        "country": "Italy",
        "province": "Trentino-Alto Adige",
        "population": 1671,
        "latitude": 46.812824,
        "longitude": 11.245768
    },
    {
        "name": "San Leo",
        "country": "Italy",
        "province": "Emilia-Romagna",
        "population": 204,
        "latitude": 43.896367195393,
        "longitude": 12.344597827347618
    },
    {
        "name": "San Lazzaro di Savena",
        "country": "Italy",
        "province": "Emilia-Romagna",
        "population": 22350,
        "latitude": 44.4705,
        "longitude": 11.40851
    },
    {
        "name": "San Giusto Canavese",
        "country": "Italy",
        "province": "Piedmont",
        "population": 3379,
        "latitude": 45.31534823435958,
        "longitude": 7.810012597737006
    },
    {
        "name": "San Giuseppe Vesuviano",
        "country": "Italy",
        "province": "Campania",
        "population": 26888,
        "latitude": 40.8356,
        "longitude": 14.50487
    },
    {
        "name": "San Giuliano Terme",
        "country": "Italy",
        "province": "Tuscany",
        "population": 2394,
        "latitude": 43.763719406574374,
        "longitude": 10.438562515484692
    },
    {
        "name": "San Giuliano Milanese",
        "country": "Italy",
        "province": "Lombardy",
        "population": 31050,
        "latitude": 45.39402,
        "longitude": 9.29109
    },
    {
        "name": "San Giovanni Valdarno",
        "country": "Italy",
        "province": "Tuscany",
        "population": 16002,
        "latitude": 43.56757,
        "longitude": 11.52987
    },
    {
        "name": "San Giovanni Lupatoto",
        "country": "Italy",
        "province": "Veneto",
        "population": 20038,
        "latitude": 45.38193,
        "longitude": 11.04474
    },
    {
        "name": "San Giovanni in Persiceto",
        "country": "Italy",
        "province": "Emilia-Romagna",
        "population": 15783,
        "latitude": 44.63838136501851,
        "longitude": 11.18418747575483
    },
    {
        "name": "San Giovanni a Teduccio",
        "country": "Italy",
        "province": "Campania",
        "population": 23839,
        "latitude": 40.83808,
        "longitude": 14.30606
    },
    {
        "name": "San Giovanni al Natisone",
        "country": "Italy",
        "province": "Friuli Venezia Giulia",
        "population": 4067,
        "latitude": 45.970792573946156,
        "longitude": 13.401824119073858
    },
    {
        "name": "San Giorgio Ionico",
        "country": "Italy",
        "province": "Apulia",
        "population": 14618,
        "latitude": 40.457959551568585,
        "longitude": 17.38034436937192
    },
    {
        "name": "San Giorgio in Bosco",
        "country": "Italy",
        "province": "Veneto",
        "population": 2169,
        "latitude": 45.58862647049273,
        "longitude": 11.807360635015757
    },
    {
        "name": "San Giorgio Canavese",
        "country": "Italy",
        "province": "Piedmont",
        "population": 2214,
        "latitude": 45.335565384266886,
        "longitude": 7.798225153439556
    },
    {
        "name": "San Giorgio a Cremano",
        "country": "Italy",
        "province": "Campania",
        "population": 45463,
        "latitude": 40.83261,
        "longitude": 14.34162
    },
    {
        "name": "San Gimignano",
        "country": "Italy",
        "province": "Tuscany",
        "population": 3261,
        "latitude": 43.47379772513554,
        "longitude": 11.029745258290497
    },
    {
        "name": "San Gennaro Vesuviano",
        "country": "Italy",
        "province": "Campania",
        "population": 10684,
        "latitude": 40.862262255953915,
        "longitude": 14.5241397005168
    },
    {
        "name": "San Genesio ed Uniti",
        "country": "Italy",
        "province": "Lombardy",
        "population": 3003,
        "latitude": 45.2341382783311,
        "longitude": 9.17996831874865
    },
    {
        "name": "Jenesien",
        "country": "Italy",
        "province": "Trentino-Alto Adige",
        "population": 1253,
        "latitude": 46.534599452997035,
        "longitude": 11.329707834646126
    },
    {
        "name": "San Gemini",
        "country": "Italy",
        "province": "Umbria",
        "population": 3375,
        "latitude": 42.6137786653814,
        "longitude": 12.545277642563873
    },
    {
        "name": "Sanfront",
        "country": "Italy",
        "province": "Piedmont",
        "population": 1190,
        "latitude": 44.64698174112241,
        "longitude": 7.322429319723519
    },
    {
        "name": "San Ferdinando di Puglia",
        "country": "Italy",
        "province": "Apulia",
        "population": 13734,
        "latitude": 41.302632,
        "longitude": 16.070465
    },
    {
        "name": "San Dorligo della Valle",
        "country": "Italy",
        "province": "Friuli Venezia Giulia",
        "population": 1892,
        "latitude": 45.60079756682793,
        "longitude": 13.859285116195679
    },
    {
        "name": "San Daniele del Friuli",
        "country": "Italy",
        "province": "Friuli Venezia Giulia",
        "population": 6700,
        "latitude": 46.157141186931966,
        "longitude": 13.007263661986924
    },
    {
        "name": "San Colombano Certénoli",
        "country": "Italy",
        "province": "Liguria",
        "population": 289,
        "latitude": 44.36449401504406,
        "longitude": 9.331930191639055
    },
    {
        "name": "San Cesareo",
        "country": "Italy",
        "province": "Lazio",
        "population": 10529,
        "latitude": 41.821127017268125,
        "longitude": 12.80447077275122
    },
    {
        "name": "Innichen",
        "country": "Italy",
        "province": "Trentino-Alto Adige",
        "population": 2282,
        "latitude": 46.73240156874126,
        "longitude": 12.27854758865487
    },
    {
        "name": "San Bonifacio",
        "country": "Italy",
        "province": "Veneto",
        "population": 17347,
        "latitude": 45.39595,
        "longitude": 11.27352
    },
    {
        "name": "San Benedetto del Tronto",
        "country": "Italy",
        "province": "The Marches",
        "population": 45873,
        "latitude": 42.9568,
        "longitude": 13.87676
    },
    {
        "name": "Samarate",
        "country": "Italy",
        "province": "Lombardy",
        "population": 14172,
        "latitude": 45.62410213240511,
        "longitude": 8.78507429302312
    },
    {
        "name": "Salsomaggiore Terme",
        "country": "Italy",
        "province": "Emilia-Romagna",
        "population": 15754,
        "latitude": 44.815919553248115,
        "longitude": 9.986369799554076
    },
    {
        "name": "Salò",
        "country": "Italy",
        "province": "Lombardy",
        "population": 10576,
        "latitude": 45.60684529519043,
        "longitude": 10.520503910091795
    },
    {
        "name": "Sali Vercellese",
        "country": "Italy",
        "province": "Piedmont",
        "population": 107,
        "latitude": 45.309859,
        "longitude": 8.328931
    },
    {
        "name": "Sala Consilina",
        "country": "Italy",
        "province": "Campania",
        "population": 11734,
        "latitude": 40.40134,
        "longitude": 15.5914
    },
    {
        "name": "Sala Bolognese",
        "country": "Italy",
        "province": "Emilia-Romagna",
        "population": 1723,
        "latitude": 44.61387281843277,
        "longitude": 11.256691985249997
    },
    {
        "name": "Sacile",
        "country": "Italy",
        "province": "Friuli Venezia Giulia",
        "population": 16626,
        "latitude": 45.9541184695294,
        "longitude": 12.502741813659668
    },
    {
        "name": "Ruvo di Puglia",
        "country": "Italy",
        "province": "Apulia",
        "population": 23938,
        "latitude": 41.11758,
        "longitude": 16.48421
    },
    {
        "name": "Rutigliano",
        "country": "Italy",
        "province": "Apulia",
        "population": 17674,
        "latitude": 41.00997486239147,
        "longitude": 17.00558127961597
    },
    {
        "name": "Monrupino",
        "country": "Italy",
        "province": "Friuli Venezia Giulia",
        "population": 581,
        "latitude": 45.72283608589434,
        "longitude": 13.790977729210336
    },
    {
        "name": "Rubiera",
        "country": "Italy",
        "province": "Emilia-Romagna",
        "population": 12001,
        "latitude": 44.651582531444085,
        "longitude": 10.779397456508434
    },
    {
        "name": "Pragelato",
        "country": "Italy",
        "province": "Piedmont",
        "population": 402,
        "latitude": 45.013639,
        "longitude": 6.941607
    },
    {
        "name": "Rozzano",
        "country": "Italy",
        "province": "Lombardy",
        "population": 39731,
        "latitude": 45.38193,
        "longitude": 9.1559
    },
    {
        "name": "Rovolon",
        "country": "Italy",
        "province": "Veneto",
        "population": 355,
        "latitude": 45.36673350977251,
        "longitude": 11.662469238164928
    },
    {
        "name": "Rovereto",
        "country": "Italy",
        "province": "Trentino-Alto Adige",
        "population": 34152,
        "latitude": 45.8904,
        "longitude": 11.04053
    },
    {
        "name": "Rovello Porro",
        "country": "Italy",
        "province": "Lombardy",
        "population": 6035,
        "latitude": 45.652102540811164,
        "longitude": 9.039400984041901
    },
    {
        "name": "Rovato",
        "country": "Italy",
        "province": "Lombardy",
        "population": 12239,
        "latitude": 45.56341774929982,
        "longitude": 10.00212578671506
    },
    {
        "name": "Rovasenda",
        "country": "Italy",
        "province": "Piedmont",
        "population": 721,
        "latitude": 45.538656880883416,
        "longitude": 8.315924947408718
    },
    {
        "name": "Rosolina",
        "country": "Italy",
        "province": "Veneto",
        "population": 5185,
        "latitude": 45.07673827551569,
        "longitude": 12.22976605886458
    },
    {
        "name": "Rosignano Solvay-Castiglioncello",
        "country": "Italy",
        "province": "Tuscany",
        "population": 19786,
        "latitude": 43.38945617980699,
        "longitude": 10.436153411865234
    },
    {
        "name": "Roseto degli Abruzzi",
        "country": "Italy",
        "province": "Abruzzo",
        "population": 16538,
        "latitude": 42.67163790783024,
        "longitude": 14.01481217684924
    },
    {
        "name": "Rosa",
        "country": "Italy",
        "province": "Friuli Venezia Giulia",
        "population": 13443,
        "latitude": 45.9305556,
        "longitude": 12.8708333
    },
    {
        "name": "Rosà",
        "country": "Italy",
        "province": "Veneto",
        "population": 12548,
        "latitude": 45.70198246904643,
        "longitude": 11.761413156391272
    },
    {
        "name": "Rondissone",
        "country": "Italy",
        "province": "Piedmont",
        "population": 1669,
        "latitude": 45.24629537445413,
        "longitude": 7.964263619805111
    },
    {
        "name": "Ronchi dei Legionari",
        "country": "Italy",
        "province": "Friuli Venezia Giulia",
        "population": 11902,
        "latitude": 45.82734592472447,
        "longitude": 13.504170593767048
    },
    {
        "name": "Romano di Lombardia",
        "country": "Italy",
        "province": "Lombardy",
        "population": 17549,
        "latitude": 45.52081,
        "longitude": 9.7544
    },
    {
        "name": "Romano Canavese",
        "country": "Italy",
        "province": "Piedmont",
        "population": 2792,
        "latitude": 45.39924616102872,
        "longitude": 7.868847712865576
    },
    {
        "name": "Romanengo",
        "country": "Italy",
        "province": "Lombardy",
        "population": 2921,
        "latitude": 45.378151544867016,
        "longitude": 9.787769253686278
    },
    {
        "name": "Rocca di Papa",
        "country": "Italy",
        "province": "Lazio",
        "population": 15036,
        "latitude": 41.765799905393955,
        "longitude": 12.701880192209735
    },
    {
        "name": "Robecco sul Naviglio",
        "country": "Italy",
        "province": "Lombardy",
        "population": 4176,
        "latitude": 45.43661642000639,
        "longitude": 8.885725456262254
    },
    {
        "name": "Robassomero",
        "country": "Italy",
        "province": "Piedmont",
        "population": 2298,
        "latitude": 45.198412896410225,
        "longitude": 7.567535328730031
    },
    {
        "name": "Roana",
        "country": "Italy",
        "province": "Veneto",
        "population": 1093,
        "latitude": 45.87695842282807,
        "longitude": 11.452742029776449
    },
    {
        "name": "Rivarolo Canavese",
        "country": "Italy",
        "province": "Piedmont",
        "population": 10978,
        "latitude": 45.328285984516405,
        "longitude": 7.7210951460447355
    },
    {
        "name": "Riva presso Chieri",
        "country": "Italy",
        "province": "Piedmont",
        "population": 3272,
        "latitude": 44.98337634169522,
        "longitude": 7.873133439446452
    },
    {
        "name": "Rivalta di Torino",
        "country": "Italy",
        "province": "Piedmont",
        "population": 10411,
        "latitude": 45.03268338993953,
        "longitude": 7.520416589896269
    },
    {
        "name": "Riva del Garda",
        "country": "Italy",
        "province": "Trentino-Alto Adige",
        "population": 17331,
        "latitude": 45.88576635570338,
        "longitude": 10.841166973114014
    },
    {
        "name": "Rionero in Vulture",
        "country": "Italy",
        "province": "Basilicate",
        "population": 12670,
        "latitude": 40.92328029334571,
        "longitude": 15.671099259505752
    },
    {
        "name": "Mühlbach",
        "country": "Italy",
        "province": "Trentino-Alto Adige",
        "population": 1151,
        "latitude": 46.796578260864415,
        "longitude": 11.66754226569705
    },
    {
        "name": "Schenna",
        "country": "Italy",
        "province": "Trentino-Alto Adige",
        "population": 1304,
        "latitude": 46.6884,
        "longitude": 11.18855
    },
    {
        "name": "Riccò del Golfo di Spezia",
        "country": "Italy",
        "province": "Liguria",
        "population": 1072,
        "latitude": 44.1540989958718,
        "longitude": 9.76414203643799
    },
    {
        "name": "Riardo",
        "country": "Italy",
        "province": "Campania",
        "population": 1717,
        "latitude": 41.26196832616767,
        "longitude": 14.150454166308922
    },
    {
        "name": "Rezzato",
        "country": "Italy",
        "province": "Lombardy",
        "population": 12779,
        "latitude": 45.511820478502116,
        "longitude": 10.317314964484192
    },
    {
        "name": "Revò",
        "country": "Italy",
        "province": "Trentino-Alto Adige",
        "population": 1115,
        "latitude": 46.392255878887035,
        "longitude": 11.058082281051906
    },
    {
        "name": "Rescaldina",
        "country": "Italy",
        "province": "Lombardy",
        "population": 14211,
        "latitude": 45.6200165786808,
        "longitude": 8.948777000103224
    },
    {
        "name": "Recanati",
        "country": "Italy",
        "province": "The Marches",
        "population": 14337,
        "latitude": 43.40381432684082,
        "longitude": 13.553790942705234
    },
    {
        "name": "Ravello",
        "country": "Italy",
        "province": "Campania",
        "population": 1523,
        "latitude": 40.6493223338785,
        "longitude": 14.6116662025452
    },
    {
        "name": "Rapolano Terme",
        "country": "Italy",
        "province": "Tuscany",
        "population": 2989,
        "latitude": 43.29497611687427,
        "longitude": 11.602640715198966
    },
    {
        "name": "Qualiano",
        "country": "Italy",
        "province": "Campania",
        "population": 23752,
        "latitude": 40.91899,
        "longitude": 14.15352
    },
    {
        "name": "Putignano",
        "country": "Italy",
        "province": "Apulia",
        "population": 23661,
        "latitude": 40.851060741948636,
        "longitude": 17.121899781029427
    },
    {
        "name": "Procida",
        "country": "Italy",
        "province": "Campania",
        "population": 10228,
        "latitude": 40.756360572677345,
        "longitude": 14.014570023452952
    },
    {
        "name": "Priverno",
        "country": "Italy",
        "province": "Lazio",
        "population": 10005,
        "latitude": 41.47046886748904,
        "longitude": 13.178669583139458
    },
    {
        "name": "Premana",
        "country": "Italy",
        "province": "Lombardy",
        "population": 2205,
        "latitude": 46.052445841277915,
        "longitude": 9.42129135131836
    },
    {
        "name": "Prettau",
        "country": "Italy",
        "province": "Trentino-Alto Adige",
        "population": 337,
        "latitude": 47.040307593911436,
        "longitude": 12.106630922606032
    },
    {
        "name": "Pratovecchio",
        "country": "Italy",
        "province": "Tuscany",
        "population": 2154,
        "latitude": 43.786853,
        "longitude": 11.723532
    },
    {
        "name": "Prata di Principato Ultra",
        "country": "Italy",
        "province": "Campania",
        "population": 2273,
        "latitude": 40.986262342160764,
        "longitude": 14.83802592871339
    },
    {
        "name": "Prata Camportaccio",
        "country": "Italy",
        "province": "Lombardy",
        "population": 2727,
        "latitude": 46.307194,
        "longitude": 9.395236
    },
    {
        "name": "Prali",
        "country": "Italy",
        "province": "Piedmont",
        "population": 266,
        "latitude": 44.889437,
        "longitude": 7.051312
    },
    {
        "name": "Pozzuolo del Friuli",
        "country": "Italy",
        "province": "Friuli Venezia Giulia",
        "population": 1684,
        "latitude": 45.985174722582904,
        "longitude": 13.197242191251778
    },
    {
        "name": "Positano",
        "country": "Italy",
        "province": "Campania",
        "population": 2334,
        "latitude": 40.6282850420876,
        "longitude": 14.4842720031738
    },
    {
        "name": "Posada",
        "country": "Italy",
        "province": "Sardinia",
        "population": 2025,
        "latitude": 40.632027578638706,
        "longitude": 9.719040480422558
    },
    {
        "name": "Portovenere",
        "country": "Italy",
        "province": "Liguria",
        "population": 1025,
        "latitude": 44.050830087518975,
        "longitude": 9.834308624267578
    },
    {
        "name": "Porto Tolle",
        "country": "Italy",
        "province": "Veneto",
        "population": 10666,
        "latitude": 44.949686,
        "longitude": 12.324526
    },
    {
        "name": "Porto Sant'Elpidio",
        "country": "Italy",
        "province": "The Marches",
        "population": 22233,
        "latitude": 43.252971692593206,
        "longitude": 13.759700509090289
    },
    {
        "name": "Porto San Giorgio",
        "country": "Italy",
        "province": "The Marches",
        "population": 15558,
        "latitude": 43.177839429724344,
        "longitude": 13.794113792786831
    },
    {
        "name": "Porto Recanati",
        "country": "Italy",
        "province": "The Marches",
        "population": 10308,
        "latitude": 43.43295609190476,
        "longitude": 13.661647107710985
    },
    {
        "name": "Portogruaro",
        "country": "Italy",
        "province": "Veneto",
        "population": 17468,
        "latitude": 45.78071150549232,
        "longitude": 12.840524392864364
    },
    {
        "name": "Portoferraio",
        "country": "Italy",
        "province": "Tuscany",
        "population": 8296,
        "latitude": 42.812329132109625,
        "longitude": 10.312970054924204
    },
    {
        "name": "Porto Ceresio",
        "country": "Italy",
        "province": "Lombardy",
        "population": 2917,
        "latitude": 45.91284788473847,
        "longitude": 8.896837121836908
    },
    {
        "name": "Porto Azzurro",
        "country": "Italy",
        "province": "Tuscany",
        "population": 3088,
        "latitude": 42.767538047408536,
        "longitude": 10.397230260591437
    },
    {
        "name": "Porretta Terme",
        "country": "Italy",
        "province": "Emilia-Romagna",
        "population": 3632,
        "latitude": 44.163253009168244,
        "longitude": 10.974315910088665
    },
    {
        "name": "Pontevico",
        "country": "Italy",
        "province": "Lombardy",
        "population": 6931,
        "latitude": 45.27315009923337,
        "longitude": 10.092484515299718
    },
    {
        "name": "Ponte San Pietro",
        "country": "Italy",
        "province": "Lombardy",
        "population": 11256,
        "latitude": 45.705955780500396,
        "longitude": 9.590500907025792
    },
    {
        "name": "Pontelatone",
        "country": "Italy",
        "province": "Campania",
        "population": 263,
        "latitude": 41.19460471111099,
        "longitude": 14.248144993216924
    },
    {
        "name": "Pontelandolfo",
        "country": "Italy",
        "province": "Campania",
        "population": 1046,
        "latitude": 41.29230559052803,
        "longitude": 14.689561141035446
    },
    {
        "name": "Waidbruck",
        "country": "Italy",
        "province": "Trentino-Alto Adige",
        "population": 157,
        "latitude": 46.597121,
        "longitude": 11.530879
    },
    {
        "name": "Pontedera",
        "country": "Italy",
        "province": "Tuscany",
        "population": 19518,
        "latitude": 43.66141288725115,
        "longitude": 10.630672685693037
    },
    {
        "name": "Pontebba",
        "country": "Italy",
        "province": "Friuli Venezia Giulia",
        "population": 1109,
        "latitude": 46.505395515537764,
        "longitude": 13.30621838568389
    },
    {
        "name": "Ponte",
        "country": "Italy",
        "province": "Campania",
        "population": 1717,
        "latitude": 41.21554467059481,
        "longitude": 14.698257697002427
    },
    {
        "name": "Ponso",
        "country": "Italy",
        "province": "Veneto",
        "population": 1106,
        "latitude": 45.18232489768826,
        "longitude": 11.57933245048466
    },
    {
        "name": "Ponsacco",
        "country": "Italy",
        "province": "Tuscany",
        "population": 13683,
        "latitude": 43.6230720654359,
        "longitude": 10.62661004381221
    },
    {
        "name": "Pomigliano d'Arco",
        "country": "Italy",
        "province": "Campania",
        "population": 38921,
        "latitude": 40.90975,
        "longitude": 14.38316
    },
    {
        "name": "Pomezia",
        "country": "Italy",
        "province": "Lazio",
        "population": 22346,
        "latitude": 41.66931,
        "longitude": 12.50124
    },
    {
        "name": "Pomarance",
        "country": "Italy",
        "province": "Tuscany",
        "population": 3065,
        "latitude": 43.295923360084444,
        "longitude": 10.87223440252574
    },
    {
        "name": "Polla",
        "country": "Italy",
        "province": "Campania",
        "population": 5182,
        "latitude": 40.51433026943825,
        "longitude": 15.49714546678737
    },
    {
        "name": "Polino",
        "country": "Italy",
        "province": "Umbria",
        "population": 207,
        "latitude": 42.584235,
        "longitude": 12.844375
    },
    {
        "name": "Polignano a Mare",
        "country": "Italy",
        "province": "Apulia",
        "population": 13356,
        "latitude": 40.992210076541085,
        "longitude": 17.2214878497502
    },
    {
        "name": "Policoro",
        "country": "Italy",
        "province": "Basilicate",
        "population": 11810,
        "latitude": 40.2128,
        "longitude": 16.67795
    },
    {
        "name": "Poirino",
        "country": "Italy",
        "province": "Piedmont",
        "population": 6686,
        "latitude": 44.920471612301284,
        "longitude": 7.844645977020264
    },
    {
        "name": "Poggio Picenze",
        "country": "Italy",
        "province": "Abruzzo",
        "population": 1036,
        "latitude": 42.32060667239643,
        "longitude": 13.540357135439946
    },
    {
        "name": "Poggiomarino",
        "country": "Italy",
        "province": "Campania",
        "population": 19451,
        "latitude": 40.80114,
        "longitude": 14.54066
    },
    {
        "name": "Poggibonsi",
        "country": "Italy",
        "province": "Tuscany",
        "population": 21692,
        "latitude": 43.47064193589614,
        "longitude": 11.14804060023753
    },
    {
        "name": "Pocenia",
        "country": "Italy",
        "province": "Friuli Venezia Giulia",
        "population": 1451,
        "latitude": 45.835702559858454,
        "longitude": 13.101448792338646
    },
    {
        "name": "Zevio",
        "country": "Italy",
        "province": "Veneto",
        "population": 12035,
        "latitude": 45.372086,
        "longitude": 11.129292
    },
    {
        "name": "Zenson di Piave",
        "country": "Italy",
        "province": "Veneto",
        "population": 1086,
        "latitude": 45.67970941152436,
        "longitude": 12.489132228262523
    },
    {
        "name": "Zapponeta",
        "country": "Italy",
        "province": "Apulia",
        "population": 3206,
        "latitude": 41.45709826080916,
        "longitude": 15.956152006001755
    },
    {
        "name": "Zambana",
        "country": "Italy",
        "province": "Trentino-Alto Adige",
        "population": 1569,
        "latitude": 46.151705,
        "longitude": 11.096177
    },
    {
        "name": "Zagarolo",
        "country": "Italy",
        "province": "Lazio",
        "population": 11509,
        "latitude": 41.84158836614408,
        "longitude": 12.815397080022377
    },
    {
        "name": "Vomero",
        "country": "Italy",
        "province": "Campania",
        "population": 44791,
        "latitude": 40.84282,
        "longitude": 14.23075
    },
    {
        "name": "Volpiano",
        "country": "Italy",
        "province": "Piedmont",
        "population": 14371,
        "latitude": 45.19940497851485,
        "longitude": 7.775464361769192
    },
    {
        "name": "Vittorio Veneto",
        "country": "Italy",
        "province": "Veneto",
        "population": 24789,
        "latitude": 45.98026,
        "longitude": 12.30065
    },
    {
        "name": "Sterzing",
        "country": "Italy",
        "province": "Trentino-Alto Adige",
        "population": 5356,
        "latitude": 46.893131917808,
        "longitude": 11.42960698831497
    },
    {
        "name": "Vinci",
        "country": "Italy",
        "province": "Tuscany",
        "population": 1519,
        "latitude": 43.781332350125396,
        "longitude": 10.92365415073955
    },
    {
        "name": "Vimodrone",
        "country": "Italy",
        "province": "Lombardy",
        "population": 17072,
        "latitude": 45.51460860228185,
        "longitude": 9.28771978096121
    },
    {
        "name": "Vimercate",
        "country": "Italy",
        "province": "Lombardy",
        "population": 22727,
        "latitude": 45.61545201878866,
        "longitude": 9.368009179216386
    },
    {
        "name": "Villasanta",
        "country": "Italy",
        "province": "Lombardy",
        "population": 13424,
        "latitude": 45.60633803253759,
        "longitude": 9.307966301743031
    },
    {
        "name": "Villar Pellice",
        "country": "Italy",
        "province": "Piedmont",
        "population": 809,
        "latitude": 44.80893046352278,
        "longitude": 7.159781525956048
    },
    {
        "name": "Villaricca",
        "country": "Italy",
        "province": "Campania",
        "population": 25074,
        "latitude": 40.92006,
        "longitude": 14.19339
    },
    {
        "name": "Villanova d'Asti",
        "country": "Italy",
        "province": "Piedmont",
        "population": 3798,
        "latitude": 44.94299467777471,
        "longitude": 7.936713633641386
    },
    {
        "name": "Villa Literno",
        "country": "Italy",
        "province": "Campania",
        "population": 10027,
        "latitude": 41.00942096456978,
        "longitude": 14.076120733922181
    },