[
    {
        "name": "Kingston",
        "country": "Jamaica",
        "province": "Kingston",
        "population": 937700,
        "latitude": 17.9970194353704,
        "longitude": -76.7935752868652
    },
    {
        "name": "New Kingston",
        "country": "Jamaica",
        "province": "St. Andrew",
        "population": 583958,
        "latitude": 18.007467921352998,
        "longitude": -76.78318977355957
    },
    {
        "name": "Montego Bay",
        "country": "Jamaica",
        "province": "St. James",
        "population": 82867,
        "latitude": 18.47116,
        "longitude": -77.91883
    },
    {
        "name": "Portmore",
        "country": "Jamaica",
        "province": "Saint Catherine",
        "population": 102861,
        "latitude": 17.95032,
        "longitude": -76.88215
    },
    {
        "name": "Mandeville",
        "country": "Jamaica",
        "province": "Manchester",
        "population": 47115,
        "latitude": 18.041682,
        "longitude": -77.507141
    },
    {
        "name": "Spanish Town",
        "country": "Jamaica",
        "province": "Saint Catherine",
        "population": 145018,
        "latitude": 17.991073,
        "longitude": -76.957418
    },
    {
        "name": "Old Harbour",
        "country": "Jamaica",
        "province": "Saint Catherine",
        "population": 26024,
        "latitude": 17.941436,
        "longitude": -77.10898
    },
    {
        "name": "May Pen",
        "country": "Jamaica",
        "province": "Clarendon",
        "population": 44755,
        "latitude": 17.964543,
        "longitude": -77.245152
    },
    {
        "name": "Linstead",
        "country": "Jamaica",
        "province": "Saint Catherine",
        "population": 20660,
        "latitude": 18.136828736662768,
        "longitude": -77.03171253204346
    },
    {
        "name": "Half Way Tree",
        "country": "Jamaica",
        "province": "St. Andrew",
        "population": 18552,
        "latitude": 18.012484,
        "longitude": -76.799284
    },
    {
        "name": "Savanna-la-Mar",
        "country": "Jamaica",
        "province": "Westmoreland",
        "population": 16553,
        "latitude": 18.218949,
        "longitude": -78.133202
    },
    {
        "name": "St Ann's Bay",
        "country": "Jamaica",
        "province": "St Ann",
        "population": 13671,
        "latitude": 18.435813,
        "longitude": -77.200983
    },
    {
        "name": "Port Royal",
        "country": "Jamaica",
        "province": "Kingston",
        "population": 3327,
        "latitude": 17.93738,
        "longitude": -76.84062
    },
    {
        "name": "Port Antonio",
        "country": "Jamaica",
        "province": "Portland",
        "population": 14400,
        "latitude": 18.17615,
        "longitude": -76.4509
    },
    {
        "name": "Port Maria",
        "country": "Jamaica",
        "province": "St. Mary",
        "population": 7906,
        "latitude": 18.36849,
        "longitude": -76.889456
    },
    {
        "name": "Ocho Rios",
        "country": "Jamaica",
        "province": "St Ann",
        "population": 9450,
        "latitude": 18.4076,
        "longitude": -77.10312
    },
    {
        "name": "Negril",
        "country": "Jamaica",
        "province": "Westmoreland",
        "population": 3000,
        "latitude": 18.26844,
        "longitude": -78.3481
    },
    {
        "name": "Morant Bay",
        "country": "Jamaica",
        "province": "St. Thomas",
        "population": 9368,
        "latitude": 17.881448,
        "longitude": -76.409267
    },
    {
        "name": "Lucea",
        "country": "Jamaica",
        "province": "Hanover",
        "population": 6289,
        "latitude": 18.450949,
        "longitude": -78.173565
    },
    {
        "name": "Falmouth",
        "country": "Jamaica",
        "province": "Trelawny",
        "population": 7779,
        "latitude": 18.493576,
        "longitude": -77.655871
    },
    {
        "name": "Ewarton",
        "country": "Jamaica",
        "province": "Saint Catherine",
        "population": 12797,
        "latitude": 18.18333,
        "longitude": -77.08536
    },
    {
        "name": "Bog Walk",
        "country": "Jamaica",
        "province": "Saint Catherine",
        "population": 12873,
        "latitude": 18.102047465973165,
        "longitude": -77.00540542602539
    },
    {
        "name": "Black River",
        "country": "Jamaica",
        "province": "St. Elizabeth",
        "population": 4229,
        "latitude": 18.026363414591987,
        "longitude": -77.84873485565186
    },
    {
        "name": "Yallahs",
        "country": "Jamaica",
        "province": "St. Thomas",
        "population": 7644,
        "latitude": 17.8748,
        "longitude": -76.562448
    },
    {
        "name": "Williamsfield",
        "country": "Jamaica",
        "province": "Manchester",
        "population": 3255,
        "latitude": 18.0666667,
        "longitude": -77.4666667
    },
    {
        "name": "Wakefield",
        "country": "Jamaica",
        "province": "Trelawny",
        "population": 2763,
        "latitude": 18.412114,
        "longitude": -77.721834
    },
    {
        "name": "Ulster Spring",
        "country": "Jamaica",
        "province": "Trelawny",
        "population": 1411,
        "latitude": 18.314825,
        "longitude": -77.520671
    },
    {
        "name": "Trinity Ville",
        "country": "Jamaica",
        "province": "St. Thomas",
        "population": 2895,
        "latitude": 17.960762,
        "longitude": -76.514269
    },
    {
        "name": "Stony Hill",
        "country": "Jamaica",
        "province": "St. Andrew",
        "population": 8551,
        "latitude": 18.07916,
        "longitude": -76.78473
    },
    {
        "name": "Southfield",
        "country": "Jamaica",
        "province": "St. Elizabeth",
        "population": 2695,
        "latitude": 17.887803,
        "longitude": -77.667133
    },
    {
        "name": "Siloah",
        "country": "Jamaica",
        "province": "St. Elizabeth",
        "population": 2725,
        "latitude": 18.167093,
        "longitude": -77.703479
    },
    {
        "name": "Seaforth",
        "country": "Jamaica",
        "province": "St. Thomas",
        "population": 4550,
        "latitude": 17.935778,
        "longitude": -76.457302
    },
    {
        "name": "Santa Cruz",
        "country": "Jamaica",
        "province": "St. Elizabeth",
        "population": 8217,
        "latitude": 18.053365,
        "longitude": -77.698361
    },
    {
        "name": "Sandy Bay",
        "country": "Jamaica",
        "province": "Hanover",
        "population": 4520,
        "latitude": 18.448545,
        "longitude": -78.073208
    },
    {
        "name": "Runaway Bay",
        "country": "Jamaica",
        "province": "St Ann",
        "population": 6517,
        "latitude": 18.459616,
        "longitude": -77.335704
    },
    {
        "name": "Rocky Point",
        "country": "Jamaica",
        "province": "Clarendon",
        "population": 3152,
        "latitude": 17.774003,
        "longitude": -77.261069
    },
    {
        "name": "Riversdale",
        "country": "Jamaica",
        "province": "Saint Catherine",
        "population": 4085,
        "latitude": 18.165863,
        "longitude": -76.96417
    },
    {
        "name": "Richmond",
        "country": "Jamaica",
        "province": "St. Mary",
        "population": 2046,
        "latitude": 18.25478,
        "longitude": -76.88799
    },
    {
        "name": "Race Course",
        "country": "Jamaica",
        "province": "Clarendon",
        "population": 2974,
        "latitude": 17.840189,
        "longitude": -77.282232
    },
    {
        "name": "Porus",
        "country": "Jamaica",
        "province": "Manchester",
        "population": 5923,
        "latitude": 18.035349,
        "longitude": -77.41166
    },
    {
        "name": "Point Hill",
        "country": "Jamaica",
        "province": "Saint Catherine",
        "population": 5344,
        "latitude": 18.089879,
        "longitude": -77.107588
    },
    {
        "name": "Petersfield",
        "country": "Jamaica",
        "province": "Westmoreland",
        "population": 2255,
        "latitude": 18.261578,
        "longitude": -78.071172
    },
    {
        "name": "Oracabessa",
        "country": "Jamaica",
        "province": "St. Mary",
        "population": 4100,
        "latitude": 18.403191,
        "longitude": -76.94641
    },
    {
        "name": "Old Harbour Bay",
        "country": "Jamaica",
        "province": "Saint Catherine",
        "population": 7912,
        "latitude": 17.909181,
        "longitude": -77.097179
    },
    {
        "name": "Nain",
        "country": "Jamaica",
        "province": "St. Elizabeth",
        "population": 2394,
        "latitude": 17.96526,
        "longitude": -77.60528
    },
    {
        "name": "Moore Town",
        "country": "Jamaica",
        "province": "Portland",
        "population": 1119,
        "latitude": 18.077673,
        "longitude": -76.425771
    },
    {
        "name": "Moneague",
        "country": "Jamaica",
        "province": "St Ann",
        "population": 3319,
        "latitude": 18.275556,
        "longitude": -77.111769
    },
    {
        "name": "Mavis Bank",
        "country": "Jamaica",
        "province": "St. Andrew",
        "population": 1821,
        "latitude": 18.0333333,
        "longitude": -76.6666667
    },
    {
        "name": "Maroon Town",
        "country": "Jamaica",
        "province": "St. James",
        "population": 3085,
        "latitude": 18.344635,
        "longitude": -77.795436
    },
    {
        "name": "Manchioneal",
        "country": "Jamaica",
        "province": "Portland",
        "population": 2321,
        "latitude": 18.04444,
        "longitude": -76.27735
    },
    {
        "name": "Malvern",
        "country": "Jamaica",
        "province": "St. Elizabeth",
        "population": 3291,
        "latitude": 17.96667,
        "longitude": -77.7
    },
    {
        "name": "Maggotty",
        "country": "Jamaica",
        "province": "St. Elizabeth",
        "population": 1371,
        "latitude": 18.160691,
        "longitude": -77.763491
    },
    {
        "name": "Lluidas Vale",
        "country": "Jamaica",
        "province": "Saint Catherine",
        "population": 3163,
        "latitude": 18.12587,
        "longitude": -77.14823
    },
    {
        "name": "Lionel Town",
        "country": "Jamaica",
        "province": "Clarendon",
        "population": 5362,
        "latitude": 17.810073,
        "longitude": -77.240613
    },
    {
        "name": "Lacovia",
        "country": "Jamaica",
        "province": "St. Elizabeth",
        "population": 3187,
        "latitude": 18.0721,
        "longitude": -77.75059
    },
    {
        "name": "Kellits",
        "country": "Jamaica",
        "province": "Clarendon",
        "population": 2631,
        "latitude": 18.16184,
        "longitude": -77.27049
    },
    {
        "name": "Islington",
        "country": "Jamaica",
        "province": "St. Mary",
        "population": 2958,
        "latitude": 18.309219,
        "longitude": -76.85482
    },
    {
        "name": "Hope Bay",
        "country": "Jamaica",
        "province": "Portland",
        "population": 1666,
        "latitude": 18.19882,
        "longitude": -76.56539
    },
    {
        "name": "Gordon Town",
        "country": "Jamaica",
        "province": "St. Andrew",
        "population": 1088,
        "latitude": 18.035777,
        "longitude": -76.717825
    },
    {
        "name": "Golden Grove",
        "country": "Jamaica",
        "province": "St. Thomas",
        "population": 3058,
        "latitude": 17.933615,
        "longitude": -76.272539
    },
    {
        "name": "Gayle",
        "country": "Jamaica",
        "province": "St. Mary",
        "population": 3305,
        "latitude": 18.326419,
        "longitude": -77.009714
    },
    {
        "name": "Easington",
        "country": "Jamaica",
        "province": "St. Thomas",
        "population": 2634,
        "latitude": 17.923966,
        "longitude": -76.588241
    },
    {
        "name": "Duncans",
        "country": "Jamaica",
        "province": "Trelawny",
        "population": 1876,
        "latitude": 18.467998,
        "longitude": -77.536328
    },
    {
        "name": "Discovery Bay",
        "country": "Jamaica",
        "province": "St Ann",
        "population": 2535,
        "latitude": 18.45873,
        "longitude": -77.39997
    },
    {
        "name": "Darliston",
        "country": "Jamaica",
        "province": "Westmoreland",
        "population": 1583,
        "latitude": 18.237311,
        "longitude": -77.976257
    },
    {
        "name": "Dalvey",
        "country": "Jamaica",
        "province": "St. Thomas",
        "population": 3037,
        "latitude": 17.911836,
        "longitude": -76.248645
    },
    {
        "name": "Coleyville",
        "country": "Jamaica",
        "province": "Manchester",
        "population": 3860,
        "latitude": 18.207832,
        "longitude": -77.507543
    },
    {
        "name": "Chapelton",
        "country": "Jamaica",
        "province": "Clarendon",
        "population": 4514,
        "latitude": 18.0833333,
        "longitude": -77.2666667
    },
    {
        "name": "Cascade",
        "country": "Jamaica",
        "province": "Hanover",
        "population": 1232,
        "latitude": 18.397469,
        "longitude": -78.103375
    },
    {
        "name": "Cambridge",
        "country": "Jamaica",
        "province": "St. James",
        "population": 3930,
        "latitude": 18.313264,
        "longitude": -77.902521
    },
    {
        "name": "Bull Savanna",
        "country": "Jamaica",
        "province": "St. Elizabeth",
        "population": 6962,
        "latitude": 17.886779,
        "longitude": -77.590221
    },
    {
        "name": "Bethel Town",
        "country": "Jamaica",
        "province": "Westmoreland",
        "population": 3053,
        "latitude": 18.295035,
        "longitude": -77.951121
    },
    {
        "name": "Bath",
        "country": "Jamaica",
        "province": "St. Thomas",
        "population": 2382,
        "latitude": 17.948199,
        "longitude": -76.349161
    },
    {
        "name": "Bamboo",
        "country": "Jamaica",
        "province": "St Ann",
        "population": 4264,
        "latitude": 18.392165,
        "longitude": -77.264289
    },
    {
        "name": "Balaclava",
        "country": "Jamaica",
        "province": "St. Elizabeth",
        "population": 2862,
        "latitude": 18.172283,
        "longitude": -77.643746
    },
    {
        "name": "Annotto Bay",
        "country": "Jamaica",
        "province": "St. Mary",
        "population": 5504,
        "latitude": 18.271701,
        "longitude": -76.765229
    },
    {
        "name": "Anchovy",
        "country": "Jamaica",
        "province": "St. James",
        "population": 4161,
        "latitude": 18.410297,
        "longitude": -77.931663
    },
    {
        "name": "Alligator Pond",
        "country": "Jamaica",
        "province": "St. Elizabeth",
        "population": 1793,
        "latitude": 17.86932,
        "longitude": -77.56769
    },
    {
        "name": "Alexandria",
        "country": "Jamaica",
        "province": "St Ann",
        "population": 1927,
        "latitude": 18.307685,
        "longitude": -77.353354
    },
    {
        "name": "Albert Town",
        "country": "Jamaica",
        "province": "Trelawny",
        "population": 3449,
        "latitude": 18.294337,
        "longitude": -77.542387
    },
    {
        "name": "Sherwood Content",
        "country": "Jamaica",
        "province": "Trelawny",
        "population": -1,
        "latitude": 18.391156,
        "longitude": -77.628339
    },
    {
        "name": "Woodhall",
        "country": "Jamaica",
        "province": "Saint Catherine",
        "population": -1,
        "latitude": 18.041561,
        "longitude": -77.136761
    },
    {
        "name": "Whitehouse",
        "country": "Jamaica",
        "province": "Westmoreland",
        "population": -1,
        "latitude": 18.093416,
        "longitude": -77.967113
    },
    {
        "name": "White Hall",
        "country": "Jamaica",
        "province": "St. Elizabeth",
        "population": -1,
        "latitude": 18.11084,
        "longitude": -77.850445
    },
    {
        "name": "Treasure Beach",
        "country": "Jamaica",
        "province": "St. Elizabeth",
        "population": -1,
        "latitude": 17.87674,
        "longitude": -77.75883
    },
    {
        "name": "Stonehenge",
        "country": "Jamaica",
        "province": "St. James",
        "population": -1,
        "latitude": 18.242012,
        "longitude": -77.860902
    },
    {
        "name": "Sligoville",
        "country": "Jamaica",
        "province": "Saint Catherine",
        "population": -1,
        "latitude": 18.1,
        "longitude": -76.95
    },
    {
        "name": "Seaford Town",
        "country": "Jamaica",
        "province": "Westmoreland",
        "population": -1,
        "latitude": 18.249949,
        "longitude": -77.903069
    },
    {
        "name": "Roxborough",
        "country": "Jamaica",
        "province": "Manchester",
        "population": -1,
        "latitude": 18.0166667,
        "longitude": -77.4666667
    },
    {
        "name": "Rio Bueno",
        "country": "Jamaica",
        "province": "Trelawny",
        "population": -1,
        "latitude": 18.470495,
        "longitude": -77.46076
    },
    {
        "name": "Revival",
        "country": "Jamaica",
        "province": "Westmoreland",
        "population": -1,
        "latitude": 18.245783,
        "longitude": -78.293029
    },
    {
        "name": "Port Morant",
        "country": "Jamaica",
        "province": "St. Thomas",
        "population": -1,
        "latitude": 17.891024,
        "longitude": -76.325643
    },
    {
        "name": "Port Esquivel",
        "country": "Jamaica",
        "province": "Saint Catherine",
        "population": -1,
        "latitude": 17.892722,
        "longitude": -77.131883
    },
    {
        "name": "Palmers Cross",
        "country": "Jamaica",
        "province": "Clarendon",
        "population": -1,
        "latitude": 17.951616,
        "longitude": -77.214174
    },
    {
        "name": "Osborne Store",
        "country": "Jamaica",
        "province": "Clarendon",
        "population": -1,
        "latitude": 17.963943,
        "longitude": -77.335457
    },
    {
        "name": "Old Pera",
        "country": "Jamaica",
        "province": "St. Thomas",
        "population": -1,
        "latitude": 17.876256,
        "longitude": -76.315775
    },
    {
        "name": "Old Harbour Bay",
        "country": "Jamaica",
        "province": "Saint Catherine",
        "population": -1,
        "latitude": 17.9,
        "longitude": -77.2666667
    },
    {
        "name": "New Road",
        "country": "Jamaica",
        "province": "Westmoreland",
        "population": -1,
        "latitude": 18.189324,
        "longitude": -77.936054
    },
    {
        "name": "Newcastle",
        "country": "Jamaica",
        "province": "St. Andrew",
        "population": -1,
        "latitude": 18.0667,
        "longitude": -76.716
    },
    {
        "name": "Montpelier",
        "country": "Jamaica",
        "province": "St. James",
        "population": -1,
        "latitude": 18.371607,
        "longitude": -77.929924
    },
    {
        "name": "Milk River Bath",
        "country": "Jamaica",
        "province": "Clarendon",
        "population": -1,
        "latitude": 17.85,
        "longitude": -77.3666667
    },
    {
        "name": "Middle Quarters",
        "country": "Jamaica",
        "province": "St. Elizabeth",
        "population": -1,
        "latitude": 18.100602,
        "longitude": -77.837685
    },
    {
        "name": "Manchioneal",
        "country": "Jamaica",
        "province": "St. Elizabeth",
        "population": -1,
        "latitude": 17.8833333,
        "longitude": -77.75
    },
    {
        "name": "Lucky Hill",
        "country": "Jamaica",
        "province": "St. Mary",
        "population": 774,
        "latitude": 18.310235,
        "longitude": -77.010452
    },
    {
        "name": "Long Wood",
        "country": "Jamaica",
        "province": "Clarendon",
        "population": -1,
        "latitude": 17.8166667,
        "longitude": -77.2833333
    },
    {
        "name": "Little London",
        "country": "Jamaica",
        "province": "Westmoreland",
        "population": -1,
        "latitude": 18.248305,
        "longitude": -78.216406
    },
    {
        "name": "Konigsberg",
        "country": "Jamaica",
        "province": "St. Mary",
        "population": -1,
        "latitude": 18.2333333,
        "longitude": -76.8666667
    },
    {
        "name": "Kendal",
        "country": "Jamaica",
        "province": "Manchester",
        "population": -1,
        "latitude": 18.08721,
        "longitude": -77.481499
    },
    {
        "name": "Hopewell Hall",
        "country": "Jamaica",
        "province": "St. Thomas",
        "population": -1,
        "latitude": 17.9333333,
        "longitude": -76.3333333
    },
    {
        "name": "Hopewell",
        "country": "Jamaica",
        "province": "St Ann",
        "population": -1,
        "latitude": 18.45,
        "longitude": -77.4
    },
    {
        "name": "Hopewell",
        "country": "Jamaica",
        "province": "Hanover",
        "population": -1,
        "latitude": 18.4333333,
        "longitude": -78.1333333
    },
    {
        "name": "Hopewell",
        "country": "Jamaica",
        "province": "St Ann",
        "population": -1,
        "latitude": 18.331467,
        "longitude": -77.091096
    },
    {
        "name": "Hopewell",
        "country": "Jamaica",
        "province": "Westmoreland",
        "population": -1,
        "latitude": 18.25,
        "longitude": -78.3
    },
    {
        "name": "Hopewell",
        "country": "Jamaica",
        "province": "St. Andrew",
        "population": -1,
        "latitude": 18.056348,
        "longitude": -76.720441
    },
    {
        "name": "Hopewell",
        "country": "Jamaica",
        "province": "St. Elizabeth",
        "population": -1,
        "latitude": 17.949446,
        "longitude": -77.778069
    },
    {
        "name": "Hopewell",
        "country": "Jamaica",
        "province": "Manchester",
        "population": -1,
        "latitude": 17.9333333,
        "longitude": -77.4333333
    },
    {
        "name": "Hopewell",
        "country": "Jamaica",
        "province": "Clarendon",
        "population": -1,
        "latitude": 17.9333333,
        "longitude": -77.3
    },
    {
        "name": "Hodges",
        "country": "Jamaica",
        "province": "St. Elizabeth",
        "population": -1,
        "latitude": 18.05,
        "longitude": -77.8833333
    },
    {
        "name": "Harbour View",
        "country": "Jamaica",
        "province": "St. Andrew",
        "population": -1,
        "latitude": 17.953356,
        "longitude": -76.717096
    },
    {
        "name": "Halse Hall",
        "country": "Jamaica",
        "province": "Clarendon",
        "population": -1,
        "latitude": 17.935242,
        "longitude": -77.238322
    },
    {
        "name": "Haddersfield",
        "country": "Jamaica",
        "province": "St. Mary",
        "population": -1,
        "latitude": 18.4,
        "longitude": -77.0166667
    },
    {
        "name": "Guys Hill",
        "country": "Jamaica",
        "province": "Saint Catherine",
        "population": -1,
        "latitude": 18.249867,
        "longitude": -76.991795
    },
    {
        "name": "Green Island",
        "country": "Jamaica",
        "province": "Hanover",
        "population": -1,
        "latitude": 18.3892,
        "longitude": -78.273798
    },
    {
        "name": "Grange Hill",
        "country": "Jamaica",
        "province": "Westmoreland",
        "population": -1,
        "latitude": 18.310624,
        "longitude": -78.184307
    },
    {
        "name": "Frome",
        "country": "Jamaica",
        "province": "Westmoreland",
        "population": 993,
        "latitude": 18.294068,
        "longitude": -78.154692
    },
    {
        "name": "Frankfield",
        "country": "Jamaica",
        "province": "Clarendon",
        "population": -1,
        "latitude": 18.146615,
        "longitude": -77.366434
    },
    {
        "name": "Duckenfield Hall",
        "country": "Jamaica",
        "province": "St. Thomas",
        "population": -1,
        "latitude": 17.920919,
        "longitude": -76.260481
    },
    {
        "name": "Crofts Hill",
        "country": "Jamaica",
        "province": "Clarendon",
        "population": -1,
        "latitude": 18.132989,
        "longitude": -77.207707
    },
    {
        "name": "Cotterwood",
        "country": "Jamaica",
        "province": "St. Elizabeth",
        "population": -1,
        "latitude": 18.089298,
        "longitude": -77.913073
    },
    {
        "name": "Clarks Town",
        "country": "Jamaica",
        "province": "Trelawny",
        "population": -1,
        "latitude": 18.419491,
        "longitude": -77.543812
    },
    {
        "name": "Clarendon Park",
        "country": "Jamaica",
        "province": "Clarendon",
        "population": -1,
        "latitude": 17.993536,
        "longitude": -77.371595
    },
    {
        "name": "Cave Valley",
        "country": "Jamaica",
        "province": "St Ann",
        "population": -1,
        "latitude": 18.224083,
        "longitude": -77.365533
    },
    {
        "name": "Cascade",
        "country": "Jamaica",
        "province": "St Ann",
        "population": -1,
        "latitude": 18.2166667,
        "longitude": -77.45
    },
    {
        "name": "Bull Bay",
        "country": "Jamaica",
        "province": "St. Andrew",
        "population": -1,
        "latitude": 17.943716,
        "longitude": -76.666025
    },
    {
        "name": "Browns Town",
        "country": "Jamaica",
        "province": "St Ann",
        "population": -1,
        "latitude": 18.392469,
        "longitude": -77.366842
    },
    {
        "name": "Brazilletos",
        "country": "Jamaica",
        "province": "Clarendon",
        "population": -1,
        "latitude": 17.8333333,
        "longitude": -77.1666667
    },
    {
        "name": "Boscobel",
        "country": "Jamaica",
        "province": "St. Mary",
        "population": -1,
        "latitude": 18.404653,
        "longitude": -76.979895
    },
    {
        "name": "Bog",
        "country": "Jamaica",
        "province": "Westmoreland",
        "population": -1,
        "latitude": 18.150672,
        "longitude": -77.948473
    },
    {
        "name": "Barking Lodge",
        "country": "Jamaica",
        "province": "St. Thomas",
        "population": -1,
        "latitude": 17.897753,
        "longitude": -76.277966
    },
    {
        "name": "Airy Castle",
        "country": "Jamaica",
        "province": "St. Thomas",
        "population": -1,
        "latitude": 17.920577,
        "longitude": -76.345718
    },
    {
        "name": "Aeolus Valley",
        "country": "Jamaica",
        "province": "St. Thomas",
        "population": -1,
        "latitude": 17.904342,
        "longitude": -76.532293
    },
    {
        "name": "Accompong",
        "country": "Jamaica",
        "province": "St. Elizabeth",
        "population": -1,
        "latitude": 18.226265,
        "longitude": -77.753596
    },
    {
        "name": "Above Rocks",
        "country": "Jamaica",
        "province": "Saint Catherine",
        "population": -1,
        "latitude": 18.106779185167102,
        "longitude": -76.87608003616333
    },
    {
        "name": "Nine Mile",
        "country": "Jamaica",
        "province": "St Ann",
        "population": -1,
        "latitude": 18.354566261201022,
        "longitude": -77.37078666687012
    },
    {
        "name": "Cave Valley",
        "country": "Jamaica",
        "province": "St Ann",
        "population": -1,
        "latitude": 18.20008,
        "longitude": -77.26907
    },
    {
        "name": "New Market",
        "country": "Jamaica",
        "province": "St. Elizabeth",
        "population": -1,
        "latitude": 18.1491,
        "longitude": -77.9034
    },
    {
        "name": "Harmony Vale",
        "country": "Jamaica",
        "province": "St Ann",
        "population": -1,
        "latitude": 18.266968,
        "longitude": -77.204672
    },
    {
        "name": "Wood Hall",
        "country": "Jamaica",
        "province": "Clarendon",
        "population": -1,
        "latitude": 18.057337,
        "longitude": -77.260236
    },
    {
        "name": "White Horses",
        "country": "Jamaica",
        "province": "St. Thomas",
        "population": -1,
        "latitude": 17.873782,
        "longitude": -76.474582
    },
    {
        "name": "Whitehorns Thicket",
        "country": "Jamaica",
        "province": "St Ann",
        "population": -1,
        "latitude": 18.3666667,
        "longitude": -77.1666667
    },
    {
        "name": "Wallingford",
        "country": "Jamaica",
        "province": "St. Mary",
        "population": -1,
        "latitude": 18.272235,
        "longitude": -76.996798
    },
    {
        "name": "Vineyard Town",
        "country": "Jamaica",
        "province": "St. Andrew",
        "population": -1,
        "latitude": 17.983253,
        "longitude": -76.774666
    },
    {
        "name": "Truro Pen",
        "country": "Jamaica",
        "province": "Westmoreland",
        "population": -1,
        "latitude": 18.307614,
        "longitude": -78.150443
    },
    {
        "name": "Trench Town",
        "country": "Jamaica",
        "province": "St. Andrew",
        "population": -1,
        "latitude": 17.98885612496181,
        "longitude": -76.79872512817383
    },
    {
        "name": "The Rock",
        "country": "Jamaica",
        "province": "Trelawny",
        "population": -1,
        "latitude": 18.481882,
        "longitude": -77.632297
    },
    {
        "name": "The Cooperage",
        "country": "Jamaica",
        "province": "St. Andrew",
        "population": -1,
        "latitude": 18.033976,
        "longitude": -76.730309
    },
    {
        "name": "Sydenham",
        "country": "Jamaica",
        "province": "Saint Catherine",
        "population": -1,
        "latitude": 17.986316,
        "longitude": -76.98172
    },
    {
        "name": "Simpsons",
        "country": "Jamaica",
        "province": "Clarendon",
        "population": -1,
        "latitude": 17.75,
        "longitude": -77.2333333
    },
    {
        "name": "Shickles Pen",
        "country": "Jamaica",
        "province": "Clarendon",
        "population": -1,
        "latitude": 17.9666667,
        "longitude": -77.3
    },
    {
        "name": "Sevens",
        "country": "Jamaica",
        "province": "Clarendon",
        "population": -1,
        "latitude": 17.996862,
        "longitude": -77.209095
    },
    {
        "name": "Sadlers Hall",
        "country": "Jamaica",
        "province": "Hanover",
        "population": -1,
        "latitude": 18.349004,
        "longitude": -77.999137
    },
    {
        "name": "Russell Pen",
        "country": "Jamaica",
        "province": "Saint Catherine",
        "population": -1,
        "latitude": 18.163796,
        "longitude": -77.033786
    },
    {
        "name": "Rosewell",
        "country": "Jamaica",
        "province": "Clarendon",
        "population": -1,
        "latitude": 17.959788,
        "longitude": -77.165419
    },
    {
        "name": "Rose Hall",
        "country": "Jamaica",
        "province": "St. Elizabeth",
        "population": -1,
        "latitude": 17.925576,
        "longitude": -77.646953
    },
    {
        "name": "Rollington Town",
        "country": "Jamaica",
        "province": "Kingston",
        "population": -1,
        "latitude": 17.97599814527119,
        "longitude": -76.77052974700928
    },
    {
        "name": "Rhymesbury",
        "country": "Jamaica",
        "province": "Clarendon",
        "population": -1,
        "latitude": 17.9333333,
        "longitude": -77.3166667
    },
    {
        "name": "Rest",
        "country": "Jamaica",
        "province": "Clarendon",
        "population": -1,
        "latitude": 17.885847,
        "longitude": -77.354002
    },
    {
        "name": "Pridees",
        "country": "Jamaica",
        "province": "Clarendon",
        "population": -1,
        "latitude": 17.881563,
        "longitude": -77.335568
    },
    {
        "name": "Portland Cottage",
        "country": "Jamaica",
        "province": "Clarendon",
        "population": -1,
        "latitude": 17.768247,
        "longitude": -77.229157
    },
    {
        "name": "Port Henderson",
        "country": "Jamaica",
        "province": "Saint Catherine",
        "population": -1,
        "latitude": 17.952147,
        "longitude": -76.873855
    },
    {
        "name": "Pilot",
        "country": "Jamaica",
        "province": "St Ann",
        "population": -1,
        "latitude": 18.3811,
        "longitude": -77.243709
    },
    {
        "name": "New Shafton",
        "country": "Jamaica",
        "province": "Westmoreland",
        "population": -1,
        "latitude": 18.1666667,
        "longitude": -78.0333333
    },
    {
        "name": "Newmarket Pen",
        "country": "Jamaica",
        "province": "Saint Catherine",
        "population": -1,
        "latitude": 17.933264,
        "longitude": -77.106417
    },
    {
        "name": "Mendes",
        "country": "Jamaica",
        "province": "Saint Catherine",
        "population": -1,
        "latitude": 17.9166667,
        "longitude": -77.1
    },
    {
        "name": "Douglas Castle",
        "country": "Jamaica",
        "province": "Clarendon",
        "population": -1,
        "latitude": 18.1883,
        "longitude": -77.27328
    },
    {
        "name": "Marlie Mount",
        "country": "Jamaica",
        "province": "Saint Catherine",
        "population": -1,
        "latitude": 17.944529,
        "longitude": -77.102747
    },
    {
        "name": "Marlborough",
        "country": "Jamaica",
        "province": "Manchester",
        "population": -1,
        "latitude": 17.994031,
        "longitude": -77.540712
    },
    {
        "name": "March Pen",
        "country": "Jamaica",
        "province": "Saint Catherine",
        "population": -1,
        "latitude": 17.95,
        "longitude": -76.95
    },
    {
        "name": "Malton",
        "country": "Jamaica",
        "province": "Manchester",
        "population": -1,
        "latitude": 18.193032,
        "longitude": -77.550766
    },
    {
        "name": "Maldon Village",
        "country": "Jamaica",
        "province": "St. James",
        "population": -1,
        "latitude": 18.35,
        "longitude": -77.805216
    },
    {
        "name": "Mahoe Garden",
        "country": "Jamaica",
        "province": "Clarendon",
        "population": -1,
        "latitude": 17.749153,
        "longitude": -77.144864
    },
    {
        "name": "Llanrumney",
        "country": "Jamaica",
        "province": "St. Mary",
        "population": -1,
        "latitude": 18.33495,
        "longitude": -76.890709
    },
    {
        "name": "Llandilo",
        "country": "Jamaica",
        "province": "Westmoreland",
        "population": -1,
        "latitude": 18.230097,
        "longitude": -78.143477
    },
    {
        "name": "Lititz",
        "country": "Jamaica",
        "province": "Manchester",
        "population": -1,
        "latitude": 17.94293,
        "longitude": -77.574296
    },
    {
        "name": "Lindale Pen",
        "country": "Jamaica",
        "province": "St Ann",
        "population": -1,
        "latitude": 18.3833333,
        "longitude": -77.4
    },
    {
        "name": "Liguanea",
        "country": "Jamaica",
        "province": "St. Andrew",
        "population": -1,
        "latitude": 18.017611,
        "longitude": -76.764351
    },
    {
        "name": "Johnson Town",
        "country": "Jamaica",
        "province": "Hanover",
        "population": -1,
        "latitude": 18.43732,
        "longitude": -78.165212
    },
    {
        "name": "Jeffrey Town",
        "country": "Jamaica",
        "province": "St. Mary",
        "population": -1,
        "latitude": 18.2833333,
        "longitude": -77.0166667
    },
    {
        "name": "Jack River",
        "country": "Jamaica",
        "province": "St. Mary",
        "population": -1,
        "latitude": 18.380873,
        "longitude": -76.944084
    },
    {
        "name": "Hope",
        "country": "Jamaica",
        "province": "St. Andrew",
        "population": -1,
        "latitude": 18.01865,
        "longitude": -76.74109
    },
    {
        "name": "Highgate",
        "country": "Jamaica",
        "province": "St. Mary",
        "population": -1,
        "latitude": 18.27239,
        "longitude": -76.89348
    },
    {
        "name": "Hayes",
        "country": "Jamaica",
        "province": "Clarendon",
        "population": 9701,
        "latitude": 17.875688,
        "longitude": -77.237107
    },
    {
        "name": "Hallsfield",
        "country": "Jamaica",
        "province": "St Ann",
        "population": -1,
        "latitude": 18.3666667,
        "longitude": -77.0833333
    },
    {
        "name": "Guilsbro",
        "country": "Jamaica",
        "province": "St. James",
        "population": -1,
        "latitude": 18.427259,
        "longitude": -77.81492
    },
    {
        "name": "Greenwich",
        "country": "Jamaica",
        "province": "Clarendon",
        "population": -1,
        "latitude": 17.8,
        "longitude": -77.2666667
    },
    {
        "name": "Green Rossfield Isle",
        "country": "Jamaica",
        "province": "St. Thomas",
        "population": -1,
        "latitude": 17.9666667,
        "longitude": -76.55
    },
    {
        "name": "Grays Inn",
        "country": "Jamaica",
        "province": "St. Mary",
        "population": -1,
        "latitude": 18.2666667,
        "longitude": -76.7833333
    },
    {
        "name": "Government Pen",
        "country": "Jamaica",
        "province": "Saint Catherine",
        "population": -1,
        "latitude": 17.95,
        "longitude": -76.9333333
    },
    {
        "name": "Goulbournes",
        "country": "Jamaica",
        "province": "Clarendon",
        "population": -1,
        "latitude": 17.95,
        "longitude": -77.35
    },
    {
        "name": "Goshen Pen",
        "country": "Jamaica",
        "province": "Saint Catherine",
        "population": -1,
        "latitude": 17.95,
        "longitude": -76.9166667
    },
    {
        "name": "Gloster",
        "country": "Jamaica",
        "province": "St Ann",
        "population": -1,
        "latitude": 18.25,
        "longitude": -77.05
    },
    {
        "name": "Glen Islay",
        "country": "Jamaica",
        "province": "Westmoreland",
        "population": -1,
        "latitude": 18.320452,
        "longitude": -78.063879
    },
    {
        "name": "Fullerswood Park",
        "country": "Jamaica",
        "province": "St. Elizabeth",
        "population": -1,
        "latitude": 17.9833333,
        "longitude": -77.7833333
    },
    {
        "name": "Friendship",
        "country": "Jamaica",
        "province": "Hanover",
        "population": -1,
        "latitude": 18.439091,
        "longitude": -78.018778
    },
    {
        "name": "Ferris Cross",
        "country": "Jamaica",
        "province": "Westmoreland",
        "population": -1,
        "latitude": 18.227857,
        "longitude": -78.071361
    },
    {
        "name": "Ensom Pen",
        "country": "Jamaica",
        "province": "Saint Catherine",
        "population": -1,
        "latitude": 18.009151,
        "longitude": -76.957778
    },
    {
        "name": "Endeavor",
        "country": "Jamaica",
        "province": "Westmoreland",
        "population": -1,
        "latitude": 18.3,
        "longitude": -78.2666667
    },
    {
        "name": "Eleven Mile",
        "country": "Jamaica",
        "province": "St. Thomas",
        "population": -1,
        "latitude": 17.933468,
        "longitude": -76.64358
    },
    {
        "name": "Dunkleys",
        "country": "Jamaica",
        "province": "Clarendon",
        "population": -1,
        "latitude": 17.9,
        "longitude": -77.2666667
    },
    {
        "name": "Downs",
        "country": "Jamaica",
        "province": "Manchester",
        "population": -1,
        "latitude": 17.945175,
        "longitude": -77.560434
    },
    {
        "name": "Devon",
        "country": "Jamaica",
        "province": "Manchester",
        "population": -1,
        "latitude": 18.167064,
        "longitude": -77.528673
    },
    {
        "name": "Deeside",
        "country": "Jamaica",
        "province": "Trelawny",
        "population": -1,
        "latitude": 18.391564,
        "longitude": -77.744279
    },
    {
        "name": "Dallingtober",
        "country": "Jamaica",
        "province": "St. Elizabeth",
        "population": -1,
        "latitude": 18.05,
        "longitude": -77.9333333
    },
    {
        "name": "Constant Spring",
        "country": "Jamaica",
        "province": "St. Andrew",
        "population": 12830,
        "latitude": 18.050776,
        "longitude": -76.793725
    },
    {
        "name": "Colbeck",
        "country": "Jamaica",
        "province": "Saint Catherine",
        "population": -1,
        "latitude": 17.962397,
        "longitude": -77.134649
    },
    {
        "name": "Cockpit",
        "country": "Jamaica",
        "province": "Clarendon",
        "population": -1,
        "latitude": 17.884073,
        "longitude": -77.148223
    },
    {
        "name": "Clarks Town",
        "country": "Jamaica",
        "province": "St Ann",
        "population": -1,
        "latitude": 18.4,
        "longitude": -77.2166667
    },
    {
        "name": "Claremont Park",
        "country": "Jamaica",
        "province": "St. Elizabeth",
        "population": -1,
        "latitude": 17.917156,
        "longitude": -77.731587
    },
    {
        "name": "Christiana",
        "country": "Jamaica",
        "province": "Manchester",
        "population": -1,
        "latitude": 18.173559,
        "longitude": -77.49116
    },
    {
        "name": "Castle Comfort",
        "country": "Jamaica",
        "province": "Portland",
        "population": -1,
        "latitude": 18.1333333,
        "longitude": -76.35
    },
    {
        "name": "Carey Park",
        "country": "Jamaica",
        "province": "Trelawny",
        "population": -1,
        "latitude": 18.474322,
        "longitude": -77.559319
    },
    {
        "name": "Cardiff Hall",
        "country": "Jamaica",
        "province": "St Ann",
        "population": -1,
        "latitude": 18.449002,
        "longitude": -77.323531
    },
    {
        "name": "Cambelton",
        "country": "Jamaica",
        "province": "Hanover",
        "population": -1,
        "latitude": 18.34996,
        "longitude": -78.28823
    },
    {
        "name": "Bowers Hall",
        "country": "Jamaica",
        "province": "Hanover",
        "population": -1,
        "latitude": 18.404303,
        "longitude": -78.18637
    },
    {
        "name": "Bowden",
        "country": "Jamaica",
        "province": "St. Thomas",
        "population": -1,
        "latitude": 17.887396,
        "longitude": -76.313496
    },
    {
        "name": "Bethezra",
        "country": "Jamaica",
        "province": "St. Thomas",
        "population": -1,
        "latitude": 17.95,
        "longitude": -76.6166667
    },
    {
        "name": "Belle Castle",
        "country": "Jamaica",
        "province": "Portland",
        "population": -1,
        "latitude": 17.999515,
        "longitude": -76.268314
    },
    {
        "name": "Beeston Spring",
        "country": "Jamaica",
        "province": "Westmoreland",
        "population": -1,
        "latitude": 18.145326,
        "longitude": -77.964067
    },
    {
        "name": "Balcarres",
        "country": "Jamaica",
        "province": "Portland",
        "population": -1,
        "latitude": 18.164944,
        "longitude": -76.699823
    },
    {
        "name": "Bachams Cottage",
        "country": "Jamaica",
        "province": "Clarendon",
        "population": -1,
        "latitude": 17.8166667,
        "longitude": -77.3166667
    },
    {
        "name": "Auchindown",
        "country": "Jamaica",
        "province": "Westmoreland",
        "population": -1,
        "latitude": 18.1166667,
        "longitude": -77.9833333
    },
    {
        "name": "Amity Cross",
        "country": "Jamaica",
        "province": "Westmoreland",
        "population": -1,
        "latitude": 18.254042,
        "longitude": -78.101108
    },
    {
        "name": "Agualta Vale",
        "country": "Jamaica",
        "province": "St. Mary",
        "population": -1,
        "latitude": 18.262026,
        "longitude": -76.786599
    },
    {
        "name": "Mona",
        "country": "Jamaica",
        "province": "St. Andrew",
        "population": -1,
        "latitude": 18.012447060067426,
        "longitude": -76.74276351928711
    },
    {
        "name": "Kintyer District",
        "country": "Jamaica",
        "province": "St. Andrew",
        "population": -1,
        "latitude": 18.01632,
        "longitude": -76.73624
    },
    {
        "name": "Denham Town",
        "country": "Jamaica",
        "province": "St. Andrew",
        "population": -1,
        "latitude": 17.983509,
        "longitude": -76.806192
    },
    {
        "name": "Tivoli Gardens",
        "country": "Jamaica",
        "province": "St. Andrew",
        "population": -1,
        "latitude": 17.9742,
        "longitude": -76.8014
    },
    {
        "name": "Orange Park",
        "country": "Jamaica",
        "province": "St Ann",
        "population": -1,
        "latitude": 18.341177,
        "longitude": -77.124207
    },
    {
        "name": "Y.S. Estate",
        "country": "Jamaica",
        "province": "St. Elizabeth",
        "population": -1,
        "latitude": 18.15,
        "longitude": -77.8166667
    },
    {
        "name": "York",
        "country": "Jamaica",
        "province": "Manchester",
        "population": -1,
        "latitude": 17.9333333,
        "longitude": -77.45
    },
    {
        "name": "Worcester",
        "country": "Jamaica",
        "province": "Saint Catherine",
        "population": -1,
        "latitude": 17.9666667,
        "longitude": -77
    },
    {
        "name": "Woolbury",
        "country": "Jamaica",
        "province": "St Ann",
        "population": -1,
        "latitude": 18.2833333,
        "longitude": -77.15
    },
    {
        "name": "Woodlands",
        "country": "Jamaica",
        "province": "Saint Catherine",
        "population": -1,
        "latitude": 17.9666667,
        "longitude": -76.95
    },
    {
        "name": "Windsor Park",
        "country": "Jamaica",
        "province": "Saint Catherine",
        "population": -1,
        "latitude": 17.9666667,
        "longitude": -76.9833333
    },
    {
        "name": "Windsor",
        "country": "Jamaica",
        "province": "Trelawny",
        "population": -1,
        "latitude": 18.3666667,
        "longitude": -77.6166667
    },
    {
        "name": "Winchester",
        "country": "Jamaica",
        "province": "St. Thomas",
        "population": -1,
        "latitude": 17.933035,
        "longitude": -76.291955
    },
    {
        "name": "Wilson",
        "country": "Jamaica",
        "province": "Trelawny",
        "population": -1,
        "latitude": 18.2667,
        "longitude": -77.5667
    },
    {
        "name": "Wilmington",
        "country": "Jamaica",
        "province": "St. Thomas",
        "population": -1,
        "latitude": 17.925673,
        "longitude": -76.397417
    },
    {
        "name": "Williamsons",
        "country": "Jamaica",
        "province": "Saint Catherine",
        "population": -1,
        "latitude": 18.2,
        "longitude": -77.15
    },
    {
        "name": "Whydaw",
        "country": "Jamaica",
        "province": "Portland",
        "population": -1,
        "latitude": 18.1833333,
        "longitude": -76.5166667
    },
    {
        "name": "Whorton",
        "country": "Jamaica",
        "province": "St. Elizabeth",
        "population": -1,
        "latitude": 18.0666667,
        "longitude": -77.7333333
    },
    {
        "name": "Whitney Turn",
        "country": "Jamaica",
        "province": "Clarendon",
        "population": -1,
        "latitude": 18.032037,
        "longitude": -77.393549
    },
    {
        "name": "Whithorn",
        "country": "Jamaica",
        "province": "Westmoreland",
        "population": -1,
        "latitude": 18.26582,
        "longitude": -78.025304
    },
    {
        "name": "Wheelersfield",
        "country": "Jamaica",
        "province": "St. Thomas",
        "population": -1,
        "latitude": 17.955748,
        "longitude": -76.289584
    },
    {
        "name": "Waterhouse Pen",
        "country": "Jamaica",
        "province": "St. Andrew",
        "population": -1,
        "latitude": 18.0166667,
        "longitude": -76.85
    },
    {
        "name": "Walderston",
        "country": "Jamaica",
        "province": "Manchester",
        "population": -1,
        "latitude": 18.130523,
        "longitude": -77.486694
    },
    {
        "name": "Village of Kettering",
        "country": "Jamaica",
        "province": "Trelawny",
        "population": -1,
        "latitude": 18.473998,
        "longitude": -77.536514
    },
    {
        "name": "Unity Pen",
        "country": "Jamaica",
        "province": "St Ann",
        "population": -1,
        "latitude": 18.4666667,
        "longitude": -77.3166667
    },
    {
        "name": "Union Hill",
        "country": "Jamaica",
        "province": "St. Mary",
        "population": -1,
        "latitude": 18.362488,
        "longitude": -76.982175
    },
    {
        "name": "Tumbridge",
        "country": "Jamaica",
        "province": "St. Andrew",
        "population": -1,
        "latitude": 18.05,
        "longitude": -76.8166667
    },
    {
        "name": "Tryall",
        "country": "Jamaica",
        "province": "Hanover",
        "population": -1,
        "latitude": 18.45,
        "longitude": -78.0666667
    },
    {
        "name": "Troy",
        "country": "Jamaica",
        "province": "Trelawny",
        "population": -1,
        "latitude": 18.24553,
        "longitude": -77.61695
    },
    {
        "name": "Treadways",
        "country": "Jamaica",
        "province": "Saint Catherine",
        "population": -1,
        "latitude": 18.189867,
        "longitude": -77.042047
    },
    {
        "name": "Tows Pen",
        "country": "Jamaica",
        "province": "St Ann",
        "population": -1,
        "latitude": 18.3166667,
        "longitude": -77.2
    },
    {
        "name": "Torrington Castle",
        "country": "Jamaica",
        "province": "St. Elizabeth",
        "population": -1,
        "latitude": 17.946203,
        "longitude": -77.698398
    },
    {
        "name": "Top Buxton",
        "country": "Jamaica",
        "province": "St Ann",
        "population": -1,
        "latitude": 18.341402,
        "longitude": -77.327871
    },
    {
        "name": "Toms River",
        "country": "Jamaica",
        "province": "St. Andrew",
        "population": -1,
        "latitude": 18.158914,
        "longitude": -76.829863
    },
    {
        "name": "Tom Spring",
        "country": "Jamaica",
        "province": "Hanover",
        "population": -1,
        "latitude": 18.406711,
        "longitude": -78.141562
    },
    {
        "name": "Lacovia Tombstone",
        "country": "Jamaica",
        "province": "St. Elizabeth",
        "population": -1,
        "latitude": 18.08679,
        "longitude": -77.77235
    },
    {
        "name": "Thomson Hill",
        "country": "Jamaica",
        "province": "Hanover",
        "population": -1,
        "latitude": 18.392731,
        "longitude": -78.045541
    },
    {
        "name": "Thompson Town",
        "country": "Jamaica",
        "province": "Clarendon",
        "population": -1,
        "latitude": 18.0848,
        "longitude": -77.361935
    },
    {
        "name": "The Shambles",
        "country": "Jamaica",
        "province": "Manchester",
        "population": -1,
        "latitude": 17.9666667,
        "longitude": -77.5333333
    },
    {
        "name": "The Rest",
        "country": "Jamaica",
        "province": "Saint Catherine",
        "population": -1,
        "latitude": 18.0166667,
        "longitude": -77.0333333
    },
    {
        "name": "The Alps",
        "country": "Jamaica",
        "province": "Trelawny",
        "population": -1,
        "latitude": 18.3333333,
        "longitude": -77.5166667
    },
    {
        "name": "The Alley",
        "country": "Jamaica",
        "province": "Clarendon",
        "population": -1,
        "latitude": 17.80395,
        "longitude": -77.272085
    },
    {
        "name": "Teak Pen",
        "country": "Jamaica",
        "province": "Clarendon",
        "population": -1,
        "latitude": 18.048369,
        "longitude": -77.263678
    },
    {
        "name": "Tarentum",
        "country": "Jamaica",
        "province": "Saint Catherine",
        "population": -1,
        "latitude": 18.05,
        "longitude": -76.9333333
    },
    {
        "name": "Suttons",
        "country": "Jamaica",
        "province": "Clarendon",
        "population": -1,
        "latitude": 18.073963,
        "longitude": -77.23764
    },
    {
        "name": "Suttons",
        "country": "Jamaica",
        "province": "Clarendon",
        "population": -1,
        "latitude": 17.8,
        "longitude": -77.25
    },
    {
        "name": "Sunning Hill",
        "country": "Jamaica",
        "province": "St. Thomas",
        "population": -1,
        "latitude": 17.950072,
        "longitude": -76.387716
    },
    {
        "name": "Success",
        "country": "Jamaica",
        "province": "St. Elizabeth",
        "population": -1,
        "latitude": 17.9333333,
        "longitude": -77.75
    },
    {
        "name": "Struie",
        "country": "Jamaica",
        "province": "Westmoreland",
        "population": -1,
        "latitude": 18.265065,
        "longitude": -77.957446
    },
    {
        "name": "Stirling Castle",
        "country": "Jamaica",
        "province": "St. Andrew",
        "population": -1,
        "latitude": 18.05,
        "longitude": -76.8333333
    },
    {
        "name": "Stewarton",
        "country": "Jamaica",
        "province": "Clarendon",
        "population": -1,
        "latitude": 17.992382,
        "longitude": -77.242659
    },
    {
        "name": "Starapple Grove",
        "country": "Jamaica",
        "province": "Portland",
        "population": -1,
        "latitude": 18.2,
        "longitude": -76.6666667
    },
    {
        "name": "Stanberry Grove",
        "country": "Jamaica",
        "province": "Saint Catherine",
        "population": -1,
        "latitude": 18.076512,
        "longitude": -76.940155
    },
    {
        "name": "Spur Tree",
        "country": "Jamaica",
        "province": "Manchester",
        "population": -1,
        "latitude": 18.01068,
        "longitude": -77.554435
    },
    {
        "name": "Spring Village",
        "country": "Jamaica",
        "province": "Saint Catherine",
        "population": -1,
        "latitude": 17.959733,
        "longitude": -77.073037
    },
    {
        "name": "Spring Vale",
        "country": "Jamaica",
        "province": "Trelawny",
        "population": -1,
        "latitude": 18.3833333,
        "longitude": -77.7666667
    },
    {
        "name": "Springvale",
        "country": "Jamaica",
        "province": "St. Elizabeth",
        "population": -1,
        "latitude": 18.136544,
        "longitude": -77.84451
    },
    {
        "name": "Spring Rises",
        "country": "Jamaica",
        "province": "Trelawny",
        "population": -1,
        "latitude": 18.475403,
        "longitude": -77.585163
    },
    {
        "name": "Spring Mount",
        "country": "Jamaica",
        "province": "St. James",
        "population": -1,
        "latitude": 18.3833333,
        "longitude": -77.85
    },
    {
        "name": "Spring Garden",
        "country": "Jamaica",
        "province": "Saint Catherine",
        "population": -1,
        "latitude": 17.985348,
        "longitude": -77.069409
    },
    {
        "name": "Spotfield",
        "country": "Jamaica",
        "province": "Trelawny",
        "population": -1,
        "latitude": 18.402561,
        "longitude": -77.558721
    },
    {
        "name": "Spitzbergen",
        "country": "Jamaica",
        "province": "Manchester",
        "population": -1,
        "latitude": 18.1166667,
        "longitude": -77.4833333
    },
    {
        "name": "Spaldings",
        "country": "Jamaica",
        "province": "Clarendon",
        "population": -1,
        "latitude": 18.155488,
        "longitude": -77.457751
    },
    {
        "name": "Sommerset",
        "country": "Jamaica",
        "province": "St Ann",
        "population": -1,
        "latitude": 18.3666667,
        "longitude": -77.3166667
    },
    {
        "name": "Somerset",
        "country": "Jamaica",
        "province": "Manchester",
        "population": -1,
        "latitude": 18.0666667,
        "longitude": -77.55
    },
    {
        "name": "Snowdon",
        "country": "Jamaica",
        "province": "Manchester",
        "population": -1,
        "latitude": 17.95,
        "longitude": -77.4833333
    },
    {
        "name": "Slanmore",
        "country": "Jamaica",
        "province": "St. Andrew",
        "population": -1,
        "latitude": 18.05,
        "longitude": -76.85
    },
    {
        "name": "Showfield",
        "country": "Jamaica",
        "province": "Trelawny",
        "population": -1,
        "latitude": 18.45,
        "longitude": -77.6833333
    },
    {
        "name": "Shaws",
        "country": "Jamaica",
        "province": "St. Elizabeth",
        "population": -1,
        "latitude": 18.113654,
        "longitude": -77.813409
    },
    {
        "name": "Serge Island",
        "country": "Jamaica",
        "province": "St. Thomas",
        "population": -1,
        "latitude": 17.95,
        "longitude": -76.4833333
    },
    {
        "name": "Saxony Pen",
        "country": "Jamaica",
        "province": "Clarendon",
        "population": -1,
        "latitude": 17.95,
        "longitude": -77.35
    },
    {
        "name": "Sawyers",
        "country": "Jamaica",
        "province": "Trelawny",
        "population": -1,
        "latitude": 18.377157,
        "longitude": -77.487657
    },
    {
        "name": "Sandy Gully",
        "country": "Jamaica",
        "province": "Clarendon",
        "population": -1,
        "latitude": 17.9,
        "longitude": -77.2833333
    },
    {
        "name": "Salt River",
        "country": "Jamaica",
        "province": "Clarendon",
        "population": -1,
        "latitude": 17.837291,
        "longitude": -77.168692
    },
    {
        "name": "Salt Pond Pen",
        "country": "Jamaica",
        "province": "Saint Catherine",
        "population": -1,
        "latitude": 17.95,
        "longitude": -76.9333333
    },
    {
        "name": "Salt Gut",
        "country": "Jamaica",
        "province": "St. Mary",
        "population": -1,
        "latitude": 18.40148,
        "longitude": -76.96944
    },
    {
        "name": "Salters Hill",
        "country": "Jamaica",
        "province": "St. James",
        "population": -1,
        "latitude": 18.428704,
        "longitude": -77.835522
    },
    {
        "name": "Sallys Hall",
        "country": "Jamaica",
        "province": "St. Elizabeth",
        "population": -1,
        "latitude": 18.1,
        "longitude": -77.7333333
    },
    {
        "name": "Salisbury",
        "country": "Jamaica",
        "province": "St. Andrew",
        "population": -1,
        "latitude": 18.10115005654208,
        "longitude": -76.85717582702637
    },
    {
        "name": "Saint Toolies",
        "country": "Jamaica",
        "province": "Manchester",
        "population": -1,
        "latitude": 17.988552,
        "longitude": -77.409234
    },
    {
        "name": "Saint Jago",
        "country": "Jamaica",
        "province": "Clarendon",
        "population": -1,
        "latitude": 17.951573,
        "longitude": -77.379043
    },
    {
        "name": "Saint Helens",
        "country": "Jamaica",
        "province": "Saint Catherine",
        "population": -1,
        "latitude": 17.95,
        "longitude": -77.05
    },
    {
        "name": "Saint DAcre",
        "country": "Jamaica",
        "province": "St Ann",
        "population": -1,
        "latitude": 18.31946,
        "longitude": -77.363663
    },
    {
        "name": "Saint Christopher",
        "country": "Jamaica",
        "province": "St. Andrew",
        "population": -1,
        "latitude": 18.094496,
        "longitude": -76.835091
    },
    {
        "name": "Russells",
        "country": "Jamaica",
        "province": "St. Elizabeth",
        "population": -1,
        "latitude": 17.985413,
        "longitude": -77.661512
    },
    {
        "name": "Rozelle",
        "country": "Jamaica",
        "province": "St. Thomas",
        "population": -1,
        "latitude": 17.8666667,
        "longitude": -76.45
    },
    {
        "name": "Rowington Park",
        "country": "Jamaica",
        "province": "Clarendon",
        "population": -1,
        "latitude": 17.9,
        "longitude": -77.3166667
    },
    {
        "name": "Roslin Castle",
        "country": "Jamaica",
        "province": "Trelawny",
        "population": -1,
        "latitude": 18.45,
        "longitude": -77.6166667
    },
    {
        "name": "Rosemount",
        "country": "Jamaica",
        "province": "St. James",
        "population": -1,
        "latitude": 18.476818,
        "longitude": -77.896895
    },
    {
        "name": "Roscommon",
        "country": "Jamaica",
        "province": "St. Mary",
        "population": -1,
        "latitude": 18.4,
        "longitude": -77.05
    },
    {
        "name": "Riverhead",
        "country": "Jamaica",
        "province": "St Ann",
        "population": -1,
        "latitude": 18.27107,
        "longitude": -77.08923
    },
    {
        "name": "Riswich",
        "country": "Jamaica",
        "province": "St Ann",
        "population": -1,
        "latitude": 18.2833333,
        "longitude": -77.05
    },
    {
        "name": "Rio Magno",
        "country": "Jamaica",
        "province": "Saint Catherine",
        "population": -1,
        "latitude": 18.208775,
        "longitude": -76.967717
    },
    {
        "name": "Ridgeland",
        "country": "Jamaica",
        "province": "Westmoreland",
        "population": -1,
        "latitude": 18.295816,
        "longitude": -78.218084
    },
    {
        "name": "Richmond Park",
        "country": "Jamaica",
        "province": "Clarendon",
        "population": -1,
        "latitude": 18.048609,
        "longitude": -77.368336
    },
    {
        "name": "Richards Pen",
        "country": "Jamaica",
        "province": "St. Mary",
        "population": -1,
        "latitude": 18.3666667,
        "longitude": -77.0166667
    },
    {
        "name": "Retreat",
        "country": "Jamaica",
        "province": "St Ann",
        "population": -1,
        "latitude": 18.38257,
        "longitude": -77.414378
    },
    {
        "name": "Retreat",
        "country": "Jamaica",
        "province": "Saint Catherine",
        "population": -1,
        "latitude": 18.069952,
        "longitude": -77.066839
    },
    {
        "name": "Rest Store",
        "country": "Jamaica",
        "province": "Manchester",
        "population": -1,
        "latitude": 17.8833333,
        "longitude": -77.5666667
    },
    {
        "name": "Relief",
        "country": "Jamaica",
        "province": "St Ann",
        "population": -1,
        "latitude": 18.3666667,
        "longitude": -77.1166667
    },
    {
        "name": "Relford",
        "country": "Jamaica",
        "province": "Manchester",
        "population": -1,
        "latitude": 18.05,
        "longitude": -77.55
    },
    {
        "name": "Red Ground",
        "country": "Jamaica",
        "province": "Saint Catherine",
        "population": -1,
        "latitude": 18.000785,
        "longitude": -77.122623
    },
    {
        "name": "Redbury",
        "country": "Jamaica",
        "province": "Manchester",
        "population": -1,
        "latitude": 18.019425,
        "longitude": -77.422554
    },
    {
        "name": "Rectory",
        "country": "Jamaica",
        "province": "Portland",
        "population": -1,
        "latitude": 18.180265,
        "longitude": -76.667155
    },
    {
        "name": "Rectory",
        "country": "Jamaica",
        "province": "St. Elizabeth",
        "population": -1,
        "latitude": 18.0666667,
        "longitude": -77.8833333
    },
    {
        "name": "Rectory",
        "country": "Jamaica",
        "province": "Clarendon",
        "population": -1,
        "latitude": 18.0666667,
        "longitude": -77.2666667
    },
    {
        "name": "Ramble Pen",
        "country": "Jamaica",
        "province": "Hanover",
        "population": -1,
        "latitude": 18.3333,
        "longitude": -78.01682
    },
    {
        "name": "Rabys Corner",
        "country": "Jamaica",
        "province": "Saint Catherine",
        "population": -1,
        "latitude": 18.064997,
        "longitude": -76.984651
    },
    {
        "name": "Quick Step",
        "country": "Jamaica",
        "province": "Trelawny",
        "population": -1,
        "latitude": 18.247855,
        "longitude": -77.703379
    },
    {
        "name": "Queenhythe",
        "country": "Jamaica",
        "province": "St Ann",
        "population": -1,
        "latitude": 18.43221,
        "longitude": -77.410926
    },
    {
        "name": "Pullet Hall",
        "country": "Jamaica",
        "province": "St. Elizabeth",
        "population": -1,
        "latitude": 18.214473,
        "longitude": -77.692228
    },
    {
        "name": "Prospect",
        "country": "Jamaica",
        "province": "St. James",
        "population": -1,
        "latitude": 18.35,
        "longitude": -77.8166667
    },
    {
        "name": "Prospect",
        "country": "Jamaica",
        "province": "Westmoreland",
        "population": -1,
        "latitude": 18.3166667,
        "longitude": -78.1
    },
    {
        "name": "Prospect",
        "country": "Jamaica",
        "province": "St. Thomas",
        "population": -1,
        "latitude": 17.869513,
        "longitude": -76.344522
    },
    {
        "name": "Priory",
        "country": "Jamaica",
        "province": "St Ann",
        "population": -1,
        "latitude": 18.442761,
        "longitude": -77.225216
    },
    {
        "name": "Priestmans River",
        "country": "Jamaica",
        "province": "Portland",
        "population": -1,
        "latitude": 18.134774,
        "longitude": -76.340271
    },
    {
        "name": "Port Kaiser",
        "country": "Jamaica",
        "province": "St. Elizabeth",
        "population": -1,
        "latitude": 17.863408,
        "longitude": -77.604191
    },
    {
        "name": "Poor Mans Corner",
        "country": "Jamaica",
        "province": "St. Thomas",
        "population": -1,
        "latitude": 17.881987,
        "longitude": -76.591745
    },
    {
        "name": "Pondside",
        "country": "Jamaica",
        "province": "Hanover",
        "population": -1,
        "latitude": 18.395106,
        "longitude": -78.079536
    },
    {
        "name": "Plowden Hill",
        "country": "Jamaica",
        "province": "Manchester",
        "population": -1,
        "latitude": 17.882571,
        "longitude": -77.544466
    },
    {
        "name": "Pleasant Hill",
        "country": "Jamaica",
        "province": "St. Andrew",
        "population": -1,
        "latitude": 18.070981,
        "longitude": -76.672243
    },
    {
        "name": "Phoenix",
        "country": "Jamaica",
        "province": "Trelawny",
        "population": -1,
        "latitude": 18.425161,
        "longitude": -77.723876
    },
    {
        "name": "Perrins",
        "country": "Jamaica",
        "province": "Clarendon",
        "population": -1,
        "latitude": 17.820291,
        "longitude": -77.244624
    },
    {
        "name": "Pepper",
        "country": "Jamaica",
        "province": "St. Elizabeth",
        "population": -1,
        "latitude": 18.021511,
        "longitude": -77.598992
    },
    {
        "name": "Pennycooke",
        "country": "Jamaica",
        "province": "Hanover",
        "population": -1,
        "latitude": 18.356533,
        "longitude": -78.095241
    },
    {
        "name": "Pedro Pen",
        "country": "Jamaica",
        "province": "St. Elizabeth",
        "population": -1,
        "latitude": 17.877703,
        "longitude": -77.741854
    },
    {
        "name": "Pedro",
        "country": "Jamaica",
        "province": "Hanover",
        "population": -1,
        "latitude": 18.453424,
        "longitude": -78.212955
    },
    {
        "name": "Pedro",
        "country": "Jamaica",
        "province": "St Ann",
        "population": -1,
        "latitude": 18.281008,
        "longitude": -77.199709
    },
    {
        "name": "Paradise",
        "country": "Jamaica",
        "province": "Hanover",
        "population": -1,
        "latitude": 18.387805,
        "longitude": -78.217555
    },
    {
        "name": "Palmyra",
        "country": "Jamaica",
        "province": "St. James",
        "population": -1,
        "latitude": 18.4833333,
        "longitude": -77.8
    },
    {
        "name": "Osbornes",
        "country": "Jamaica",
        "province": "St. Mary",
        "population": -1,
        "latitude": 18.2333333,
        "longitude": -76.7666667
    },
    {
        "name": "Orange Hall",
        "country": "Jamaica",
        "province": "St Ann",
        "population": -1,
        "latitude": 18.344775,
        "longitude": -77.058867
    },
    {
        "name": "Onslows",
        "country": "Jamaica",
        "province": "St. Thomas",
        "population": -1,
        "latitude": 17.9333333,
        "longitude": -76.45
    },
    {
        "name": "Old Yarmouth",
        "country": "Jamaica",
        "province": "Clarendon",
        "population": -1,
        "latitude": 17.8833333,
        "longitude": -77.2833333
    },
    {
        "name": "Old Rotherwood",
        "country": "Jamaica",
        "province": "Westmoreland",
        "population": -1,
        "latitude": 18.1833333,
        "longitude": -77.9833333
    },
    {
        "name": "Old England",
        "country": "Jamaica",
        "province": "Manchester",
        "population": -1,
        "latitude": 17.993582,
        "longitude": -77.466064
    },
    {
        "name": "Oakes",
        "country": "Jamaica",
        "province": "Clarendon",
        "population": -1,
        "latitude": 18.084453,
        "longitude": -77.223881
    },
    {
        "name": "Norwich",
        "country": "Jamaica",
        "province": "Portland",
        "population": -1,
        "latitude": 18.195007,
        "longitude": -76.471099
    },
    {
        "name": "Northampton",
        "country": "Jamaica",
        "province": "St. Elizabeth",
        "population": -1,
        "latitude": 18.02643,
        "longitude": -77.676861
    },
    {
        "name": "Nonpareil",
        "country": "Jamaica",
        "province": "Westmoreland",
        "population": -1,
        "latitude": 18.25,
        "longitude": -78.3166667
    },
    {
        "name": "Nightengale Grove",
        "country": "Jamaica",
        "province": "Trelawny",
        "population": -1,
        "latitude": 18.4333333,
        "longitude": -77.4833333
    },
    {
        "name": "Niger Corner",
        "country": "Jamaica",
        "province": "St. Andrew",
        "population": -1,
        "latitude": 18,
        "longitude": -76.7666667
    },
    {
        "name": "New Yarmouth",
        "country": "Jamaica",
        "province": "Clarendon",
        "population": -1,
        "latitude": 17.880387,
        "longitude": -77.275228
    },
    {
        "name": "New Ramble",
        "country": "Jamaica",
        "province": "St. Mary",
        "population": -1,
        "latitude": 18.3666667,
        "longitude": -76.9833333
    },
    {
        "name": "New Pera",
        "country": "Jamaica",
        "province": "St. Thomas",
        "population": -1,
        "latitude": 17.888016,
        "longitude": -76.285637
    },
    {
        "name": "New Monklands",
        "country": "Jamaica",
        "province": "St. Thomas",
        "population": -1,
        "latitude": 17.973959,
        "longitude": -76.554187
    },
    {
        "name": "Newell",
        "country": "Jamaica",
        "province": "St. Elizabeth",
        "population": -1,
        "latitude": 17.921216,
        "longitude": -77.738384
    },
    {
        "name": "Newcombe Valley",
        "country": "Jamaica",
        "province": "St. Elizabeth",
        "population": -1,
        "latitude": 17.92301,
        "longitude": -77.76089
    },
    {
        "name": "Naggo Head",
        "country": "Jamaica",
        "province": "Saint Catherine",
        "population": -1,
        "latitude": 17.962069,
        "longitude": -76.890448
    },
    {
        "name": "Myersville",
        "country": "Jamaica",
        "province": "St. Elizabeth",
        "population": -1,
        "latitude": 17.97284,
        "longitude": -77.62906
    },
    {
        "name": "Murray Mountain",
        "country": "Jamaica",
        "province": "St Ann",
        "population": -1,
        "latitude": 18.2666667,
        "longitude": -77.3
    },
    {
        "name": "Mulleth Hall",
        "country": "Jamaica",
        "province": "Portland",
        "population": -1,
        "latitude": 18.154547,
        "longitude": -76.711725
    },
    {
        "name": "Mount Pelier",
        "country": "Jamaica",
        "province": "St. Andrew",
        "population": -1,
        "latitude": 18.15,
        "longitude": -76.8166667
    },
    {
        "name": "Mount Olive",
        "country": "Jamaica",
        "province": "St Ann",
        "population": -1,
        "latitude": 18.427192,
        "longitude": -77.355329
    },
    {
        "name": "Mount Augusta",
        "country": "Jamaica",
        "province": "Saint Catherine",
        "population": -1,
        "latitude": 18.2166667,
        "longitude": -76.95
    },
    {
        "name": "Montmorency",
        "country": "Jamaica",
        "province": "St. Mary",
        "population": -1,
        "latitude": 18.334383,
        "longitude": -76.85918
    },
    {
        "name": "Mocho House",
        "country": "Jamaica",
        "province": "St. Andrew",
        "population": -1,
        "latitude": 18.0166667,
        "longitude": -76.65
    },
    {
        "name": "Milltown",
        "country": "Jamaica",
        "province": "St Ann",
        "population": -1,
        "latitude": 18.3666667,
        "longitude": -77.2833333
    },
    {
        "name": "Millbank",
        "country": "Jamaica",
        "province": "Portland",
        "population": -1,
        "latitude": 18.040118,
        "longitude": -76.398278
    },
    {
        "name": "Midgeham",
        "country": "Jamaica",
        "province": "Westmoreland",
        "population": -1,
        "latitude": 18.2833333,
        "longitude": -78.2166667
    },
    {
        "name": "Mickleton",
        "country": "Jamaica",
        "province": "Saint Catherine",
        "population": -1,
        "latitude": 18.123437,
        "longitude": -77.019048
    },
    {
        "name": "Mears",
        "country": "Jamaica",
        "province": "Clarendon",
        "population": -1,
        "latitude": 18.05,
        "longitude": -77.2333333
    },
    {
        "name": "Maxfield",
        "country": "Jamaica",
        "province": "Trelawny",
        "population": -1,
        "latitude": 18.46467,
        "longitude": -77.675345
    },
    {
        "name": "Maverty",
        "country": "Jamaica",
        "province": "St. Andrew",
        "population": -1,
        "latitude": 18.05,
        "longitude": -76.8166667
    },
    {
        "name": "Mason",
        "country": "Jamaica",
        "province": "Manchester",
        "population": -1,
        "latitude": 18.2166667,
        "longitude": -77.5333333
    },
    {
        "name": "Martin Village",
        "country": "Jamaica",
        "province": "St. Mary",
        "population": -1,
        "latitude": 18.290563,
        "longitude": -76.86616
    },
    {
        "name": "Marley Hill",
        "country": "Jamaica",
        "province": "Manchester",
        "population": -1,
        "latitude": 17.8666667,
        "longitude": -77.5
    },
    {
        "name": "Marley",
        "country": "Jamaica",
        "province": "St. Mary",
        "population": -1,
        "latitude": 18.328857,
        "longitude": -76.979774
    },
    {
        "name": "Manningfield Pen",
        "country": "Jamaica",
        "province": "Clarendon",
        "population": -1,
        "latitude": 17.8833333,
        "longitude": -77.3
    },
    {
        "name": "Malvern Well",
        "country": "Jamaica",
        "province": "St. Elizabeth",
        "population": -1,
        "latitude": 17.963688,
        "longitude": -77.741823
    },
    {
        "name": "Maimsey Valley",
        "country": "Jamaica",
        "province": "Clarendon",
        "population": -1,
        "latitude": 18.05,
        "longitude": -77.2166667
    },
    {
        "name": "Mahogany Hall",
        "country": "Jamaica",
        "province": "Trelawny",
        "population": -1,
        "latitude": 18.3833333,
        "longitude": -77.4666667
    },
    {
        "name": "Maggotty",
        "country": "Jamaica",
        "province": "Hanover",
        "population": -1,
        "latitude": 18.4166667,
        "longitude": -78.1166667
    },
    {
        "name": "Mackfield",
        "country": "Jamaica",
        "province": "Westmoreland",
        "population": -1,
        "latitude": 18.32695,
        "longitude": -78.01027
    },
    {
        "name": "Lumsdale",
        "country": "Jamaica",
        "province": "St Ann",
        "population": -1,
        "latitude": 18.37184,
        "longitude": -77.230789
    },
    {
        "name": "Long Pond",
        "country": "Jamaica",
        "province": "Trelawny",
        "population": -1,
        "latitude": 18.423349,
        "longitude": -77.541597
    },
    {
        "name": "Long Bay",
        "country": "Jamaica",
        "province": "Portland",
        "population": -1,
        "latitude": 18.09732,
        "longitude": -76.31511
    },
    {
        "name": "Llandewey",
        "country": "Jamaica",
        "province": "St. Thomas",
        "population": -1,
        "latitude": 17.96228,
        "longitude": -76.61114
    },
    {
        "name": "Little Broughton",
        "country": "Jamaica",
        "province": "Westmoreland",
        "population": -1,
        "latitude": 18.226818,
        "longitude": -78.225033
    },
    {
        "name": "Little Bay",
        "country": "Jamaica",
        "province": "Westmoreland",
        "population": -1,
        "latitude": 18.220904,
        "longitude": -78.265885
    },
    {
        "name": "Little Angels",
        "country": "Jamaica",
        "province": "Saint Catherine",
        "population": -1,
        "latitude": 18.0666667,
        "longitude": -76.9666667
    },
    {
        "name": "Litchfield",
        "country": "Jamaica",
        "province": "Trelawny",
        "population": -1,
        "latitude": 18.25,
        "longitude": -77.5
    },
    {
        "name": "Leogan",
        "country": "Jamaica",
        "province": "St. James",
        "population": -1,
        "latitude": 18.4666667,
        "longitude": -77.8333333
    },
    {
        "name": "Lenox",
        "country": "Jamaica",
        "province": "Westmoreland",
        "population": -1,
        "latitude": 18.182952,
        "longitude": -77.944567
    },
    {
        "name": "Lennox",
        "country": "Jamaica",
        "province": "Portland",
        "population": -1,
        "latitude": 18.2166667,
        "longitude": -76.6
    },
    {
        "name": "Leicesterfields",
        "country": "Jamaica",
        "province": "Clarendon",
        "population": -1,
        "latitude": 18.1333333,
        "longitude": -77.3833333
    },
    {
        "name": "Laughlands",
        "country": "Jamaica",
        "province": "St Ann",
        "population": -1,
        "latitude": 18.455965,
        "longitude": -77.256312
    },
    {
        "name": "Lances Bay",
        "country": "Jamaica",
        "province": "Hanover",
        "population": -1,
        "latitude": 18.442698,
        "longitude": -78.217237
    },
    {
        "name": "Knollis",
        "country": "Jamaica",
        "province": "Saint Catherine",
        "population": -1,
        "latitude": 18.115849,
        "longitude": -76.994268
    },
    {
        "name": "Knockpatrick",
        "country": "Jamaica",
        "province": "Manchester",
        "population": -1,
        "latitude": 17.992584,
        "longitude": -77.505634
    },
    {
        "name": "Kinloss",
        "country": "Jamaica",
        "province": "Trelawny",
        "population": -1,
        "latitude": 18.4,
        "longitude": -77.566667
    },
    {
        "name": "Kingswood",
        "country": "Jamaica",
        "province": "Westmoreland",
        "population": -1,
        "latitude": 18.2333333,
        "longitude": -78.1333333
    },
    {
        "name": "Kings Pen",
        "country": "Jamaica",
        "province": "Westmoreland",
        "population": -1,
        "latitude": 18.0833333,
        "longitude": -77.9666667
    },
    {
        "name": "Kent Village",
        "country": "Jamaica",
        "province": "Saint Catherine",
        "population": -1,
        "latitude": 18.08764,
        "longitude": -76.992651
    },
    {
        "name": "Kensington",
        "country": "Jamaica",
        "province": "St Ann",
        "population": -1,
        "latitude": 18.3333333,
        "longitude": -77.3333333
    },
    {
        "name": "Kensington",
        "country": "Jamaica",
        "province": "Portland",
        "population": -1,
        "latitude": 18.1833333,
        "longitude": -76.5833333
    },
    {
        "name": "Kensington",
        "country": "Jamaica",
        "province": "St. Elizabeth",
        "population": -1,
        "latitude": 17.9,
        "longitude": -77.65
    },
    {
        "name": "Jane Marks",
        "country": "Jamaica",
        "province": "Westmoreland",
        "population": -1,
        "latitude": 18.2666667,
        "longitude": -78.1333333
    },
    {
        "name": "Iver Cottage",
        "country": "Jamaica",
        "province": "St. Elizabeth",
        "population": -1,
        "latitude": 17.95756,
        "longitude": -77.713302
    },
    {
        "name": "Iter Boreale",
        "country": "Jamaica",
        "province": "St. Mary",
        "population": -1,
        "latitude": 18.270282,
        "longitude": -76.748393
    },
    {
        "name": "Isle",
        "country": "Jamaica",
        "province": "Manchester",
        "population": -1,
        "latitude": 17.95,
        "longitude": -77.5333333
    },
    {
        "name": "Hyde and Gibraltar",
        "country": "Jamaica",
        "province": "Trelawny",
        "population": -1,
        "latitude": 18.405524,
        "longitude": -77.535319
    },
    {
        "name": "Hutchensons Hale",
        "country": "Jamaica",
        "province": "St Ann",
        "population": -1,
        "latitude": 18.25,
        "longitude": -77.2166667
    },
    {
        "name": "Huntley",
        "country": "Jamaica",
        "province": "St Ann",
        "population": -1,
        "latitude": 18.40456,
        "longitude": -77.351731
    },
    {
        "name": "Huntley",
        "country": "Jamaica",
        "province": "Manchester",
        "population": -1,
        "latitude": 18.0666667,
        "longitude": -77.5833333
    },
    {
        "name": "Hordley",
        "country": "Jamaica",
        "province": "St. Thomas",
        "population": -1,
        "latitude": 17.95,
        "longitude": -76.2666667
    },
    {
        "name": "Hopeton",
        "country": "Jamaica",
        "province": "Westmoreland",
        "population": -1,
        "latitude": 18.167838,
        "longitude": -77.946905
    },
    {
        "name": "Hope",
        "country": "Jamaica",
        "province": "Saint Catherine",
        "population": -1,
        "latitude": 18.0333333,
        "longitude": -77.0166667
    },
    {
        "name": "Holland Park",
        "country": "Jamaica",
        "province": "St. Thomas",
        "population": -1,
        "latitude": 17.9666667,
        "longitude": -76.2666667
    },
    {
        "name": "Highgate",
        "country": "Jamaica",
        "province": "Saint Catherine",
        "population": -1,
        "latitude": 18.08693,
        "longitude": -76.950204
    },
    {
        "name": "Higgin Town",
        "country": "Jamaica",
        "province": "St Ann",
        "population": -1,
        "latitude": 18.381491,
        "longitude": -77.206399
    },
    {
        "name": "Hermitage",
        "country": "Jamaica",
        "province": "St. Elizabeth",
        "population": -1,
        "latitude": 17.941098,
        "longitude": -77.696885
    },
    {
        "name": "Heavitree",
        "country": "Jamaica",
        "province": "Manchester",
        "population": -1,
        "latitude": 18.190735,
        "longitude": -77.575729
    },
    {
        "name": "Heathfield",
        "country": "Jamaica",
        "province": "Saint Catherine",
        "population": -1,
        "latitude": 18.133408,
        "longitude": -77.031897
    },
    {
        "name": "Heathfield",
        "country": "Jamaica",
        "province": "Clarendon",
        "population": -1,
        "latitude": 17.8166667,
        "longitude": -77.2833333
    },
    {
        "name": "Heartherfield",
        "country": "Jamaica",
        "province": "Clarendon",
        "population": -1,
        "latitude": 17.82,
        "longitude": -77.28
    },
    {
        "name": "Heart Ease",
        "country": "Jamaica",
        "province": "St. Thomas",
        "population": -1,
        "latitude": 17.901555,
        "longitude": -76.581621
    },
    {
        "name": "Haughton",
        "country": "Jamaica",
        "province": "St. Elizabeth",
        "population": -1,
        "latitude": 18.1,
        "longitude": -77.75
    },
    {
        "name": "Hartford",
        "country": "Jamaica",
        "province": "Westmoreland",
        "population": -1,
        "latitude": 18.258344,
        "longitude": -78.090894
    },
    {
        "name": "Harmony Hall",
        "country": "Jamaica",
        "province": "Clarendon",
        "population": -1,
        "latitude": 17.7833333,
        "longitude": -77.2666667
    },
    {
        "name": "Harmony Hall",
        "country": "Jamaica",
        "province": "Clarendon",
        "population": -1,
        "latitude": 17.7666667,
        "longitude": -77.2166667
    },
    {
        "name": "Harewood",
        "country": "Jamaica",
        "province": "Saint Catherine",
        "population": -1,
        "latitude": 18.184544,
        "longitude": -76.94238
    },
    {
        "name": "Harbour Head",
        "country": "Jamaica",
        "province": "St. Thomas",
        "population": -1,
        "latitude": 17.896655,
        "longitude": -76.325308
    },
    {
        "name": "Happy Grove",
        "country": "Jamaica",
        "province": "St. Elizabeth",
        "population": -1,
        "latitude": 18.141641,
        "longitude": -77.88431
    },
    {
        "name": "Hampstead",
        "country": "Jamaica",
        "province": "Trelawny",
        "population": -1,
        "latitude": 18.4166667,
        "longitude": -77.6333333
    },
    {
        "name": "Hampstead",
        "country": "Jamaica",
        "province": "St. Mary",
        "population": -1,
        "latitude": 18.310475,
        "longitude": -76.916911
    },
    {
        "name": "Hampden",
        "country": "Jamaica",
        "province": "St. James",
        "population": -1,
        "latitude": 18.441167,
        "longitude": -77.747389
    },
    {
        "name": "Halberstadt",
        "country": "Jamaica",
        "province": "St. Andrew",
        "population": -1,
        "latitude": 17.9666667,
        "longitude": -76.6666667
    },
    {
        "name": "Guanaboa Vale",
        "country": "Jamaica",
        "province": "Saint Catherine",
        "population": -1,
        "latitude": 18.038101,
        "longitude": -77.068948
    },
    {
        "name": "Grossett Village",
        "country": "Jamaica",
        "province": "St. Thomas",
        "population": -1,
        "latitude": 17.9333333,
        "longitude": -76.35
    },
    {
        "name": "Grimett",
        "country": "Jamaica",
        "province": "Clarendon",
        "population": -1,
        "latitude": 17.85,
        "longitude": -77.3166667
    },
    {
        "name": "Gregory Park",
        "country": "Jamaica",
        "province": "Saint Catherine",
        "population": -1,
        "latitude": 17.995578,
        "longitude": -76.881345
    },
    {
        "name": "Greenwich",
        "country": "Jamaica",
        "province": "Westmoreland",
        "population": -1,
        "latitude": 18.29793,
        "longitude": -77.933513
    },
    {
        "name": "Greenwich",
        "country": "Jamaica",
        "province": "St. Andrew",
        "population": -1,
        "latitude": 18.0666667,
        "longitude": -76.7333333
    },
    {
        "name": "Green Hills",
        "country": "Jamaica",
        "province": "Portland",
        "population": -1,
        "latitude": 18.09898,
        "longitude": -76.717434
    },
    {
        "name": "Grantham",
        "country": "Jamaica",
        "province": "Saint Catherine",
        "population": -1,
        "latitude": 18.1166667,
        "longitude": -76.8833333
    },
    {
        "name": "Grand Cairo",
        "country": "Jamaica",
        "province": "St Ann",
        "population": -1,
        "latitude": 18.3166667,
        "longitude": -77.4
    },
    {
        "name": "Good Hope",
        "country": "Jamaica",
        "province": "Trelawny",
        "population": -1,
        "latitude": 18.417893,
        "longitude": -77.678254
    },
    {
        "name": "Goldsons Corner",
        "country": "Jamaica",
        "province": "Westmoreland",
        "population": -1,
        "latitude": 18.2166667,
        "longitude": -78.2333333
    },
    {
        "name": "Golden Grove",
        "country": "Jamaica",
        "province": "St Ann",
        "population": -1,
        "latitude": 18.3245,
        "longitude": -77.147046
    },
    {
        "name": "Glebe Farm",
        "country": "Jamaica",
        "province": "St. Andrew",
        "population": -1,
        "latitude": 18.0333333,
        "longitude": -76.8166667
    },
    {
        "name": "Gilnock",
        "country": "Jamaica",
        "province": "St. Elizabeth",
        "population": -1,
        "latitude": 18.05,
        "longitude": -77.65
    },
    {
        "name": "Giblatore",
        "country": "Jamaica",
        "province": "Saint Catherine",
        "population": -1,
        "latitude": 18.084476,
        "longitude": -77.019832
    },
    {
        "name": "Fyffes Pen",
        "country": "Jamaica",
        "province": "St. Elizabeth",
        "population": -1,
        "latitude": 18.075362,
        "longitude": -77.890504
    },
    {
        "name": "Fullerswood",
        "country": "Jamaica",
        "province": "St. Elizabeth",
        "population": -1,
        "latitude": 17.999214,
        "longitude": -77.804351
    },
    {
        "name": "Fullerfield Chapel",
        "country": "Jamaica",
        "province": "Westmoreland",
        "population": -1,
        "latitude": 18.286926,
        "longitude": -78.199843
    },
    {
        "name": "Friendship",
        "country": "Jamaica",
        "province": "Saint Catherine",
        "population": -1,
        "latitude": 18.00532,
        "longitude": -76.978852
    },
    {
        "name": "Friendship",
        "country": "Jamaica",
        "province": "Portland",
        "population": -1,
        "latitude": 17.8666667,
        "longitude": -76.4333333
    },
    {
        "name": "French Pen",
        "country": "Jamaica",
        "province": "Saint Catherine",
        "population": -1,
        "latitude": 17.95,
        "longitude": -76.9666667
    },
    {
        "name": "Four Feet",
        "country": "Jamaica",
        "province": "St. Thomas",
        "population": -1,
        "latitude": 18.014466,
        "longitude": -76.377968
    },
    {
        "name": "Fort George",
        "country": "Jamaica",
        "province": "Clarendon",
        "population": -1,
        "latitude": 18.202278,
        "longitude": -77.225695
    },
    {
        "name": "Fornbrook",
        "country": "Jamaica",
        "province": "Westmoreland",
        "population": -1,
        "latitude": 18.2833333,
        "longitude": -77.9333333
    },
    {
        "name": "Fontabelle",
        "country": "Jamaica",
        "province": "Westmoreland",
        "population": -1,
        "latitude": 18.2833333,
        "longitude": -78.15
    },
    {
        "name": "Flint River",
        "country": "Jamaica",
        "province": "Hanover",
        "population": -1,
        "latitude": 18.447722,
        "longitude": -78.054366
    },
    {
        "name": "Flat Point",
        "country": "Jamaica",
        "province": "St Ann",
        "population": -1,
        "latitude": 18.4666667,
        "longitude": -77.2833333
    },
    {
        "name": "Flamstead",
        "country": "Jamaica",
        "province": "St. Andrew",
        "population": -1,
        "latitude": 18.016811,
        "longitude": -76.685729
    },
    {
        "name": "Flagstaff",
        "country": "Jamaica",
        "province": "St. James",
        "population": -1,
        "latitude": 18.341821,
        "longitude": -77.777327
    },
    {
        "name": "Fellowship",
        "country": "Jamaica",
        "province": "Portland",
        "population": -1,
        "latitude": 18.142887,
        "longitude": -76.44994
    },
    {
        "name": "Falkland",
        "country": "Jamaica",
        "province": "Saint Catherine",
        "population": -1,
        "latitude": 18.1666667,
        "longitude": -77.0666667
    },
    {
        "name": "Fairy Hill",
        "country": "Jamaica",
        "province": "Portland",
        "population": -1,
        "latitude": 18.15,
        "longitude": -76.6166667
    },
    {
        "name": "Exeter",
        "country": "Jamaica",
        "province": "Clarendon",
        "population": -1,
        "latitude": 17.8333333,
        "longitude": -77.3
    },
    {
        "name": "Epsom",
        "country": "Jamaica",
        "province": "St. Mary",
        "population": -1,
        "latitude": 18.249085,
        "longitude": -76.726338
    },
    {
        "name": "Envy Valley",
        "country": "Jamaica",
        "province": "Saint Catherine",
        "population": -1,
        "latitude": 17.9833333,
        "longitude": -77.0333333
    },
    {
        "name": "Ellis Caymanas",
        "country": "Jamaica",
        "province": "Saint Catherine",
        "population": -1,
        "latitude": 18.021263,
        "longitude": -76.90944
    },
    {
        "name": "Eldersley",
        "country": "Jamaica",
        "province": "St. Elizabeth",
        "population": -1,
        "latitude": 18.23017,
        "longitude": -77.79805
    },
    {
        "name": "Eden Hill",
        "country": "Jamaica",
        "province": "St. Mary",
        "population": -1,
        "latitude": 18.3833333,
        "longitude": -76.95
    },
    {
        "name": "Eden",
        "country": "Jamaica",
        "province": "Clarendon",
        "population": -1,
        "latitude": 18.05,
        "longitude": -77.35
    },
    {
        "name": "Eaton",
        "country": "Jamaica",
        "province": "Hanover",
        "population": -1,
        "latitude": 18.425637,
        "longitude": -78.162581
    },
    {
        "name": "Dunkeld",
        "country": "Jamaica",
        "province": "Westmoreland",
        "population": -1,
        "latitude": 18.1333333,
        "longitude": -78.0333333
    },
    {
        "name": "Duanvale",
        "country": "Jamaica",
        "province": "Trelawny",
        "population": -1,
        "latitude": 18.404663,
        "longitude": -77.59028
    },
    {
        "name": "Dry River",
        "country": "Jamaica",
        "province": "Clarendon",
        "population": -1,
        "latitude": 17.878546,
        "longitude": -77.258382
    },
    {
        "name": "Dry Harbour Cave",
        "country": "Jamaica",
        "province": "St Ann",
        "population": -1,
        "latitude": 18.4666667,
        "longitude": -77.3666667
    },
    {
        "name": "Dressikie",
        "country": "Jamaica",
        "province": "St. Mary",
        "population": -1,
        "latitude": 18.334223,
        "longitude": -76.978372
    },
    {
        "name": "Dover",
        "country": "Jamaica",
        "province": "Portland",
        "population": -1,
        "latitude": 18.260506,
        "longitude": -76.704965
    },
    {
        "name": "Dove Cot Park",
        "country": "Jamaica",
        "province": "Saint Catherine",
        "population": -1,
        "latitude": 18.012042,
        "longitude": -76.99672
    },
    {
        "name": "Dorothy Pen",
        "country": "Jamaica",
        "province": "St Ann",
        "population": -1,
        "latitude": 18.2833333,
        "longitude": -77.3833333
    },
    {
        "name": "Diamond",
        "country": "Jamaica",
        "province": "Clarendon",
        "population": -1,
        "latitude": 18.080686,
        "longitude": -77.20558
    },