[
    {
        "name": "Bishkek",
        "country": "Kyrgyzstan",
        "province": "Bishkek",
        "population": 900000,
        "latitude": 42.87,
        "longitude": 74.59
    },
    {
        "name": "Balykchy",
        "country": "Kyrgyzstan",
        "province": "Issyk-Kul",
        "population": 42875,
        "latitude": 42.460167,
        "longitude": 76.187089
    },
    {
        "name": "Uzgen",
        "country": "Kyrgyzstan",
        "province": "Osh",
        "population": 49410,
        "latitude": 40.769941,
        "longitude": 73.300682
    },
    {
        "name": "Osh",
        "country": "Kyrgyzstan",
        "province": "Osh",
        "population": 322164,
        "latitude": 40.52828,
        "longitude": 72.7985
    },
    {
        "name": "Karakol",
        "country": "Kyrgyzstan",
        "province": "Issyk-Kul",
        "population": 84351,
        "latitude": 42.490677,
        "longitude": 78.393619
    },
    {
        "name": "Jalal-Abad",
        "country": "Kyrgyzstan",
        "province": "Jalal-Abad",
        "population": 123239,
        "latitude": 40.9333333,
        "longitude": 73
    },
    {
        "name": "Batken",
        "country": "Kyrgyzstan",
        "province": "Batken",
        "population": 27730,
        "latitude": 40.062587,
        "longitude": 70.819391
    },
    {
        "name": "Naryn",
        "country": "Kyrgyzstan",
        "province": "Naryn",
        "population": 41178,
        "latitude": 41.42866,
        "longitude": 75.991106
    },
    {
        "name": "Razzakov",
        "country": "Kyrgyzstan",
        "province": "Batken",
        "population": 34219,
        "latitude": 39.838949,
        "longitude": 69.527605
    },
    {
        "name": "Tokmok",
        "country": "Kyrgyzstan",
        "province": "Chüy",
        "population": 71443,
        "latitude": 42.841939,
        "longitude": 75.301487
    },
    {
        "name": "Talas",
        "country": "Kyrgyzstan",
        "province": "Talas",
        "population": 40308,
        "latitude": 42.522766,
        "longitude": 72.242745
    },
    {
        "name": "Kzyl-Kiya",
        "country": "Kyrgyzstan",
        "province": "Batken",
        "population": 32000,
        "latitude": 40.256839,
        "longitude": 72.12793
    },
    {
        "name": "Suluktu",
        "country": "Kyrgyzstan",
        "province": "Batken",
        "population": 15019,
        "latitude": 39.936518,
        "longitude": 69.567794
    },
    {
        "name": "Aydarken",
        "country": "Kyrgyzstan",
        "province": "Batken",
        "population": 11857,
        "latitude": 39.943187,
        "longitude": 71.341843
    },
    {
        "name": "Uch-Korgon",
        "country": "Kyrgyzstan",
        "province": "Batken",
        "population": 14708,
        "latitude": 40.228814,
        "longitude": 72.059235
    },
    {
        "name": "Tyup",
        "country": "Kyrgyzstan",
        "province": "Issyk-Kul",
        "population": 12355,
        "latitude": 42.727604,
        "longitude": 78.364764
    },
    {
        "name": "Tash-Kumyr",
        "country": "Kyrgyzstan",
        "province": "Jalal-Abad",
        "population": 23594,
        "latitude": 41.346121,
        "longitude": 72.217075
    },
    {
        "name": "Suzak",
        "country": "Kyrgyzstan",
        "province": "Jalal-Abad",
        "population": 30534,
        "latitude": 40.898205,
        "longitude": 72.904815
    },
    {
        "name": "Kyzyl-Suu",
        "country": "Kyrgyzstan",
        "province": "Issyk-Kul",
        "population": 15075,
        "latitude": 42.342106,
        "longitude": 78.006443
    },
    {
        "name": "Kochkor-Ata",
        "country": "Kyrgyzstan",
        "province": "Jalal-Abad",
        "population": 17177,
        "latitude": 41.03709,
        "longitude": 72.483198
    },
    {
        "name": "Kyzyl-Adyr",
        "country": "Kyrgyzstan",
        "province": "Talas",
        "population": 13612,
        "latitude": 42.619806,
        "longitude": 71.589102
    },
    {
        "name": "Kara Suu",
        "country": "Kyrgyzstan",
        "province": "Osh",
        "population": 26609,
        "latitude": 40.704601,
        "longitude": 72.866662
    },
    {
        "name": "Kara-Balta",
        "country": "Kyrgyzstan",
        "province": "Chüy",
        "population": 48278,
        "latitude": 42.814231,
        "longitude": 73.84813
    },
    {
        "name": "Iradan",
        "country": "Kyrgyzstan",
        "province": "Batken",
        "population": 26200,
        "latitude": 40.2666667,
        "longitude": 72.1
    },
    {
        "name": "Gul’cha",
        "country": "Kyrgyzstan",
        "province": "Osh",
        "population": 13755,
        "latitude": 40.313799,
        "longitude": 73.444184
    },
    {
        "name": "Bokombayevskoye",
        "country": "Kyrgyzstan",
        "province": "Issyk-Kul",
        "population": 14267,
        "latitude": 42.117685,
        "longitude": 76.993317
    },
    {
        "name": "Bazar-Korgon",
        "country": "Kyrgyzstan",
        "province": "Jalal-Abad",
        "population": 41011,
        "latitude": 41.037597,
        "longitude": 72.74586
    },
    {
        "name": "Baetovo",
        "country": "Kyrgyzstan",
        "province": "Naryn",
        "population": 10682,
        "latitude": 41.266683,
        "longitude": 74.956983
    },
    {
        "name": "Korgon",
        "country": "Kyrgyzstan",
        "province": "Batken",
        "population": -1,
        "latitude": 39.644452,
        "longitude": 70.953345
    },
    {
        "name": "Turpachaty",
        "country": "Kyrgyzstan",
        "province": "Osh",
        "population": -1,
        "latitude": 39.975964,
        "longitude": 72.802695
    },
    {
        "name": "Kyzyl-Eshme",
        "country": "Kyrgyzstan",
        "province": "Osh",
        "population": 1100,
        "latitude": 39.565592,
        "longitude": 72.271531
    },
    {
        "name": "Daroot-Korgon",
        "country": "Kyrgyzstan",
        "province": "Osh",
        "population": 6421,
        "latitude": 39.552737,
        "longitude": 72.20518
    },
    {
        "name": "Nizhnyaya Ala-Archa",
        "country": "Kyrgyzstan",
        "province": "Chüy",
        "population": 10760,
        "latitude": 42.92245,
        "longitude": 74.566836
    },
    {
        "name": "Mayevka",
        "country": "Kyrgyzstan",
        "province": "Chüy",
        "population": 10535,
        "latitude": 42.909271,
        "longitude": 74.568498
    },
    {
        "name": "Otuz-Adyr",
        "country": "Kyrgyzstan",
        "province": "Osh",
        "population": -1,
        "latitude": 40.606046,
        "longitude": 72.966095
    },
    {
        "name": "Tëlëyken",
        "country": "Kyrgyzstan",
        "province": "Osh",
        "population": -1,
        "latitude": 40.448542,
        "longitude": 72.564012
    },
    {
        "name": "Toktogul",
        "country": "Kyrgyzstan",
        "province": "Jalal-Abad",
        "population": 20577,
        "latitude": 41.87442,
        "longitude": 72.94192
    },
    {
        "name": "Segizinchi Mart",
        "country": "Kyrgyzstan",
        "province": "Naryn",
        "population": -1,
        "latitude": 41.457802,
        "longitude": 75.403854
    },
    {
        "name": "Toru-Aygyr",
        "country": "Kyrgyzstan",
        "province": "Issyk-Kul",
        "population": -1,
        "latitude": 42.495244,
        "longitude": 76.427421
    },
    {
        "name": "Ak-Suu",
        "country": "Kyrgyzstan",
        "province": "Issyk-Kul",
        "population": 14009,
        "latitude": 42.499477,
        "longitude": 78.527015
    },
    {
        "name": "Taldy-Bulak",
        "country": "Kyrgyzstan",
        "province": "Talas",
        "population": -1,
        "latitude": 42.397574,
        "longitude": 72.998568
    },
    {
        "name": "Sumsar",
        "country": "Kyrgyzstan",
        "province": "Jalal-Abad",
        "population": -1,
        "latitude": 41.248955,
        "longitude": 71.313353
    },
    {
        "name": "Sosnovka",
        "country": "Kyrgyzstan",
        "province": "Chüy",
        "population": 5885,
        "latitude": 42.63707,
        "longitude": 73.89608
    },
    {
        "name": "Kyrgyz-Chek",
        "country": "Kyrgyzstan",
        "province": "Osh",
        "population": -1,
        "latitude": 40.553801,
        "longitude": 72.877221
    },
    {
        "name": "Sary-Gögöt",
        "country": "Kyrgyzstan",
        "province": "Jalal-Abad",
        "population": -1,
        "latitude": 41.916979,
        "longitude": 73.263455
    },
    {
        "name": "Sary-Kashka",
        "country": "Kyrgyzstan",
        "province": "Jalal-Abad",
        "population": -1,
        "latitude": 41.405234,
        "longitude": 71.88391
    },
    {
        "name": "Salamalik",
        "country": "Kyrgyzstan",
        "province": "Osh",
        "population": -1,
        "latitude": 40.84268,
        "longitude": 73.633972
    },
    {
        "name": "Orozbekovo",
        "country": "Kyrgyzstan",
        "province": "Batken",
        "population": 3503,
        "latitude": 40.056888,
        "longitude": 71.669455
    },
    {
        "name": "Novovoznesenovka",
        "country": "Kyrgyzstan",
        "province": "Issyk-Kul",
        "population": -1,
        "latitude": 42.587065,
        "longitude": 78.746214
    },
    {
        "name": "Mikhaylovka",
        "country": "Kyrgyzstan",
        "province": "Jalal-Abad",
        "population": -1,
        "latitude": 41.101678,
        "longitude": 73.231908
    },
    {
        "name": "Massy",
        "country": "Kyrgyzstan",
        "province": "Jalal-Abad",
        "population": 19774,
        "latitude": 41.0601,
        "longitude": 72.63285
    },
    {
        "name": "Lebedinovka",
        "country": "Kyrgyzstan",
        "province": "Chüy",
        "population": 21118,
        "latitude": 42.884536,
        "longitude": 74.678194
    },
    {
        "name": "Kyzyl-Kyshtak",
        "country": "Kyrgyzstan",
        "province": "Osh City",
        "population": -1,
        "latitude": 40.538152,
        "longitude": 72.776835
    },
    {
        "name": "Zelenyy Gay",
        "country": "Kyrgyzstan",
        "province": "Issyk-Kul",
        "population": -1,
        "latitude": 42.550385,
        "longitude": 78.167886
    },
    {
        "name": "Kongur-Ölön",
        "country": "Kyrgyzstan",
        "province": "Issyk-Kul",
        "population": -1,
        "latitude": 42.102266,
        "longitude": 76.621086
    },
    {
        "name": "Kandava",
        "country": "Kyrgyzstan",
        "province": "Osh",
        "population": -1,
        "latitude": 40.704002,
        "longitude": 73.534165
    },
    {
        "name": "Kek-Tash",
        "country": "Kyrgyzstan",
        "province": "Jalal-Abad",
        "population": -1,
        "latitude": 41.18369,
        "longitude": 72.39776
    },
    {
        "name": "Kök-Moynok Eki",
        "country": "Kyrgyzstan",
        "province": "Issyk-Kul",
        "population": -1,
        "latitude": 42.456517,
        "longitude": 76.047909
    },
    {
        "name": "Klyuchevka",
        "country": "Kyrgyzstan",
        "province": "Talas",
        "population": -1,
        "latitude": 42.574165,
        "longitude": 71.821184
    },
    {
        "name": "Kesken-Tash",
        "country": "Kyrgyzstan",
        "province": "Batken",
        "population": -1,
        "latitude": 40.035255,
        "longitude": 71.752187
    },
    {
        "name": "Khalmion",
        "country": "Kyrgyzstan",
        "province": "Batken",
        "population": 6274,
        "latitude": 40.212181,
        "longitude": 71.632745
    },
    {
        "name": "Kopuro-Bazar",
        "country": "Kyrgyzstan",
        "province": "Talas",
        "population": -1,
        "latitude": 42.480866,
        "longitude": 72.955056
    },
    {
        "name": "Kazarman",
        "country": "Kyrgyzstan",
        "province": "Jalal-Abad",
        "population": 11191,
        "latitude": 41.404519,
        "longitude": 74.028283
    },
    {
        "name": "Kashgar Kyshtak",
        "country": "Kyrgyzstan",
        "province": "Osh",
        "population": -1,
        "latitude": 40.622332,
        "longitude": 72.83096
    },
    {
        "name": "Kerben",
        "country": "Kyrgyzstan",
        "province": "Jalal-Abad",
        "population": 14141,
        "latitude": 41.493987,
        "longitude": 71.758261
    },
    {
        "name": "Kerben",
        "country": "Kyrgyzstan",
        "province": "Batken",
        "population": 1100,
        "latitude": 40.295132,
        "longitude": 72.186266
    },
    {
        "name": "Kant",
        "country": "Kyrgyzstan",
        "province": "Chüy",
        "population": 22617,
        "latitude": 42.891064,
        "longitude": 74.850769
    },
    {
        "name": "Kaindy",
        "country": "Kyrgyzstan",
        "province": "Chüy",
        "population": 9561,
        "latitude": 42.824688,
        "longitude": 73.675846
    },
    {
        "name": "Kadzhi-Say",
        "country": "Kyrgyzstan",
        "province": "Issyk-Kul",
        "population": 4000,
        "latitude": 42.141066,
        "longitude": 77.178475
    },
    {
        "name": "Ivanovka",
        "country": "Kyrgyzstan",
        "province": "Chüy",
        "population": 17513,
        "latitude": 42.887781,
        "longitude": 75.085005
    },
    {
        "name": "Chyrpykty",
        "country": "Kyrgyzstan",
        "province": "Issyk-Kul",
        "population": -1,
        "latitude": 42.53449,
        "longitude": 76.57694
    },
    {
        "name": "Alma",
        "country": "Kyrgyzstan",
        "province": "Jalal-Abad",
        "population": -1,
        "latitude": 41.091936,
        "longitude": 72.682547
    },
    {
        "name": "Nookat",
        "country": "Kyrgyzstan",
        "province": "Osh",
        "population": 18228,
        "latitude": 40.26597,
        "longitude": 72.61834
    },
    {
        "name": "Jeti-Ögüz",
        "country": "Kyrgyzstan",
        "province": "Issyk-Kul",
        "population": -1,
        "latitude": 42.432333,
        "longitude": 78.216006
    },
    {
        "name": "Jan-Bulak",
        "country": "Kyrgyzstan",
        "province": "Naryn",
        "population": -1,
        "latitude": 41.439626,
        "longitude": 75.736921
    },
    {
        "name": "Dzhany-Aryk",
        "country": "Kyrgyzstan",
        "province": "Osh",
        "population": -1,
        "latitude": 40.652384,
        "longitude": 73.112766
    },
    {
        "name": "Döng-Aryk",
        "country": "Kyrgyzstan",
        "province": "Chüy",
        "population": -1,
        "latitude": 42.750603,
        "longitude": 75.216332
    },
    {
        "name": "Donalysh",
        "country": "Kyrgyzstan",
        "province": "Naryn",
        "population": -1,
        "latitude": 42.261255,
        "longitude": 75.232458
    },
    {
        "name": "Darkhan",
        "country": "Kyrgyzstan",
        "province": "Issyk-Kul",
        "population": -1,
        "latitude": 42.311391,
        "longitude": 77.885549
    },
    {
        "name": "Cholpon-Ata",
        "country": "Kyrgyzstan",
        "province": "Issyk-Kul",
        "population": 14237,
        "latitude": 42.649443,
        "longitude": 77.082252
    },
    {
        "name": "Bel’kyrchin",
        "country": "Kyrgyzstan",
        "province": "Naryn",
        "population": -1,
        "latitude": 41.186657,
        "longitude": 74.560412
    },
    {
        "name": "Chalk-Oydë",
        "country": "Kyrgyzstan",
        "province": "Osh",
        "population": -1,
        "latitude": 40.741236,
        "longitude": 73.65886
    },
    {
        "name": "Chaldybar",
        "country": "Kyrgyzstan",
        "province": "Jalal-Abad",
        "population": -1,
        "latitude": 41.7107,
        "longitude": 72.05157
    },
    {
        "name": "Kemin",
        "country": "Kyrgyzstan",
        "province": "Chüy",
        "population": 10354,
        "latitude": 42.786111,
        "longitude": 75.691667
    },
    {
        "name": "Bosteri",
        "country": "Kyrgyzstan",
        "province": "Issyk-Kul",
        "population": -1,
        "latitude": 42.65953,
        "longitude": 77.18591
    },
    {
        "name": "Bëdzhëy",
        "country": "Kyrgyzstan",
        "province": "Batken",
        "population": -1,
        "latitude": 40.01199,
        "longitude": 71.215188
    },
    {
        "name": "Belovodskoye",
        "country": "Kyrgyzstan",
        "province": "Chüy",
        "population": 23046,
        "latitude": 42.829442,
        "longitude": 74.108304
    },
    {
        "name": "At-Bashi",
        "country": "Kyrgyzstan",
        "province": "Naryn",
        "population": 14655,
        "latitude": 41.16951,
        "longitude": 75.80099
    },
    {
        "name": "Arslanbap",
        "country": "Kyrgyzstan",
        "province": "Jalal-Abad",
        "population": -1,
        "latitude": 41.338235,
        "longitude": 72.929138
    },
    {
        "name": "Ala-Buka",
        "country": "Kyrgyzstan",
        "province": "Jalal-Abad",
        "population": 15426,
        "latitude": 41.410501,
        "longitude": 71.486282
    },
    {
        "name": "Kumtyube",
        "country": "Kyrgyzstan",
        "province": "Naryn",
        "population": -1,
        "latitude": 42.218233,
        "longitude": 75.550826
    },
    {
        "name": "Kara-Kulja",
        "country": "Kyrgyzstan",
        "province": "Osh",
        "population": 15616,
        "latitude": 40.632229,
        "longitude": 73.592489
    },
    {
        "name": "Zhany-Zher",
        "country": "Kyrgyzstan",
        "province": "Batken",
        "population": -1,
        "latitude": 40.259424,
        "longitude": 71.102363
    },
    {
        "name": "Chimgen",
        "country": "Kyrgyzstan",
        "province": "Batken",
        "population": -1,
        "latitude": 39.8713,
        "longitude": 69.506957
    },
    {
        "name": "Koshbulak",
        "country": "Kyrgyzstan",
        "province": "Batken",
        "population": -1,
        "latitude": 39.922242,
        "longitude": 69.648607
    },
    {
        "name": "Razvaliny Urakain",
        "country": "Kyrgyzstan",
        "province": "Batken",
        "population": -1,
        "latitude": 39.817617,
        "longitude": 72.006617
    },
    {
        "name": "Uch-Tyube",
        "country": "Kyrgyzstan",
        "province": "Kyrgyzstan",
        "population": -1,
        "latitude": 39.9166667,
        "longitude": 73.4333333
    },
    {
        "name": "Teskey",
        "country": "Kyrgyzstan",
        "province": "Batken",
        "population": -1,
        "latitude": 39.902922,
        "longitude": 71.278958
    },
    {
        "name": "Tegermach",
        "country": "Kyrgyzstan",
        "province": "Kyrgyzstan",
        "population": -1,
        "latitude": 39.9333333,
        "longitude": 72.2666667
    },
    {
        "name": "Tayan",
        "country": "Kyrgyzstan",
        "province": "Batken",
        "population": 1693,
        "latitude": 39.902602,
        "longitude": 71.108257
    },
    {
        "name": "Chiy-Talaa",
        "country": "Kyrgyzstan",
        "province": "Osh",
        "population": -1,
        "latitude": 39.970413,
        "longitude": 73.490036
    },
    {
        "name": "Shumkar",
        "country": "Kyrgyzstan",
        "province": "Kyrgyzstan",
        "population": -1,
        "latitude": 39.8333333,
        "longitude": 73.2666667
    },
    {
        "name": "Zhylan-Auz",
        "country": "Kyrgyzstan",
        "province": "Batken",
        "population": -1,
        "latitude": 39.91719,
        "longitude": 72.184178
    },
    {
        "name": "Razvaliny Shadymyr",
        "country": "Kyrgyzstan",
        "province": "Batken",
        "population": -1,
        "latitude": 39.999578,
        "longitude": 70.356624
    },
    {
        "name": "Sary-Tash",
        "country": "Kyrgyzstan",
        "province": "Osh",
        "population": -1,
        "latitude": 39.728826,
        "longitude": 73.248364
    },
    {
        "name": "Ravat",
        "country": "Kyrgyzstan",
        "province": "Batken",
        "population": -1,
        "latitude": 39.88349,
        "longitude": 70.172319
    },
    {
        "name": "Kayyndy",
        "country": "Kyrgyzstan",
        "province": "Batken",
        "population": -1,
        "latitude": 39.7503,
        "longitude": 70.909966
    },
    {
        "name": "Yrgayty",
        "country": "Kyrgyzstan",
        "province": "Osh",
        "population": -1,
        "latitude": 39.94782,
        "longitude": 73.464967
    },
    {
        "name": "Maat-Murat",
        "country": "Kyrgyzstan",
        "province": "Kyrgyzstan",
        "population": -1,
        "latitude": 39.85,
        "longitude": 69.7333333
    },
    {
        "name": "Lyangar",
        "country": "Kyrgyzstan",
        "province": "Batken",
        "population": -1,
        "latitude": 39.796918,
        "longitude": 72.101961
    },
    {
        "name": "Kyzyl-Tala",
        "country": "Kyrgyzstan",
        "province": "Osh",
        "population": -1,
        "latitude": 39.965448,
        "longitude": 72.963965
    },
    {
        "name": "Korgon",
        "country": "Kyrgyzstan",
        "province": "Batken",
        "population": 2204,
        "latitude": 39.88899,
        "longitude": 69.935593
    },
    {
        "name": "Kojokël’",
        "country": "Kyrgyzstan",
        "province": "Kyrgyzstan",
        "population": -1,
        "latitude": 39.9,
        "longitude": 72.966667
    },
    {
        "name": "Kichi-Karakol",
        "country": "Kyrgyzstan",
        "province": "Osh",
        "population": -1,
        "latitude": 39.90168,
        "longitude": 73.412605
    },
    {
        "name": "Katran",
        "country": "Kyrgyzstan",
        "province": "Batken",
        "population": 7149,
        "latitude": 39.844337,
        "longitude": 70.014742
    },
    {
        "name": "Kashka-Suu",
        "country": "Kyrgyzstan",
        "province": "Osh",
        "population": -1,
        "latitude": 39.910083,
        "longitude": 72.745455
    },
    {
        "name": "Karavshin",
        "country": "Kyrgyzstan",
        "province": "Batken",
        "population": -1,
        "latitude": 39.670316,
        "longitude": 70.303828
    },
    {
        "name": "Kara-Otek",
        "country": "Kyrgyzstan",
        "province": "Batken",
        "population": -1,
        "latitude": 39.927752,
        "longitude": 72.252544
    },
    {
        "name": "Kara-Shibak",
        "country": "Kyrgyzstan",
        "province": "Osh",
        "population": -1,
        "latitude": 39.518032,
        "longitude": 72.187176
    },
    {
        "name": "Kara-Kabak",
        "country": "Kyrgyzstan",
        "province": "Osh",
        "population": -1,
        "latitude": 39.661916,
        "longitude": 72.718706
    },
    {
        "name": "Irkeshtam",
        "country": "Kyrgyzstan",
        "province": "Osh",
        "population": -1,
        "latitude": 39.67924979909343,
        "longitude": 73.89872074127197
    },
    {
        "name": "Ikizyak",
        "country": "Kyrgyzstan",
        "province": "Osh",
        "population": -1,
        "latitude": 39.723822,
        "longitude": 73.782646
    },
    {
        "name": "Gaz",
        "country": "Kyrgyzstan",
        "province": "Batken",
        "population": -1,
        "latitude": 39.868126,
        "longitude": 71.021978
    },
    {
        "name": "Jergetal",
        "country": "Kyrgyzstan",
        "province": "Osh",
        "population": -1,
        "latitude": 39.978375,
        "longitude": 73.487316
    },
    {
        "name": "Jar-Bashi",
        "country": "Kyrgyzstan",
        "province": "Osh",
        "population": -1,
        "latitude": 39.514681,
        "longitude": 72.11693
    },
    {
        "name": "Choyunchu",
        "country": "Kyrgyzstan",
        "province": "Batken",
        "population": -1,
        "latitude": 39.968771,
        "longitude": 69.3703
    },
    {
        "name": "Razvaliny Dazgon",
        "country": "Kyrgyzstan",
        "province": "Batken",
        "population": -1,
        "latitude": 39.856435,
        "longitude": 69.332872
    },
    {
        "name": "Churbek",
        "country": "Kyrgyzstan",
        "province": "Batken",
        "population": -1,
        "latitude": 39.978106,
        "longitude": 69.906672
    },
    {
        "name": "Chilandy",
        "country": "Kyrgyzstan",
        "province": "Kyrgyzstan",
        "population": -1,
        "latitude": 39.9166667,
        "longitude": 72.1833333
    },
    {
        "name": "Chatynsy",
        "country": "Kyrgyzstan",
        "province": "Batken",
        "population": -1,
        "latitude": 39.731513,
        "longitude": 72.1793
    },
    {
        "name": "Ak-Jylga",
        "country": "Kyrgyzstan",
        "province": "Osh",
        "population": -1,
        "latitude": 39.979786,
        "longitude": 73.009272
    },
    {
        "name": "Bulak-Bashi",
        "country": "Kyrgyzstan",
        "province": "Batken",
        "population": -1,
        "latitude": 39.85976,
        "longitude": 70.739953
    },
    {
        "name": "Berdoba",
        "country": "Kyrgyzstan",
        "province": "Osh",
        "population": -1,
        "latitude": 39.507791,
        "longitude": 73.268308
    },
    {
        "name": "Augul",
        "country": "Kyrgyzstan",
        "province": "Batken",
        "population": -1,
        "latitude": 39.776086,
        "longitude": 71.042096
    },
    {
        "name": "Andarkhan",
        "country": "Kyrgyzstan",
        "province": "Batken",
        "population": -1,
        "latitude": 39.996985,
        "longitude": 69.850351
    },
    {
        "name": "Andarak",
        "country": "Kyrgyzstan",
        "province": "Batken",
        "population": 8001,
        "latitude": 39.768489,
        "longitude": 69.463982
    },
    {
        "name": "Ak-Talaa",
        "country": "Kyrgyzstan",
        "province": "Osh",
        "population": -1,
        "latitude": 39.951947,
        "longitude": 73.511076
    },
    {
        "name": "Ak-Bosogo",
        "country": "Kyrgyzstan",
        "province": "Osh",
        "population": -1,
        "latitude": 39.808535,
        "longitude": 73.23727
    },
    {
        "name": "Achyk-Suu",
        "country": "Kyrgyzstan",
        "province": "Osh",
        "population": -1,
        "latitude": 39.469924,
        "longitude": 72.499108
    },
    {
        "name": "Dinau",
        "country": "Kyrgyzstan",
        "province": "Batken",
        "population": -1,
        "latitude": 39.697776,
        "longitude": 69.368351
    },
    {
        "name": "Ak-Dzhol",
        "country": "Kyrgyzstan",
        "province": "Chüy",
        "population": -1,
        "latitude": 42.941328,
        "longitude": 74.489356
    },
    {
        "name": "Novopavlovka",
        "country": "Kyrgyzstan",
        "province": "Chüy",
        "population": -1,
        "latitude": 42.873204,
        "longitude": 74.482783
    },
    {
        "name": "Selektsionnoye",
        "country": "Kyrgyzstan",
        "province": "Chüy",
        "population": -1,
        "latitude": 42.834492,
        "longitude": 74.520802
    },
    {
        "name": "Chong-Aryk",
        "country": "Kyrgyzstan",
        "province": "Bishkek",
        "population": -1,
        "latitude": 42.817187,
        "longitude": 74.580875
    },
    {
        "name": "Nizhniy Norus",
        "country": "Kyrgyzstan",
        "province": "Chüy",
        "population": -1,
        "latitude": 42.926527,
        "longitude": 74.741211
    },
    {
        "name": "Dzher-Kazar",
        "country": "Kyrgyzstan",
        "province": "Chüy",
        "population": -1,
        "latitude": 42.941962,
        "longitude": 74.728317
    },
    {
        "name": "Keng-Suu",
        "country": "Kyrgyzstan",
        "province": "Naryn",
        "population": -1,
        "latitude": 41.93283,
        "longitude": 75.678938
    },
    {
        "name": "Kök-Aygyr",
        "country": "Kyrgyzstan",
        "province": "Naryn",
        "population": -1,
        "latitude": 40.72976,
        "longitude": 75.612471
    },
    {
        "name": "Karool-Töbö",
        "country": "Kyrgyzstan",
        "province": "Naryn",
        "population": -1,
        "latitude": 40.531575,
        "longitude": 75.964551
    },
    {
        "name": "Birinchi May",
        "country": "Kyrgyzstan",
        "province": "Naryn",
        "population": -1,
        "latitude": 41.175292,
        "longitude": 76.045813
    },
    {
        "name": "Uzgorysh",
        "country": "Kyrgyzstan",
        "province": "Naryn",
        "population": -1,
        "latitude": 41.209731,
        "longitude": 76.204731
    },
    {
        "name": "Ak-Bulun",
        "country": "Kyrgyzstan",
        "province": "Naryn",
        "population": -1,
        "latitude": 41.450277,
        "longitude": 76.283453
    },
    {
        "name": "Tash-Bashat",
        "country": "Kyrgyzstan",
        "province": "Naryn",
        "population": -1,
        "latitude": 41.46378,
        "longitude": 76.393344
    },
    {
        "name": "Këk-Moynok Vtoroye",
        "country": "Kyrgyzstan",
        "province": "Issyk-Kul",
        "population": -1,
        "latitude": 42.485213,
        "longitude": 75.856813
    },
    {
        "name": "Kara-Suu",
        "country": "Kyrgyzstan",
        "province": "Naryn",
        "population": -1,
        "latitude": 42.195473,
        "longitude": 75.818561
    },
    {
        "name": "Dyykan-Kyshtak",
        "country": "Kyrgyzstan",
        "province": "Osh City",
        "population": -1,
        "latitude": 40.515978,
        "longitude": 72.786875
    },
    {
        "name": "Gyul’bakhor",
        "country": "Kyrgyzstan",
        "province": "Osh",
        "population": -1,
        "latitude": 40.487419,
        "longitude": 72.652469
    },
    {
        "name": "Bash-Bulak",
        "country": "Kyrgyzstan",
        "province": "Osh",
        "population": -1,
        "latitude": 40.512511,
        "longitude": 72.967076
    },
    {
        "name": "Kenzhekul",
        "country": "Kyrgyzstan",
        "province": "Osh",
        "population": -1,
        "latitude": 40.637573,
        "longitude": 72.81245
    },
    {
        "name": "Uchar",
        "country": "Kyrgyzstan",
        "province": "Osh",
        "population": -1,
        "latitude": 40.480461,
        "longitude": 72.782787
    },
    {
        "name": "Beryu",
        "country": "Kyrgyzstan",
        "province": "Osh",
        "population": -1,
        "latitude": 40.339616,
        "longitude": 72.971591
    },
    {
        "name": "Koj-Yar",
        "country": "Kyrgyzstan",
        "province": "Issyk-Kul",
        "population": -1,
        "latitude": 42.7306,
        "longitude": 77.533638
    },
    {
        "name": "Kamyshanovka",
        "country": "Kyrgyzstan",
        "province": "Chüy",
        "population": -1,
        "latitude": 43.218003,
        "longitude": 74.236241
    },
    {
        "name": "Jangy-Jer",
        "country": "Kyrgyzstan",
        "province": "Chüy",
        "population": -1,
        "latitude": 43.108972,
        "longitude": 74.381182
    },
    {
        "name": "Zar-Tash",
        "country": "Kyrgyzstan",
        "province": "Batken",
        "population": -1,
        "latitude": 40.259426,
        "longitude": 71.026873
    },
    {
        "name": "Sakaldy",
        "country": "Kyrgyzstan",
        "province": "Jalal-Abad",
        "population": -1,
        "latitude": 40.994127,
        "longitude": 72.54603
    },
    {
        "name": "Ak-Turpak",
        "country": "Kyrgyzstan",
        "province": "Batken",
        "population": -1,
        "latitude": 40.18801,
        "longitude": 71.054115
    },
    {
        "name": "Vasil’evka",
        "country": "Kyrgyzstan",
        "province": "Chüy",
        "population": -1,
        "latitude": 43.106021,
        "longitude": 74.576822
    },
    {
        "name": "Moldovanovka",
        "country": "Kyrgyzstan",
        "province": "Chüy",
        "population": -1,
        "latitude": 42.990006,
        "longitude": 74.719756
    },
    {
        "name": "Kyzart",
        "country": "Kyrgyzstan",
        "province": "Naryn",
        "population": -1,
        "latitude": 42.03017,
        "longitude": 74.98255
    },
    {
        "name": "Aflatun",
        "country": "Kyrgyzstan",
        "province": "Jalal-Abad",
        "population": -1,
        "latitude": 41.644554,
        "longitude": 71.953277
    },
    {
        "name": "Abdukaly",
        "country": "Kyrgyzstan",
        "province": "Jalal-Abad",
        "population": -1,
        "latitude": 41.782351,
        "longitude": 72.04782
    },
    {
        "name": "Zarger",
        "country": "Kyrgyzstan",
        "province": "Osh",
        "population": -1,
        "latitude": 40.894694,
        "longitude": 73.471496
    },
    {
        "name": "Mamajan",
        "country": "Kyrgyzstan",
        "province": "Osh",
        "population": -1,
        "latitude": 40.611638,
        "longitude": 72.918935
    },
    {
        "name": "Yur’yevka",
        "country": "Kyrgyzstan",
        "province": "Chüy",
        "population": -1,
        "latitude": 42.720601,
        "longitude": 75.028796
    },
    {
        "name": "Kelish",
        "country": "Kyrgyzstan",
        "province": "Jalal-Abad",
        "population": -1,
        "latitude": 41.419987,
        "longitude": 72.367073
    },
    {
        "name": "Yartash",
        "country": "Kyrgyzstan",
        "province": "Kyrgyzstan",
        "population": -1,
        "latitude": 40.3333333,
        "longitude": 72.6666667
    },
    {
        "name": "Jar-Korgon",
        "country": "Kyrgyzstan",
        "province": "Osh",
        "population": -1,
        "latitude": 40.240214,
        "longitude": 72.806438
    },
    {
        "name": "Japalak",
        "country": "Kyrgyzstan",
        "province": "Osh",
        "population": -1,
        "latitude": 40.490044,
        "longitude": 72.763262
    },
    {
        "name": "Jangi-Bazar",
        "country": "Kyrgyzstan",
        "province": "Jalal-Abad",
        "population": -1,
        "latitude": 41.675152,
        "longitude": 70.860451
    },
    {
        "name": "Jany-Nookat",
        "country": "Kyrgyzstan",
        "province": "Osh",
        "population": -1,
        "latitude": 40.248326,
        "longitude": 72.550063
    },
    {
        "name": "Yangi-Jol",
        "country": "Kyrgyzstan",
        "province": "Kyrgyzstan",
        "population": -1,
        "latitude": 41.8666667,
        "longitude": 74.45
    },
    {
        "name": "Seyit-Kazy",
        "country": "Kyrgyzstan",
        "province": "Jalal-Abad",
        "population": -1,
        "latitude": 41.112507,
        "longitude": 72.792876
    },
    {
        "name": "Tashtak",
        "country": "Kyrgyzstan",
        "province": "Jalal-Abad",
        "population": -1,
        "latitude": 41.026734,
        "longitude": 72.971144
    },
    {
        "name": "Yalgiz-Alcha",
        "country": "Kyrgyzstan",
        "province": "Kyrgyzstan",
        "population": -1,
        "latitude": 40.7833333,
        "longitude": 73.6166667
    },
    {
        "name": "Voyenno-Antonovka",
        "country": "Kyrgyzstan",
        "province": "Chüy",
        "population": -1,
        "latitude": 42.873781,
        "longitude": 74.440577
    },
    {
        "name": "Vedene",
        "country": "Kyrgyzstan",
        "province": "Osh",
        "population": -1,
        "latitude": 40.207738,
        "longitude": 72.988421
    },
    {
        "name": "Archaly",
        "country": "Kyrgyzstan",
        "province": "Chüy",
        "population": -1,
        "latitude": 42.732881,
        "longitude": 74.50665
    },
    {
        "name": "Staraya Pokrovka",
        "country": "Kyrgyzstan",
        "province": "Osh",
        "population": -1,
        "latitude": 40.685851,
        "longitude": 73.154258
    },
    {
        "name": "Valakish",
        "country": "Kyrgyzstan",
        "province": "Batken",
        "population": -1,
        "latitude": 40.185173,
        "longitude": 72.082853
    },
    {
        "name": "Uzunbulak",
        "country": "Kyrgyzstan",
        "province": "Naryn",
        "population": -1,
        "latitude": 42.130445,
        "longitude": 75.267344
    },
    {
        "name": "Uzgorysh",
        "country": "Kyrgyzstan",
        "province": "Naryn",
        "population": -1,
        "latitude": 41.218091,
        "longitude": 74.70431
    },
    {
        "name": "Gava",
        "country": "Kyrgyzstan",
        "province": "Jalal-Abad",
        "population": -1,
        "latitude": 41.250357,
        "longitude": 72.840253
    },
    {
        "name": "Uspenovka",
        "country": "Kyrgyzstan",
        "province": "Jalal-Abad",
        "population": -1,
        "latitude": 41.574474,
        "longitude": 71.814315
    },
    {
        "name": "Ushat",
        "country": "Kyrgyzstan",
        "province": "Kyrgyzstan",
        "population": -1,
        "latitude": 40.3333333,
        "longitude": 73.6833333
    },
    {
        "name": "Uryukty",
        "country": "Kyrgyzstan",
        "province": "Kyrgyzstan",
        "population": -1,
        "latitude": 40.35,
        "longitude": 73.5666667
    },
    {
        "name": "Urnok",
        "country": "Kyrgyzstan",
        "province": "Jalal-Abad",
        "population": -1,
        "latitude": 41.908193,
        "longitude": 72.736368
    },
    {
        "name": "Urgi",
        "country": "Kyrgyzstan",
        "province": "Osh",
        "population": -1,
        "latitude": 40.3,
        "longitude": 72.183333
    },
    {
        "name": "Unkyur",
        "country": "Kyrgyzstan",
        "province": "Osh",
        "population": -1,
        "latitude": 40.50223,
        "longitude": 73.287268
    },
    {
        "name": "Ulukent",
        "country": "Kyrgyzstan",
        "province": "Kyrgyzstan",
        "population": -1,
        "latitude": 41.7666667,
        "longitude": 73.1833333
    },
    {
        "name": "Uluk",
        "country": "Kyrgyzstan",
        "province": "Jalal-Abad",
        "population": -1,
        "latitude": 41.420188,
        "longitude": 71.827778
    },
    {
        "name": "Uluchat",
        "country": "Kyrgyzstan",
        "province": "Kyrgyzstan",
        "population": -1,
        "latitude": 40.8833333,
        "longitude": 73.8
    },
    {
        "name": "Kojomkul",
        "country": "Kyrgyzstan",
        "province": "Chüy",
        "population": -1,
        "latitude": 42.143526,
        "longitude": 74.071314
    },
    {
        "name": "Shor-Bulak",
        "country": "Kyrgyzstan",
        "province": "Issyk-Kul",
        "population": -1,
        "latitude": 42.257099,
        "longitude": 76.541015
    },
    {
        "name": "Ukok",
        "country": "Kyrgyzstan",
        "province": "Naryn",
        "population": -1,
        "latitude": 42.181227,
        "longitude": 75.772718
    },
    {
        "name": "Ugut",
        "country": "Kyrgyzstan",
        "province": "Naryn",
        "population": -1,
        "latitude": 41.410777,
        "longitude": 74.843774
    },
    {
        "name": "Uch-Emchek",
        "country": "Kyrgyzstan",
        "province": "Chüy",
        "population": -1,
        "latitude": 42.697412,
        "longitude": 74.772652
    },
    {
        "name": "Uchuruk",
        "country": "Kyrgyzstan",
        "province": "Kyrgyzstan",
        "population": -1,
        "latitude": 42.78358,
        "longitude": 75.946
    },
    {
        "name": "Uch-Top-Kyr",
        "country": "Kyrgyzstan",
        "province": "Jalal-Abad",
        "population": -1,
        "latitude": 40.947331,
        "longitude": 73.27345
    },
    {
        "name": "Uchkun",
        "country": "Kyrgyzstan",
        "province": "Naryn",
        "population": -1,
        "latitude": 41.383642,
        "longitude": 75.359898
    },
    {
        "name": "Uch-Kul’",
        "country": "Kyrgyzstan",
        "province": "Kyrgyzstan",
        "population": -1,
        "latitude": 40.4,
        "longitude": 73.816667
    },
    {
        "name": "Uchi-Kur",
        "country": "Kyrgyzstan",
        "province": "Kyrgyzstan",
        "population": -1,
        "latitude": 40.5166667,
        "longitude": 73.2
    },
    {
        "name": "Uchbay",
        "country": "Kyrgyzstan",
        "province": "Osh",
        "population": -1,
        "latitude": 40.303179,
        "longitude": 72.712285
    },
    {
        "name": "Tyz-Ashu",
        "country": "Kyrgyzstan",
        "province": "Kyrgyzstan",
        "population": -1,
        "latitude": 41.6833333,
        "longitude": 70.95
    },
    {
        "name": "Tyugël’say",
        "country": "Kyrgyzstan",
        "province": "Naryn",
        "population": -1,
        "latitude": 41.988579,
        "longitude": 74.758814
    },
    {
        "name": "Tuz-Bel’",
        "country": "Kyrgyzstan",
        "province": "Osh",
        "population": -1,
        "latitude": 40.559208,
        "longitude": 73.345358
    },
    {
        "name": "Totiya",
        "country": "Kyrgyzstan",
        "province": "Jalal-Abad",
        "population": -1,
        "latitude": 40.87411,
        "longitude": 72.956293
    },
    {
        "name": "Tëlëyken",
        "country": "Kyrgyzstan",
        "province": "Osh",
        "population": -1,
        "latitude": 40.48674,
        "longitude": 72.808754
    },
    {
        "name": "Tossor",
        "country": "Kyrgyzstan",
        "province": "Issyk-Kul",
        "population": 900,
        "latitude": 42.168781,
        "longitude": 77.440729
    },
    {
        "name": "Tortkul’",
        "country": "Kyrgyzstan",
        "province": "Kyrgyzstan",
        "population": -1,
        "latitude": 40.78384,
        "longitude": 73.30548
    },
    {
        "name": "Tërt-Kul’",
        "country": "Kyrgyzstan",
        "province": "Issyk-Kul",
        "population": -1,
        "latitude": 42.113899,
        "longitude": 76.947014
    },
    {
        "name": "Tong",
        "country": "Kyrgyzstan",
        "province": "Issyk-Kul",
        "population": -1,
        "latitude": 42.15617,
        "longitude": 77.045147
    },
    {
        "name": "Toluk",
        "country": "Kyrgyzstan",
        "province": "Jalal-Abad",
        "population": -1,
        "latitude": 41.900723,
        "longitude": 73.575105
    },
    {
        "name": "Toktoyan",
        "country": "Kyrgyzstan",
        "province": "Issyk-Kul",
        "population": -1,
        "latitude": 42.714732,
        "longitude": 78.685019
    },
    {
        "name": "Toguz-Bulak",
        "country": "Kyrgyzstan",
        "province": "Kyrgyzstan",
        "population": -1,
        "latitude": 42.1833333,
        "longitude": 75.7666667
    },
    {
        "name": "Chontoguzbay",
        "country": "Kyrgyzstan",
        "province": "Issyk-Kul",
        "population": -1,
        "latitude": 42.71979,
        "longitude": 78.621004
    },
    {
        "name": "Tillya-Bay-Kurgan",
        "country": "Kyrgyzstan",
        "province": "Kyrgyzstan",
        "population": -1,
        "latitude": 40.12462,
        "longitude": 71.29655
    },
    {
        "name": "Tereksu",
        "country": "Kyrgyzstan",
        "province": "Kyrgyzstan",
        "population": -1,
        "latitude": 40.5666667,
        "longitude": 73.75
    },
    {
        "name": "Terek-Say",
        "country": "Kyrgyzstan",
        "province": "Jalal-Abad",
        "population": -1,
        "latitude": 41.513338,
        "longitude": 71.145259
    },
    {
        "name": "Terek",
        "country": "Kyrgyzstan",
        "province": "Osh",
        "population": -1,
        "latitude": 40.01613,
        "longitude": 73.55918
    },
    {
        "name": "Tepke",
        "country": "Kyrgyzstan",
        "province": "Issyk-Kul",
        "population": -1,
        "latitude": 42.601755,
        "longitude": 78.413732
    },
    {
        "name": "Tepe-Korgon",
        "country": "Kyrgyzstan",
        "province": "Osh",
        "population": -1,
        "latitude": 40.589071,
        "longitude": 72.390546
    },
    {
        "name": "Temirovka",
        "country": "Kyrgyzstan",
        "province": "Issyk-Kul",
        "population": -1,
        "latitude": 42.702435,
        "longitude": 77.4192
    },
    {
        "name": "Temirkanat",
        "country": "Kyrgyzstan",
        "province": "Issyk-Kul",
        "population": -1,
        "latitude": 42.056856,
        "longitude": 76.919996
    },
    {
        "name": "Tegirmenti",
        "country": "Kyrgyzstan",
        "province": "Chüy",
        "population": -1,
        "latitude": 42.76606,
        "longitude": 76.158753
    },
    {
        "name": "Ak-Tash",
        "country": "Kyrgyzstan",
        "province": "Jalal-Abad",
        "population": -1,
        "latitude": 41.703196,
        "longitude": 70.645146
    },
    {
        "name": "Tegerekkyrchin",
        "country": "Kyrgyzstan",
        "province": "Naryn",
        "population": -1,
        "latitude": 41.50947,
        "longitude": 75.613642
    },
    {
        "name": "Tegerek-Saz",
        "country": "Kyrgyzstan",
        "province": "Osh",
        "population": -1,
        "latitude": 40.418672,
        "longitude": 73.612702
    },
    {
        "name": "Kyzyl-Koshchu",
        "country": "Kyrgyzstan",
        "province": "Osh",
        "population": -1,
        "latitude": 40.644539,
        "longitude": 72.928583
    },
    {
        "name": "Tash-Tyube",
        "country": "Kyrgyzstan",
        "province": "Talas",
        "population": -1,
        "latitude": 42.583333,
        "longitude": 72.083333
    },
    {
        "name": "Tash-Kepe",
        "country": "Kyrgyzstan",
        "province": "Kyrgyzstan",
        "population": -1,
        "latitude": 40.9333333,
        "longitude": 73.8333333
    },
    {
        "name": "Tash-Bulak",
        "country": "Kyrgyzstan",
        "province": "Osh",
        "population": -1,
        "latitude": 40.199247,
        "longitude": 72.181078
    },
    {
        "name": "Tar-Suu",
        "country": "Kyrgyzstan",
        "province": "Chüy",
        "population": -1,
        "latitude": 42.706514,
        "longitude": 76.059032
    },
    {
        "name": "Tamchy",
        "country": "Kyrgyzstan",
        "province": "Issyk-Kul",
        "population": -1,
        "latitude": 42.563696,
        "longitude": 76.659325
    },
    {
        "name": "Tambashat",
        "country": "Kyrgyzstan",
        "province": "Osh",
        "population": -1,
        "latitude": 40.262308,
        "longitude": 73.418337
    },
    {
        "name": "Taldysu",
        "country": "Kyrgyzstan",
        "province": "Naryn",
        "population": -1,
        "latitude": 41.189884,
        "longitude": 76.142982
    },
    {
        "name": "Chong-Taldy-Suu",
        "country": "Kyrgyzstan",
        "province": "Osh",
        "population": -1,
        "latitude": 40.550458,
        "longitude": 73.974875
    },
    {
        "name": "Taldyk",
        "country": "Kyrgyzstan",
        "province": "Kyrgyzstan",
        "population": -1,
        "latitude": 40.30152,
        "longitude": 73.24482
    },
    {
        "name": "Tagan",
        "country": "Kyrgyzstan",
        "province": "Kyrgyzstan",
        "population": -1,
        "latitude": 40.027,
        "longitude": 69.82245
    },
    {
        "name": "Kakyr",
        "country": "Kyrgyzstan",
        "province": "Batken",
        "population": -1,
        "latitude": 40.243169,
        "longitude": 72.069086
    },
    {
        "name": "Syny",
        "country": "Kyrgyzstan",
        "province": "Jalal-Abad",
        "population": -1,
        "latitude": 41.616348,
        "longitude": 72.055214
    },
    {
        "name": "Syn-Tash",
        "country": "Kyrgyzstan",
        "province": "Chüy",
        "population": -1,
        "latitude": 42.703047,
        "longitude": 75.060465
    },
    {
        "name": "Svetlaya Polyana",
        "country": "Kyrgyzstan",
        "province": "Issyk-Kul",
        "population": -1,
        "latitude": 42.351253,
        "longitude": 78.067404
    },
    {
        "name": "Suusamyr",
        "country": "Kyrgyzstan",
        "province": "Chüy",
        "population": -1,
        "latitude": 42.180742,
        "longitude": 73.96317
    },
    {
        "name": "Sogondu",
        "country": "Kyrgyzstan",
        "province": "Osh",
        "population": -1,
        "latitude": 40.214862,
        "longitude": 73.521741
    },
    {
        "name": "Sëgët",
        "country": "Kyrgyzstan",
        "province": "Jalal-Abad",
        "population": -1,
        "latitude": 41.504218,
        "longitude": 71.641848
    },
    {
        "name": "Sopu-Korgon",
        "country": "Kyrgyzstan",
        "province": "Osh",
        "population": -1,
        "latitude": 40.01622,
        "longitude": 73.496987
    },
    {
        "name": "Gavrilovka",
        "country": "Kyrgyzstan",
        "province": "Chüy",
        "population": -1,
        "latitude": 42.867182,
        "longitude": 74.352083
    },
    {
        "name": "Stavropolovka",
        "country": "Kyrgyzstan",
        "province": "Chüy",
        "population": -1,
        "latitude": 43.015608,
        "longitude": 73.854109
    },
    {
        "name": "Sretenka",
        "country": "Kyrgyzstan",
        "province": "Chüy",
        "population": -1,
        "latitude": 42.927246,
        "longitude": 74.130027
    },
    {
        "name": "Ak-Bash",
        "country": "Kyrgyzstan",
        "province": "Jalal-Abad",
        "population": -1,
        "latitude": 41.016667,
        "longitude": 72.983333
    },
    {
        "name": "Sovetskoye",
        "country": "Kyrgyzstan",
        "province": "Jalal-Abad",
        "population": -1,
        "latitude": 41.051783,
        "longitude": 72.739651
    },
    {
        "name": "Sovetskiy",
        "country": "Kyrgyzstan",
        "province": "Batken",
        "population": -1,
        "latitude": 40.166611,
        "longitude": 71.31187
    },
    {
        "name": "Solu-Sassyk",
        "country": "Kyrgyzstan",
        "province": "Kyrgyzstan",
        "population": -1,
        "latitude": 40.71457,
        "longitude": 73.59381
    },
    {
        "name": "Shuran",
        "country": "Kyrgyzstan",
        "province": "Batken",
        "population": -1,
        "latitude": 40.159585,
        "longitude": 71.450509
    },
    {
        "name": "Shoro",
        "country": "Kyrgyzstan",
        "province": "Naryn",
        "population": -1,
        "latitude": 41.449113,
        "longitude": 75.444008
    },
    {
        "name": "Shopokov",
        "country": "Kyrgyzstan",
        "province": "Chüy",
        "population": -1,
        "latitude": 42.854737,
        "longitude": 74.342175
    },
    {
        "name": "Shydyr",
        "country": "Kyrgyzstan",
        "province": "Jalal-Abad",
        "population": -1,
        "latitude": 41.104913,
        "longitude": 72.721713
    },
    {
        "name": "Sherif",
        "country": "Kyrgyzstan",
        "province": "Kyrgyzstan",
        "population": -1,
        "latitude": 40.55,
        "longitude": 74.4166667
    },
    {
        "name": "Sheker",
        "country": "Kyrgyzstan",
        "province": "Talas",
        "population": -1,
        "latitude": 42.547918,
        "longitude": 71.157764
    },
    {
        "name": "Shaydan",
        "country": "Kyrgyzstan",
        "province": "Jalal-Abad",
        "population": -1,
        "latitude": 41.296853,
        "longitude": 72.789146
    },
    {
        "name": "Shaty",
        "country": "Kyrgyzstan",
        "province": "Issyk-Kul",
        "population": -1,
        "latitude": 42.786003,
        "longitude": 78.385637
    },
    {
        "name": "Shankol",
        "country": "Kyrgyzstan",
        "province": "Osh",
        "population": -1,
        "latitude": 40.228025,
        "longitude": 72.749371
    },
    {
        "name": "Shamshy",
        "country": "Kyrgyzstan",
        "province": "Chüy",
        "population": -1,
        "latitude": 42.698048,
        "longitude": 75.362977
    },
    {
        "name": "Shamsi",
        "country": "Kyrgyzstan",
        "province": "Naryn",
        "population": -1,
        "latitude": 42.313007,
        "longitude": 75.432619
    },
    {
        "name": "Shamshaly",
        "country": "Kyrgyzstan",
        "province": "Osh",
        "population": -1,
        "latitude": 40.154541,
        "longitude": 72.647443
    },
    {
        "name": "Shamalyk",
        "country": "Kyrgyzstan",
        "province": "Kyrgyzstan",
        "population": -1,
        "latitude": 41.5166667,
        "longitude": 72.6833333
    },
    {
        "name": "Shamal-Terek",
        "country": "Kyrgyzstan",
        "province": "Osh",
        "population": -1,
        "latitude": 40.794444,
        "longitude": 73.576115
    },
    {
        "name": "Shamaldy-Say",
        "country": "Kyrgyzstan",
        "province": "Jalal-Abad",
        "population": -1,
        "latitude": 41.200603,
        "longitude": 72.178867
    },
    {
        "name": "Shaldyr",
        "country": "Kyrgyzstan",
        "province": "Jalal-Abad",
        "population": -1,
        "latitude": 41.461322,
        "longitude": 71.225445
    },
    {
        "name": "Semënovka",
        "country": "Kyrgyzstan",
        "province": "Issyk-Kul",
        "population": -1,
        "latitude": 42.722849,
        "longitude": 77.554819
    },
    {
        "name": "Saylyk",
        "country": "Kyrgyzstan",
        "province": "Chüy",
        "population": -1,
        "latitude": 42.808451,
        "longitude": 75.379373
    },
    {
        "name": "Savay",
        "country": "Kyrgyzstan",
        "province": "Osh",
        "population": -1,
        "latitude": 40.746998,
        "longitude": 72.978622
    },
    {
        "name": "Sassyk",
        "country": "Kyrgyzstan",
        "province": "Kyrgyzstan",
        "population": -1,
        "latitude": 40.7833333,
        "longitude": 73.45
    },
    {
        "name": "Sary-Döbö",
        "country": "Kyrgyzstan",
        "province": "Issyk-Kul",
        "population": -1,
        "latitude": 42.730879,
        "longitude": 78.473089
    },
    {
        "name": "Sarybulun",
        "country": "Kyrgyzstan",
        "province": "Naryn",
        "population": -1,
        "latitude": 41.740038,
        "longitude": 74.281213
    },
    {
        "name": "Sary-Bulak",
        "country": "Kyrgyzstan",
        "province": "Jalal-Abad",
        "population": -1,
        "latitude": 41.161539,
        "longitude": 73.197189
    },
    {
        "name": "Oktyabrdyn On Besh Jyldygy",
        "country": "Kyrgyzstan",
        "province": "Osh",
        "population": -1,
        "latitude": 40.88399,
        "longitude": 73.81571
    },
    {
        "name": "Saruu",
        "country": "Kyrgyzstan",
        "province": "Issyk-Kul",
        "population": -1,
        "latitude": 42.321959,
        "longitude": 77.922499
    },
    {
        "name": "Sarkisar",
        "country": "Kyrgyzstan",
        "province": "Kyrgyzstan",
        "population": -1,
        "latitude": 40.33197,
        "longitude": 73.202775
    },
    {
        "name": "Sarbagysh",
        "country": "Kyrgyzstan",
        "province": "Kyrgyzstan",
        "population": -1,
        "latitude": 42.81801,
        "longitude": 75.58109
    },
    {
        "name": "Sargata",
        "country": "Kyrgyzstan",
        "province": "Jalal-Abad",
        "population": -1,
        "latitude": 41.73412,
        "longitude": 73.201102
    },
    {
        "name": "Kara-Chungkur",
        "country": "Kyrgyzstan",
        "province": "Issyk-Kul",
        "population": -1,
        "latitude": 42.754911,
        "longitude": 78.694554
    },
    {
        "name": "Samansur",
        "country": "Kyrgyzstan",
        "province": "Chüy",
        "population": -1,
        "latitude": 42.780348,
        "longitude": 75.510299
    },
    {
        "name": "Sagyzkandyk",
        "country": "Kyrgyzstan",
        "province": "Jalal-Abad",
        "population": -1,
        "latitude": 41.976912,
        "longitude": 72.495932
    },
    {
        "name": "Romanovka",
        "country": "Kyrgyzstan",
        "province": "Chüy",
        "population": -1,
        "latitude": 42.866667,
        "longitude": 74.333333
    },
    {
        "name": "Besh-Burkhan",
        "country": "Kyrgyzstan",
        "province": "Osh",
        "population": -1,
        "latitude": 40.198233,
        "longitude": 72.250522
    },
    {
        "name": "Pristan’ Przheval’sk",
        "country": "Kyrgyzstan",
        "province": "Issyk-Kul",
        "population": -1,
        "latitude": 42.57382,
        "longitude": 78.31029
    },
    {
        "name": "Pokrovka",
        "country": "Kyrgyzstan",
        "province": "Talas",
        "population": 8522,
        "latitude": 42.736202,
        "longitude": 71.609818
    },
    {
        "name": "Kurpak-Korgon",
        "country": "Kyrgyzstan",
        "province": "Jalal-Abad",
        "population": -1,
        "latitude": 40.965519,
        "longitude": 72.650095
    },
    {
        "name": "Petrovka",
        "country": "Kyrgyzstan",
        "province": "Chüy",
        "population": -1,
        "latitude": 42.83974,
        "longitude": 74.015517
    },
    {
        "name": "Pervomayskoye",
        "country": "Kyrgyzstan",
        "province": "Chüy",
        "population": -1,
        "latitude": 42.797419,
        "longitude": 75.001898
    },
    {
        "name": "Papan",
        "country": "Kyrgyzstan",
        "province": "Osh",
        "population": -1,
        "latitude": 40.298854,
        "longitude": 72.988046
    },
    {
        "name": "Panfilovskoye",
        "country": "Kyrgyzstan",
        "province": "Chüy",
        "population": -1,
        "latitude": 42.790602,
        "longitude": 73.681434
    },
    {
        "name": "Kara-Dyjkan",
        "country": "Kyrgyzstan",
        "province": "Osh",
        "population": -1,
        "latitude": 40.786813,
        "longitude": 73.368704
    },
    {
        "name": "Pakyr-Abad",
        "country": "Kyrgyzstan",
        "province": "Kyrgyzstan",
        "population": -1,
        "latitude": 40.5833333,
        "longitude": 72.9833333
    },
    {
        "name": "Oytal",
        "country": "Kyrgyzstan",
        "province": "Issyk-Kul",
        "population": -1,
        "latitude": 42.74162,
        "longitude": 78.01542
    },
    {
        "name": "Oytal",
        "country": "Kyrgyzstan",
        "province": "Osh",
        "population": -1,
        "latitude": 40.421189,
        "longitude": 74.111054
    },
    {
        "name": "Otuzul",
        "country": "Kyrgyzstan",
        "province": "Issyk-Kul",
        "population": -1,
        "latitude": 42.543442,
        "longitude": 78.475439
    },
    {
        "name": "Orto-Tokoy",
        "country": "Kyrgyzstan",
        "province": "Issyk-Kul",
        "population": -1,
        "latitude": 42.342262,
        "longitude": 76.021011
    },
    {
        "name": "Bashky-Terek",
        "country": "Kyrgyzstan",
        "province": "Jalal-Abad",
        "population": -1,
        "latitude": 41.947985,
        "longitude": 71.368509
    },
    {
        "name": "Ortok",
        "country": "Kyrgyzstan",
        "province": "Naryn",
        "population": -1,
        "latitude": 42.201716,
        "longitude": 75.364594
    },
    {
        "name": "Orlovka",
        "country": "Kyrgyzstan",
        "province": "Chüy",
        "population": -1,
        "latitude": 42.747073,
        "longitude": 75.592246
    },
    {
        "name": "Orlinoye",
        "country": "Kyrgyzstan",
        "province": "Issyk-Kul",
        "population": -1,
        "latitude": 42.602534,
        "longitude": 78.554235
    },
    {
        "name": "Ak-Döbö",
        "country": "Kyrgyzstan",
        "province": "Talas",
        "population": -1,
        "latitude": 42.546785,
        "longitude": 71.952094
    },
    {
        "name": "Oktyabr’skoye",
        "country": "Kyrgyzstan",
        "province": "Osh",
        "population": -1,
        "latitude": 40.681435,
        "longitude": 73.442821
    },
    {
        "name": "Shabdan",
        "country": "Kyrgyzstan",
        "province": "Chüy",
        "population": -1,
        "latitude": 42.733025,
        "longitude": 76.075758
    },
    {
        "name": "Novopokrovka",
        "country": "Kyrgyzstan",
        "province": "Chüy",
        "population": -1,
        "latitude": 42.868644,
        "longitude": 74.736827
    },
    {
        "name": "Novomikhaylovka",
        "country": "Kyrgyzstan",
        "province": "Chüy",
        "population": -1,
        "latitude": 42.822905,
        "longitude": 75.561514
    },
    {
        "name": "Konstantinovka",
        "country": "Kyrgyzstan",
        "province": "Issyk-Kul",
        "population": -1,
        "latitude": 42.550801,
        "longitude": 78.672726
    },
    {
        "name": "Nichke",
        "country": "Kyrgyzstan",
        "province": "Jalal-Abad",
        "population": -1,
        "latitude": 41.692868,
        "longitude": 73.467307
    },
    {
        "name": "Nayman",
        "country": "Kyrgyzstan",
        "province": "Osh",
        "population": -1,
        "latitude": 40.320299,
        "longitude": 72.34653
    },
    {
        "name": "Dzhiydalik",
        "country": "Kyrgyzstan",
        "province": "Osh City",
        "population": -1,
        "latitude": 40.553915,
        "longitude": 72.790603
    },
    {
        "name": "Mykan",
        "country": "Kyrgyzstan",
        "province": "Chüy",
        "population": -1,
        "latitude": 42.933889,
        "longitude": 74.65384
    },
    {
        "name": "Merkit",
        "country": "Kyrgyzstan",
        "province": "Osh",
        "population": -1,
        "latitude": 40.30401,
        "longitude": 72.20893
    },
    {
        "name": "Murdash",
        "country": "Kyrgyzstan",
        "province": "Osh",
        "population": -1,
        "latitude": 40.15628,
        "longitude": 73.462056
    },
    {
        "name": "Mukur",
        "country": "Kyrgyzstan",
        "province": "Jalal-Abad",
        "population": -1,
        "latitude": 41.614325,
        "longitude": 71.889585
    },
    {
        "name": "Mirza-Ake",
        "country": "Kyrgyzstan",
        "province": "Osh",
        "population": -1,
        "latitude": 40.752945,
        "longitude": 73.415272
    },
    {
        "name": "Min-Kush",
        "country": "Kyrgyzstan",
        "province": "Naryn",
        "population": -1,
        "latitude": 41.674176,
        "longitude": 74.458524
    },
    {
        "name": "Milyanfan",
        "country": "Kyrgyzstan",
        "province": "Chüy",
        "population": -1,
        "latitude": 42.9668,
        "longitude": 74.790051
    },
    {
        "name": "Birinchi May",
        "country": "Kyrgyzstan",
        "province": "Jalal-Abad",
        "population": -1,
        "latitude": 41.093332,
        "longitude": 72.764536
    },
    {
        "name": "Mazar-Bulak",
        "country": "Kyrgyzstan",
        "province": "Kyrgyzstan",
        "population": -1,
        "latitude": 40.38431,
        "longitude": 73.41279
    },
    {
        "name": "Mayli-Say",
        "country": "Kyrgyzstan",
        "province": "Jalal-Abad",
        "population": -1,
        "latitude": 41.25297,
        "longitude": 72.4599
    },
    {
        "name": "Maydan",
        "country": "Kyrgyzstan",
        "province": "Batken",
        "population": -1,
        "latitude": 40.061951,
        "longitude": 72.087462
    },
    {
        "name": "Margun",
        "country": "Kyrgyzstan",
        "province": "Kyrgyzstan",
        "population": -1,
        "latitude": 40.02607,
        "longitude": 69.94446
    },
    {
        "name": "Mangit",
        "country": "Kyrgyzstan",
        "province": "Osh",
        "population": -1,
        "latitude": 40.463684,
        "longitude": 72.559171
    },
    {
        "name": "Mundus",
        "country": "Kyrgyzstan",
        "province": "Jalal-Abad",
        "population": -1,
        "latitude": 41.441008,
        "longitude": 71.927943
    },
    {
        "name": "Mama-Sady",
        "country": "Kyrgyzstan",
        "province": "Kyrgyzstan",
        "population": -1,
        "latitude": 41.06554,
        "longitude": 73.05445
    },
    {
        "name": "Malovodnoye",
        "country": "Kyrgyzstan",
        "province": "Chüy",
        "population": -1,
        "latitude": 42.842115,
        "longitude": 74.381148
    },
    {
        "name": "Kara-Cholok",
        "country": "Kyrgyzstan",
        "province": "Jalal-Abad",
        "population": -1,
        "latitude": 41.124718,
        "longitude": 73.288587
    },
    {
        "name": "Laglan",
        "country": "Kyrgyzstan",
        "province": "Osh",
        "population": -1,
        "latitude": 40.278656,
        "longitude": 73.097866
    },
    {
        "name": "Lugovoye",
        "country": "Kyrgyzstan",
        "province": "Issyk-Kul",
        "population": -1,
        "latitude": 42.773236,
        "longitude": 78.295407
    },
    {
        "name": "Lipenka",
        "country": "Kyrgyzstan",
        "province": "Issyk-Kul",
        "population": -1,
        "latitude": 42.52285,
        "longitude": 78.204147
    },
    {
        "name": "Ylay-Tala",
        "country": "Kyrgyzstan",
        "province": "Osh",
        "population": -1,
        "latitude": 40.590285,
        "longitude": 73.597521
    },
    {
        "name": "Layli-Su",
        "country": "Kyrgyzstan",
        "province": "Naryn",
        "population": -1,
        "latitude": 41.467695,
        "longitude": 75.520497
    },
    {
        "name": "Kyzymchek-Karakash",
        "country": "Kyrgyzstan",
        "province": "Kyrgyzstan",
        "population": -1,
        "latitude": 40.35,
        "longitude": 73.4833333
    },
    {
        "name": "Kyzylzhildyz",
        "country": "Kyrgyzstan",
        "province": "Kyrgyzstan",
        "population": -1,
        "latitude": 41.6666667,
        "longitude": 73.4166667
    },
    {
        "name": "Kyzyl-Özgörüsh",
        "country": "Kyrgyzstan",
        "province": "Jalal-Abad",
        "population": -1,
        "latitude": 41.64927,
        "longitude": 73.415687
    },
    {
        "name": "Kyzyl-Uraan",
        "country": "Kyrgyzstan",
        "province": "Jalal-Abad",
        "population": -1,
        "latitude": 41.700223,
        "longitude": 73.300859
    },
    {
        "name": "Kyzyl-Unkyur",
        "country": "Kyrgyzstan",
        "province": "Jalal-Abad",
        "population": -1,
        "latitude": 41.363061,
        "longitude": 73.071396
    },
    {
        "name": "Kyzyl-Tokoy",
        "country": "Kyrgyzstan",
        "province": "Jalal-Abad",
        "population": -1,
        "latitude": 41.38473,
        "longitude": 71.328099
    },
    {
        "name": "Kyzyltyube",
        "country": "Kyrgyzstan",
        "province": "Naryn",
        "population": -1,
        "latitude": 42.202048,
        "longitude": 75.265581
    },
    {
        "name": "Kyzyl-Tana",
        "country": "Kyrgyzstan",
        "province": "Kyrgyzstan",
        "population": -1,
        "latitude": 40.35,
        "longitude": 73.3833333
    },
    {
        "name": "Kyzyl-Sengir",
        "country": "Kyrgyzstan",
        "province": "Osh",
        "population": -1,
        "latitude": 40.643779,
        "longitude": 73.142882
    },
    {
        "name": "Kyzyl oi",
        "country": "Kyrgyzstan",
        "province": "Naryn",
        "population": -1,
        "latitude": 41.952086,
        "longitude": 74.163211
    },
    {
        "name": "Kyzyl-Oktyabr’",
        "country": "Kyrgyzstan",
        "province": "Osh",
        "population": -1,
        "latitude": 40.257595,
        "longitude": 73.585475
    },
    {
        "name": "Kyzylkurgan",
        "country": "Kyrgyzstan",
        "province": "Naryn",
        "population": -1,
        "latitude": 41.727299,
        "longitude": 74.18912
    },
    {
        "name": "Kyzyl-Korgon",
        "country": "Kyrgyzstan",
        "province": "Osh",
        "population": -1,
        "latitude": 40.187498,
        "longitude": 73.486136
    },
    {
        "name": "Kyzyldzhildyz",
        "country": "Kyrgyzstan",
        "province": "Issyk-Kul",
        "population": -1,
        "latitude": 42.733333,
        "longitude": 78.066667
    },
    {
        "name": "Kara-Jygach",
        "country": "Kyrgyzstan",
        "province": "Jalal-Abad",
        "population": -1,
        "latitude": 41.79064,
        "longitude": 73.282027
    },
    {
        "name": "Kyzyl-Dzhar",
        "country": "Kyrgyzstan",
        "province": "Jalal-Abad",
        "population": -1,
        "latitude": 41.274038,
        "longitude": 72.005625
    },
    {
        "name": "Kyzyldzhar",
        "country": "Kyrgyzstan",
        "province": "Osh",
        "population": -1,
        "latitude": 40.301362,
        "longitude": 74.249407
    },
    {
        "name": "Kyzyl-Bulak",
        "country": "Kyrgyzstan",
        "province": "Osh",
        "population": -1,
        "latitude": 40.225227,
        "longitude": 72.281148
    },
    {
        "name": "Kyzylbiit",
        "country": "Kyrgyzstan",
        "province": "Jalal-Abad",
        "population": -1,
        "latitude": 41.544482,
        "longitude": 72.409424
    },
    {
        "name": "Kyzyl-Bayrak",
        "country": "Kyrgyzstan",
        "province": "Chüy",
        "population": -1,
        "latitude": 42.714929,
        "longitude": 76.03153
    },
    {
        "name": "Kuturgan",
        "country": "Kyrgyzstan",
        "province": "Osh",
        "population": -1,
        "latitude": 40.9117,
        "longitude": 73.503535
    },
    {
        "name": "Kuturgu",
        "country": "Kyrgyzstan",
        "province": "Issyk-Kul",
        "population": -1,
        "latitude": 42.751464,
        "longitude": 78.12218
    },
    {
        "name": "Ken-Say",
        "country": "Kyrgyzstan",
        "province": "Osh",
        "population": -1,
        "latitude": 40.705936,
        "longitude": 72.906221
    },
    {
        "name": "Aral-Dal’niy",
        "country": "Kyrgyzstan",
        "province": "Chüy",
        "population": -1,
        "latitude": 42.904438,
        "longitude": 74.251721
    },
    {
        "name": "Kurnsay",
        "country": "Kyrgyzstan",
        "province": "Jalal-Abad",
        "population": -1,
        "latitude": 41.48669,
        "longitude": 72.33854
    },
    {
        "name": "Kurmenty",
        "country": "Kyrgyzstan",
        "province": "Issyk-Kul",
        "population": -1,
        "latitude": 42.791816,
        "longitude": 78.247371
    },
    {
        "name": "Kur-Kol",
        "country": "Kyrgyzstan",
        "province": "Kyrgyzstan",
        "population": -1,
        "latitude": 40.25,
        "longitude": 72.3333333
    },
    {
        "name": "Kurbu",
        "country": "Kyrgyzstan",
        "province": "Issyk-Kul",
        "population": -1,
        "latitude": 42.623272,
        "longitude": 78.391655
    },
    {
        "name": "Kurbantal-Mady",
        "country": "Kyrgyzstan",
        "province": "Kyrgyzstan",
        "population": -1,
        "latitude": 40.5833333,
        "longitude": 72.9166667
    },
    {
        "name": "Gologon",
        "country": "Kyrgyzstan",
        "province": "Jalal-Abad",
        "population": -1,
        "latitude": 41.117072,
        "longitude": 72.723368
    },
    {
        "name": "Kolot",
        "country": "Kyrgyzstan",
        "province": "Jalal-Abad",
        "population": -1,
        "latitude": 40.983274,
        "longitude": 72.777404
    },
    {
        "name": "Kulanak",
        "country": "Kyrgyzstan",
        "province": "Naryn",
        "population": -1,
        "latitude": 41.362372,
        "longitude": 75.506064
    },
    {
        "name": "Kuk-Karga",
        "country": "Kyrgyzstan",
        "province": "Osh",
        "population": -1,
        "latitude": 40.321724,
        "longitude": 72.372083
    },
    {
        "name": "Kurankol",
        "country": "Kyrgyzstan",
        "province": "Osh",
        "population": -1,
        "latitude": 40.321295,
        "longitude": 73.044558
    },
    {
        "name": "Krasnyy Most",
        "country": "Kyrgyzstan",
        "province": "Chüy",
        "population": -1,
        "latitude": 42.598449,
        "longitude": 75.814077
    },
    {
        "name": "Krasnaya Rechka",
        "country": "Kyrgyzstan",
        "province": "Chüy",
        "population": -1,
        "latitude": 42.901402,
        "longitude": 74.976485
    },
    {
        "name": "Dzhanyaryk",
        "country": "Kyrgyzstan",
        "province": "Jalal-Abad",
        "population": -1,
        "latitude": 41.81105,
        "longitude": 72.734949
    },
    {
        "name": "Kosh-Köl",
        "country": "Kyrgyzstan",
        "province": "Issyk-Kul",
        "population": -1,
        "latitude": 42.540469,
        "longitude": 76.613876
    },
    {
        "name": "Kachkynchy",
        "country": "Kyrgyzstan",
        "province": "Jalal-Abad",
        "population": -1,
        "latitude": 41.013853,
        "longitude": 73.031829
    },
    {
        "name": "Kosh-Bulak",
        "country": "Kyrgyzstan",
        "province": "Jalal-Abad",
        "population": -1,
        "latitude": 41.466095,
        "longitude": 74.399369
    },
    {
        "name": "Koshbulak",
        "country": "Kyrgyzstan",
        "province": "Kyrgyzstan",
        "population": -1,
        "latitude": 40.818095,
        "longitude": 73.585298
    },
    {
        "name": "Korumdy",
        "country": "Kyrgyzstan",
        "province": "Issyk-Kul",
        "population": -1,
        "latitude": 42.691425,
        "longitude": 77.349266
    },
    {
        "name": "Kopurbashi",
        "country": "Kyrgyzstan",
        "province": "Kyrgyzstan",
        "population": -1,
        "latitude": 40.342749,
        "longitude": 72.617332
    },
    {
        "name": "Kaynar",
        "country": "Kyrgyzstan",
        "province": "Naryn",
        "population": -1,
        "latitude": 42.264935,
        "longitude": 75.584651
    },
    {
        "name": "Konorchok",
        "country": "Kyrgyzstan",
        "province": "Naryn",
        "population": -1,
        "latitude": 41.250076,
        "longitude": 74.600274
    },
    {
        "name": "Kol’tor",
        "country": "Kyrgyzstan",
        "province": "Naryn",
        "population": -1,
        "latitude": 42.307899,
        "longitude": 75.484518
    },
    {
        "name": "Kolba",
        "country": "Kyrgyzstan",
        "province": "Talas",
        "population": -1,
        "latitude": 42.451434,
        "longitude": 72.398394
    },
    {
        "name": "Madaniyat",
        "country": "Kyrgyzstan",
        "province": "Osh",
        "population": -1,
        "latitude": 40.590413,
        "longitude": 72.866739
    },
    {
        "name": "Kok-Yangak",
        "country": "Kyrgyzstan",
        "province": "Jalal-Abad",
        "population": -1,
        "latitude": 41.03026,
        "longitude": 73.196133
    },
    {
        "name": "Kok-Tundy",
        "country": "Kyrgyzstan",
        "province": "Kyrgyzstan",
        "population": -1,
        "latitude": 40.8333333,
        "longitude": 73.6166667
    },
    {
        "name": "Kektash",
        "country": "Kyrgyzstan",
        "province": "Jalal-Abad",
        "population": -1,
        "latitude": 41.195276,
        "longitude": 71.033709
    },
    {
        "name": "Këk-Dzhar",
        "country": "Kyrgyzstan",
        "province": "Osh",
        "population": -1,
        "latitude": 40.304706,
        "longitude": 72.369156
    },
    {
        "name": "Kok-Aryk",
        "country": "Kyrgyzstan",
        "province": "Talas",
        "population": -1,
        "latitude": 42.416667,
        "longitude": 72.666667
    },
    {
        "name": "Kara-Too",
        "country": "Kyrgyzstan",
        "province": "Naryn",
        "population": -1,
        "latitude": 42.236834,
        "longitude": 75.743663
    },
    {
        "name": "Klozin",
        "country": "Kyrgyzstan",
        "province": "Kyrgyzstan",
        "population": -1,
        "latitude": 40.47343,
        "longitude": 73.62973
    },
    {
        "name": "Kyzyl-Ata",
        "country": "Kyrgyzstan",
        "province": "Jalal-Abad",
        "population": -1,
        "latitude": 41.43123,
        "longitude": 71.536774
    },
    {
        "name": "Komsomol’skoye",
        "country": "Kyrgyzstan",
        "province": "Issyk-Kul",
        "population": -1,
        "latitude": 42.475537,
        "longitude": 78.238294
    },
    {
        "name": "Kirgiz-Gava",
        "country": "Kyrgyzstan",
        "province": "Jalal-Abad",
        "population": -1,
        "latitude": 41.156259,
        "longitude": 72.887439
    },
    {
        "name": "Kichi-Uryukty",
        "country": "Kyrgyzstan",
        "province": "Issyk-Kul",
        "population": -1,
        "latitude": 42.746952,
        "longitude": 77.981913
    },
    {
        "name": "Kichitaldyk",
        "country": "Kyrgyzstan",
        "province": "Kyrgyzstan",
        "population": -1,
        "latitude": 40.34255,
        "longitude": 73.14225
    },
    {
        "name": "Kichik-Alay",
        "country": "Kyrgyzstan",
        "province": "Kyrgyzstan",
        "population": -1,
        "latitude": 40.02492,
        "longitude": 72.92162
    },
    {
        "name": "Kichi-Dzhargylchak",
        "country": "Kyrgyzstan",
        "province": "Issyk-Kul",
        "population": -1,
        "latitude": 42.205319,
        "longitude": 77.693323
    },
    {
        "name": "Kichi-Byulëlyu",
        "country": "Kyrgyzstan",
        "province": "Osh",
        "population": -1,
        "latitude": 40.196295,
        "longitude": 73.633819
    },
    {
        "name": "Khadzhir-Abad",
        "country": "Kyrgyzstan",
        "province": "Jalal-Abad",
        "population": -1,
        "latitude": 40.946098,
        "longitude": 72.621825
    },
    {
        "name": "Kozho Korum",
        "country": "Kyrgyzstan",
        "province": "Batken",
        "population": -1,
        "latitude": 40.097136,
        "longitude": 71.321162
    },
    {
        "name": "Kyzyl-Tuu",
        "country": "Kyrgyzstan",
        "province": "Jalal-Abad",
        "population": -1,
        "latitude": 41.67338,
        "longitude": 72.024284
    },
    {
        "name": "Kodzho-Aryk",
        "country": "Kyrgyzstan",
        "province": "Osh",
        "population": -1,
        "latitude": 40.250087,
        "longitude": 72.329212
    },
    {
        "name": "Khodzhaaryk",
        "country": "Kyrgyzstan",
        "province": "Kyrgyzstan",
        "population": -1,
        "latitude": 40.16845,
        "longitude": 72.36136
    },
    {
        "name": "Khodyrsha-Mugal’",
        "country": "Kyrgyzstan",
        "province": "Kyrgyzstan",
        "population": -1,
        "latitude": 40.733333,
        "longitude": 73.1
    },
    {
        "name": "Këtërme",
        "country": "Kyrgyzstan",
        "province": "Osh",
        "population": -1,
        "latitude": 40.317054,
        "longitude": 72.358118
    },
    {
        "name": "Kesek",
        "country": "Kyrgyzstan",
        "province": "Osh",
        "population": -1,
        "latitude": 40.44671,
        "longitude": 72.582195
    },
    {
        "name": "Kerkidan",
        "country": "Kyrgyzstan",
        "province": "Osh",
        "population": -1,
        "latitude": 40.397566,
        "longitude": 72.095284
    },
    {
        "name": "Kensu",
        "country": "Kyrgyzstan",
        "province": "Naryn",
        "population": -1,
        "latitude": 41.745385,
        "longitude": 74.076644
    },
    {
        "name": "Ken-Dzhylga",
        "country": "Kyrgyzstan",
        "province": "Osh",
        "population": -1,
        "latitude": 40.384639,
        "longitude": 73.484481
    },
    {
        "name": "Ken-Bulun",
        "country": "Kyrgyzstan",
        "province": "Chüy",
        "population": -1,
        "latitude": 42.872743,
        "longitude": 75.131775
    },
    {
        "name": "Kël’",
        "country": "Kyrgyzstan",
        "province": "Kyrgyzstan",
        "population": -1,
        "latitude": 40.25287,
        "longitude": 73.210919
    },
    {
        "name": "Koktyube",
        "country": "Kyrgyzstan",
        "province": "Issyk-Kul",
        "population": -1,
        "latitude": 42.777428,
        "longitude": 77.621574
    },
    {
        "name": "Sovkhoz Këk-Say",
        "country": "Kyrgyzstan",
        "province": "Talas",
        "population": -1,
        "latitude": 42.505998,
        "longitude": 71.118863
    },
    {
        "name": "Këkoy",
        "country": "Kyrgyzstan",
        "province": "Naryn",
        "population": -1,
        "latitude": 41.882938,
        "longitude": 74.422014
    },
    {
        "name": "Kogoy",
        "country": "Kyrgyzstan",
        "province": "Naryn",
        "population": -1,
        "latitude": 41.493277,
        "longitude": 75.142059
    },
    {
        "name": "Aral",
        "country": "Kyrgyzstan",
        "province": "Jalal-Abad",
        "population": -1,
        "latitude": 41.395816,
        "longitude": 73.890489
    },
    {
        "name": "Isanov",
        "country": "Kyrgyzstan",
        "province": "Osh",
        "population": -1,
        "latitude": 40.262944,
        "longitude": 72.922924
    },
    {
        "name": "Keglatar",
        "country": "Kyrgyzstan",
        "province": "Kyrgyzstan",
        "population": -1,
        "latitude": 40.87255,
        "longitude": 73.69226
    },
    {
        "name": "Kegeti",
        "country": "Kyrgyzstan",
        "province": "Chüy",
        "population": -1,
        "latitude": 42.693621,
        "longitude": 75.179775
    },
    {
        "name": "Kaz",
        "country": "Kyrgyzstan",
        "province": "Kyrgyzstan",
        "population": -1,
        "latitude": 41.41426,
        "longitude": 72.1864
    },
    {
        "name": "Kayragach",
        "country": "Kyrgyzstan",
        "province": "Batken",
        "population": -1,
        "latitude": 40.051521,
        "longitude": 69.742564
    },
    {
        "name": "Kairma",
        "country": "Kyrgyzstan",
        "province": "Naryn",
        "population": -1,
        "latitude": 41.991997,
        "longitude": 74.58231
    },
    {
        "name": "Katyrantash",
        "country": "Kyrgyzstan",
        "province": "Kyrgyzstan",
        "population": -1,
        "latitude": 40.2666667,
        "longitude": 73.6
    },
    {
        "name": "Kashka-Terek",
        "country": "Kyrgyzstan",
        "province": "Osh",
        "population": -1,
        "latitude": 40.774591,
        "longitude": 73.209152
    },
    {
        "name": "Kashkaldak",
        "country": "Kyrgyzstan",
        "province": "Kyrgyzstan",
        "population": -1,
        "latitude": 40.2833333,
        "longitude": 72.65
    },
    {
        "name": "Kashat",
        "country": "Kyrgyzstan",
        "province": "Naryn",
        "population": -1,
        "latitude": 42.30995,
        "longitude": 75.448184
    },
    {
        "name": "Karaunkur",
        "country": "Kyrgyzstan",
        "province": "Jalal-Abad",
        "population": -1,
        "latitude": 41.243985,
        "longitude": 71.3845
    },
    {
        "name": "Kara-Döbö",
        "country": "Kyrgyzstan",
        "province": "Chüy",
        "population": -1,
        "latitude": 42.785723,
        "longitude": 75.44765
    },
    {
        "name": "Karakel’",
        "country": "Kyrgyzstan",
        "province": "Jalal-Abad",
        "population": -1,
        "latitude": 41.050288,
        "longitude": 72.729785
    },
    {
        "name": "Karaltyube",
        "country": "Kyrgyzstan",
        "province": "Issyk-Kul",
        "population": -1,
        "latitude": 42.771974,
        "longitude": 77.732619
    },
    {
        "name": "Kara-Tash",
        "country": "Kyrgyzstan",
        "province": "Osh",
        "population": -1,
        "latitude": 40.382475,
        "longitude": 73.470954
    },
    {
        "name": "Kara-Tash",
        "country": "Kyrgyzstan",
        "province": "Osh",
        "population": -1,
        "latitude": 40.216488,
        "longitude": 72.624369
    },
    {
        "name": "Karatakhta",
        "country": "Kyrgyzstan",
        "province": "Kyrgyzstan",
        "population": -1,
        "latitude": 40.34651,
        "longitude": 73.58291
    },
    {
        "name": "Karanay",
        "country": "Kyrgyzstan",
        "province": "Osh",
        "population": -1,
        "latitude": 40.304421,
        "longitude": 72.386743
    },
    {
        "name": "Kara-Kungey",
        "country": "Kyrgyzstan",
        "province": "Naryn",
        "population": -1,
        "latitude": 42.203877,
        "longitude": 75.921403
    },
    {
        "name": "Kara-Kyshtak",
        "country": "Kyrgyzstan",
        "province": "Batken",
        "population": -1,
        "latitude": 40.118684,
        "longitude": 72.10046
    },
    {
        "name": "Kara-Kul’",
        "country": "Kyrgyzstan",
        "province": "Jalal-Abad",
        "population": -1,
        "latitude": 41.628283,
        "longitude": 72.670272
    },
    {
        "name": "Kara-Kël’",
        "country": "Kyrgyzstan",
        "province": "Issyk-Kul",
        "population": -1,
        "latitude": 41.236293,
        "longitude": 73.049809
    },
    {
        "name": "Karool",
        "country": "Kyrgyzstan",
        "province": "Osh",
        "population": -1,
        "latitude": 40.736715,
        "longitude": 73.247571
    },
    {
        "name": "Kara-Koktu",
        "country": "Kyrgyzstan",
        "province": "Osh",
        "population": -1,
        "latitude": 40.346333,
        "longitude": 72.614483
    },
    {
        "name": "Kara-Koo",
        "country": "Kyrgyzstan",
        "province": "Issyk-Kul",
        "population": -1,
        "latitude": 42.213526,
        "longitude": 76.629598
    },
    {
        "name": "Karakichi",
        "country": "Kyrgyzstan",
        "province": "Naryn",
        "population": -1,
        "latitude": 41.723931,
        "longitude": 74.795202
    },
    {
        "name": "Kara-Kesmak",
        "country": "Kyrgyzstan",
        "province": "Jalal-Abad",
        "population": -1,
        "latitude": 41.32671,
        "longitude": 71.18233
    },
    {
        "name": "Kara-Gonush",
        "country": "Kyrgyzstan",
        "province": "Kyrgyzstan",
        "population": -1,
        "latitude": 40.4333333,
        "longitude": 73.85
    },
    {
        "name": "Karagain",
        "country": "Kyrgyzstan",
        "province": "Talas",
        "population": -1,
        "latitude": 42.347785,
        "longitude": 72.087692
    },
    {
        "name": "Karadzhilga",
        "country": "Kyrgyzstan",
        "province": "Osh",
        "population": -1,
        "latitude": 40.573145,
        "longitude": 73.649157
    },
    {
        "name": "Kara-Dzhygach",
        "country": "Kyrgyzstan",
        "province": "Batken",
        "population": -1,
        "latitude": 40.122088,
        "longitude": 72.092715
    },
    {
        "name": "Karacha",
        "country": "Kyrgyzstan",
        "province": "Jalal-Abad",
        "population": -1,
        "latitude": 41.085111,
        "longitude": 72.811463
    },
    {
        "name": "Karabulun",
        "country": "Kyrgyzstan",
        "province": "Naryn",
        "population": -1,
        "latitude": 42.246524,
        "longitude": 75.297922
    },
    {
        "name": "Kara-Bulak",
        "country": "Kyrgyzstan",
        "province": "Chüy",
        "population": -1,
        "latitude": 42.798684,
        "longitude": 75.748014
    },
    {
        "name": "Kara-Alma",
        "country": "Kyrgyzstan",
        "province": "Jalal-Abad",
        "population": -1,
        "latitude": 41.204529,
        "longitude": 73.333987
    },
    {
        "name": "Kanysh-Kyya",
        "country": "Kyrgyzstan",
        "province": "Jalal-Abad",
        "population": 4805,
        "latitude": 41.765361,
        "longitude": 71.091813
    },
    {
        "name": "Kantsin",
        "country": "Kyrgyzstan",
        "province": "Kyrgyzstan",
        "population": -1,
        "latitude": 40.081933,
        "longitude": 70.796978
    },
    {
        "name": "Kampyr-Ravat",
        "country": "Kyrgyzstan",
        "province": "Kyrgyzstan",
        "population": -1,
        "latitude": 40.7833333,
        "longitude": 73.1333333
    },
    {
        "name": "Jarkynbaev",
        "country": "Kyrgyzstan",
        "province": "Issyk-Kul",
        "population": -1,
        "latitude": 42.738358,
        "longitude": 77.752775
    },
    {
        "name": "Yangak",
        "country": "Kyrgyzstan",
        "province": "Batken",
        "population": -1,
        "latitude": 40.134032,
        "longitude": 71.450385
    },
    {
        "name": "Yntymak",
        "country": "Kyrgyzstan",
        "province": "Talas",
        "population": -1,
        "latitude": 42.475611,
        "longitude": 72.100349
    },
    {
        "name": "Kalday",
        "country": "Kyrgyzstan",
        "province": "Osh",
        "population": -1,
        "latitude": 40.057757,
        "longitude": 72.604001
    },
    {
        "name": "Kara-Tyt",
        "country": "Kyrgyzstan",
        "province": "Jalal-Abad",
        "population": -1,
        "latitude": 41.451418,
        "longitude": 72.193647
    },
    {
        "name": "Kaindy",
        "country": "Kyrgyzstan",
        "province": "Chüy",
        "population": -1,
        "latitude": 42.744427,
        "longitude": 76.156984
    },
    {
        "name": "Itsay",
        "country": "Kyrgyzstan",
        "province": "Jalal-Abad",
        "population": -1,
        "latitude": 41.641223,
        "longitude": 72.515381
    },
    {
        "name": "Erke-Kashka",
        "country": "Kyrgyzstan",
        "province": "Osh",
        "population": -1,
        "latitude": 40.549476,
        "longitude": 72.441354
    },
    {
        "name": "Iri-su",
        "country": "Kyrgyzstan",
        "province": "Kyrgyzstan",
        "population": -1,
        "latitude": 40.47979,
        "longitude": 73.42064
    },
    {
        "name": "Yrdyk",
        "country": "Kyrgyzstan",
        "province": "Issyk-Kul",
        "population": -1,
        "latitude": 42.45926,
        "longitude": 78.300626
    },
    {
        "name": "Dzher-Uy",
        "country": "Kyrgyzstan",
        "province": "Issyk-Kul",
        "population": -1,
        "latitude": 42.072246,
        "longitude": 76.854193
    },
    {
        "name": "Birlik",
        "country": "Kyrgyzstan",
        "province": "Issyk-Kul",
        "population": -1,
        "latitude": 42.740292,
        "longitude": 78.433921
    },
    {
        "name": "Imeni Molotova",
        "country": "Kyrgyzstan",
        "province": "Kyrgyzstan",
        "population": -1,
        "latitude": 40.8833333,
        "longitude": 73.5
    },
    {
        "name": "Temen-Suu",
        "country": "Kyrgyzstan",
        "province": "Chüy",
        "population": -1,
        "latitude": 42.69698,
        "longitude": 74.02227
    },
    {
        "name": "Sugat",
        "country": "Kyrgyzstan",
        "province": "Jalal-Abad",
        "population": -1,
        "latitude": 41.936671,
        "longitude": 72.673123
    },
    {
        "name": "Imeni Kalinina",
        "country": "Kyrgyzstan",
        "province": "Osh",
        "population": -1,
        "latitude": 40.327281,
        "longitude": 74.428909
    },
    {
        "name": "Il’ichyovskoe",
        "country": "Kyrgyzstan",
        "province": "Chüy",
        "population": -1,
        "latitude": 42.788045,
        "longitude": 76.003691
    },
    {
        "name": "Imeni Fëdorova",
        "country": "Kyrgyzstan",
        "province": "Kyrgyzstan",
        "population": -1,
        "latitude": 40.2,
        "longitude": 73.5333333
    },
    {
        "name": "Imeni Chapayeva",
        "country": "Kyrgyzstan",
        "province": "Osh",
        "population": -1,
        "latitude": 40.277343,
        "longitude": 72.638275
    },
    {
        "name": "Aral",
        "country": "Kyrgyzstan",
        "province": "Issyk-Kul",
        "population": -1,
        "latitude": 42.724512,
        "longitude": 78.543062
    },
    {
        "name": "Ichke-Jergez",
        "country": "Kyrgyzstan",
        "province": "Issyk-Kul",
        "population": -1,
        "latitude": 42.54339,
        "longitude": 78.711875
    },
    {
        "name": "Ichkebash",
        "country": "Kyrgyzstan",
        "province": "Naryn",
        "population": -1,
        "latitude": 41.569688,
        "longitude": 75.899242
    },
    {
        "name": "Groznoye",
        "country": "Kyrgyzstan",
        "province": "Talas",
        "population": -1,
        "latitude": 42.6,
        "longitude": 71.2
    },
    {
        "name": "Grigor’yevka",
        "country": "Kyrgyzstan",
        "province": "Issyk-Kul",
        "population": -1,
        "latitude": 42.71823,
        "longitude": 77.48403
    },
    {
        "name": "Gerait-Shoron",
        "country": "Kyrgyzstan",
        "province": "Osh",
        "population": -1,
        "latitude": 40.292666,
        "longitude": 72.226847
    },
    {
        "name": "Kadamjay",
        "country": "Kyrgyzstan",
        "province": "Batken",
        "population": -1,
        "latitude": 40.12767,
        "longitude": 71.72351
    },
    {
        "name": "Erkintoo",
        "country": "Kyrgyzstan",
        "province": "Kyrgyzstan",
        "population": -1,
        "latitude": 40.45,
        "longitude": 73.3
    },
    {
        "name": "Epkin",
        "country": "Kyrgyzstan",
        "province": "Naryn",
        "population": -1,
        "latitude": 42.176313,
        "longitude": 75.417506
    },
    {
        "name": "Emgekchil",
        "country": "Kyrgyzstan",
        "province": "Naryn",
        "population": -1,
        "latitude": 41.55791,
        "longitude": 75.974264
    },
    {
        "name": "Engilchek",
        "country": "Kyrgyzstan",
        "province": "Issyk-Kul",
        "population": -1,
        "latitude": 42.02896,
        "longitude": 79.080746
    },
    {
        "name": "Emgektala",
        "country": "Kyrgyzstan",
        "province": "Naryn",
        "population": -1,
        "latitude": 41.394519,
        "longitude": 75.611679
    },
    {
        "name": "Iygilik",
        "country": "Kyrgyzstan",
        "province": "Issyk-Kul",
        "population": -1,
        "latitude": 42.770462,
        "longitude": 77.750642
    },
    {
        "name": "Jumgal",
        "country": "Kyrgyzstan",
        "province": "Naryn",
        "population": -1,
        "latitude": 42.030601,
        "longitude": 74.983472
    },
    {
        "name": "Dzhoon-Kyungëy",
        "country": "Kyrgyzstan",
        "province": "Jalal-Abad",
        "population": -1,
        "latitude": 41.178538,
        "longitude": 73.339646
    },
    {
        "name": "Dzholkara",
        "country": "Kyrgyzstan",
        "province": "Naryn",
        "population": -1,
        "latitude": 41.864617,
        "longitude": 74.753523
    },
    {
        "name": "Dzhilgin-Say",
        "country": "Kyrgyzstan",
        "province": "Osh",
        "population": -1,
        "latitude": 40.383333,
        "longitude": 72.2
    },
    {
        "name": "Dzhilandy",
        "country": "Kyrgyzstan",
        "province": "Osh",
        "population": -1,
        "latitude": 40.825684,
        "longitude": 73.3188
    },
    {
        "name": "Dzhigdy",
        "country": "Kyrgyzstan",
        "province": "Kyrgyzstan",
        "population": -1,
        "latitude": 40.45364,
        "longitude": 73.21671
    },
    {
        "name": "Dzhiyde",
        "country": "Kyrgyzstan",
        "province": "Osh",
        "population": -1,
        "latitude": 40.954924,
        "longitude": 73.356927
    },
    {
        "name": "Dzhiyde",
        "country": "Kyrgyzstan",
        "province": "Jalal-Abad",
        "population": -1,
        "latitude": 40.841602,
        "longitude": 72.922526
    },
    {
        "name": "Dzhiyde",
        "country": "Kyrgyzstan",
        "province": "Osh",
        "population": -1,
        "latitude": 40.294366,
        "longitude": 72.427782
    },
    {
        "name": "Dzhergetal",
        "country": "Kyrgyzstan",
        "province": "Naryn",
        "population": -1,
        "latitude": 41.572571,
        "longitude": 75.78952
    },
    {
        "name": "Dzhergalan",
        "country": "Kyrgyzstan",
        "province": "Issyk-Kul",
        "population": -1,
        "latitude": 42.603558,
        "longitude": 79.027998
    },
    {
        "name": "Dzhany-Chek",
        "country": "Kyrgyzstan",
        "province": "Chüy",
        "population": -1,
        "latitude": 42.812466,
        "longitude": 75.354275
    },
    {
        "name": "Kichi-Dzhaz",
        "country": "Kyrgyzstan",
        "province": "Osh",
        "population": -1,
        "latitude": 40.25309,
        "longitude": 72.45509
    },
    {
        "name": "Dzhar-Kapchygay",
        "country": "Kyrgyzstan",
        "province": "Jalal-Abad",
        "population": -1,
        "latitude": 41.6103,
        "longitude": 71.796929
    },
    {
        "name": "Jangy-Aryk",
        "country": "Kyrgyzstan",
        "province": "Naryn",
        "population": -1,
        "latitude": 41.985823,
        "longitude": 74.953366
    },
    {
        "name": "Jangy-Jol",
        "country": "Kyrgyzstan",
        "province": "Jalal-Abad",
        "population": -1,
        "latitude": 41.883168,
        "longitude": 72.915925
    },
    {
        "name": "Dzhan-Bulak",
        "country": "Kyrgyzstan",
        "province": "Issyk-Kul",
        "population": -1,
        "latitude": 42.44453,
        "longitude": 78.254343
    },
    {
        "name": "Dzhalpak-Sary",
        "country": "Kyrgyzstan",
        "province": "Kyrgyzstan",
        "population": -1,
        "latitude": 41.15042,
        "longitude": 73.09148
    },
    {
        "name": "Dzhalgyzterek",
        "country": "Kyrgyzstan",
        "province": "Naryn",
        "population": -1,
        "latitude": 41.465035,
        "longitude": 75.780598
    },
    {
        "name": "Dödömöl",
        "country": "Kyrgyzstan",
        "province": "Jalal-Abad",
        "population": -1,
        "latitude": 41.464409,
        "longitude": 74.337539
    },
    {
        "name": "Dungurme",
        "country": "Kyrgyzstan",
        "province": "Naryn",
        "population": -1,
        "latitude": 41.684438,
        "longitude": 74.324193
    },