[
    {
        "name": "Pyongyang",
        "country": "North Korea",
        "province": "Pyongyang",
        "population": 3222000,
        "latitude": 39.033852842708576,
        "longitude": 125.75431823730469
    },
    {
        "name": "Hamhung",
        "country": "North Korea",
        "province": "Hamgyŏng-namdo",
        "population": 559056,
        "latitude": 39.918333,
        "longitude": 127.536389
    },
    {
        "name": "Chongjin",
        "country": "North Korea",
        "province": "Hambuk",
        "population": 327000,
        "latitude": 41.795556,
        "longitude": 129.775833
    },
    {
        "name": "Wonsan",
        "country": "North Korea",
        "province": "Kangwŏn-do",
        "population": 329207,
        "latitude": 39.152778,
        "longitude": 127.443611
    },
    {
        "name": "Namp’o",
        "country": "North Korea",
        "province": "South Pyongan",
        "population": 455000,
        "latitude": 38.7375,
        "longitude": 125.407778
    },
    {
        "name": "Hŭngnam",
        "country": "North Korea",
        "province": "Hamgyŏng-namdo",
        "population": 346082,
        "latitude": 39.84198,
        "longitude": 127.63206
    },
    {
        "name": "Sinuiju",
        "country": "North Korea",
        "province": "P'yŏngan-bukto",
        "population": 288112,
        "latitude": 40.100556,
        "longitude": 124.398056
    },
    {
        "name": "Sunch’ŏn",
        "country": "North Korea",
        "province": "South Pyongan",
        "population": 437000,
        "latitude": 39.4316667,
        "longitude": 125.9327778
    },
    {
        "name": "Sariwŏn",
        "country": "North Korea",
        "province": "Hwanghae-bukto",
        "population": 310100,
        "latitude": 38.507222,
        "longitude": 125.755833
    },
    {
        "name": "Kaesong",
        "country": "North Korea",
        "province": "Hwanghae-namdo",
        "population": 338155,
        "latitude": 37.970833,
        "longitude": 126.554444
    },
    {
        "name": "Kanggye",
        "country": "North Korea",
        "province": "Chagang-do",
        "population": 209530,
        "latitude": 40.969465,
        "longitude": 126.585231
    },
    {
        "name": "P’yŏngsŏng",
        "country": "North Korea",
        "province": "South Pyongan",
        "population": 100000,
        "latitude": 39.246389,
        "longitude": 125.871944
    },
    {
        "name": "Haeju",
        "country": "North Korea",
        "province": "Hwanghae-namdo",
        "population": 222396,
        "latitude": 38.0405556,
        "longitude": 125.7147222
    },
    {
        "name": "Rajin",
        "country": "North Korea",
        "province": "Rason",
        "population": 66224,
        "latitude": 42.255588,
        "longitude": 130.283085
    },
    {
        "name": "Manp’o",
        "country": "North Korea",
        "province": "Chagang-do",
        "population": 116760,
        "latitude": 41.154722,
        "longitude": 126.289444
    },
    {
        "name": "Hyesan",
        "country": "North Korea",
        "province": "Yanggang-do",
        "population": 192680,
        "latitude": 41.401667,
        "longitude": 128.177778
    },
    {
        "name": "Songnim-ni",
        "country": "North Korea",
        "province": "Hwanghae-bukto",
        "population": 152425,
        "latitude": 38.763489,
        "longitude": 125.640964
    },
    {
        "name": "Kyŏngsŏng",
        "country": "North Korea",
        "province": "Hambuk",
        "population": 35604,
        "latitude": 41.5877778,
        "longitude": 129.6061111
    },
    {
        "name": "Kilju",
        "country": "North Korea",
        "province": "Hambuk",
        "population": 63652,
        "latitude": 40.9641667,
        "longitude": 129.3277778
    },
    {
        "name": "Hyesan-dong",
        "country": "North Korea",
        "province": "Yanggang-do",
        "population": 97794,
        "latitude": 41.395422,
        "longitude": 128.187522
    },
    {
        "name": "Hongwŏn",
        "country": "North Korea",
        "province": "Hamgyŏng-namdo",
        "population": 70923,
        "latitude": 40.025278,
        "longitude": 127.955833
    },
    {
        "name": "Aoji",
        "country": "North Korea",
        "province": "Hambuk",
        "population": 34248,
        "latitude": 42.524485,
        "longitude": 130.397181
    },
    {
        "name": "Yuktae-dong",
        "country": "North Korea",
        "province": "Hamgyŏng-namdo",
        "population": 76427,
        "latitude": 40.0247222,
        "longitude": 128.1597222
    },
    {
        "name": "Uiju",
        "country": "North Korea",
        "province": "P'yŏngan-bukto",
        "population": 50081,
        "latitude": 40.199444,
        "longitude": 124.531667
    },
    {
        "name": "Sunan",
        "country": "North Korea",
        "province": "Pyongyang",
        "population": 36671,
        "latitude": 39.203232,
        "longitude": 125.693117
    },
    {
        "name": "Ongjin",
        "country": "North Korea",
        "province": "Hwanghae-namdo",
        "population": 64247,
        "latitude": 37.9347222,
        "longitude": 125.3619444
    },
    {
        "name": "Chaeryŏng-ŭp",
        "country": "North Korea",
        "province": "Hwanghae-namdo",
        "population": 53330,
        "latitude": 38.399167,
        "longitude": 125.615556
    },
    {
        "name": "Anju",
        "country": "North Korea",
        "province": "South Pyongan",
        "population": 50196,
        "latitude": 39.6177778,
        "longitude": 125.6647222
    },
    {
        "name": "Sŭngjibaegam",
        "country": "North Korea",
        "province": "Yanggang-do",
        "population": 11786,
        "latitude": 41.242778,
        "longitude": 128.798889
    },
    {
        "name": "Sŭngam-nodongjagu",
        "country": "North Korea",
        "province": "Hambuk",
        "population": 11406,
        "latitude": 41.6697222,
        "longitude": 129.6688889
    },
    {
        "name": "Sŏnbong",
        "country": "North Korea",
        "province": "Rason",
        "population": 27331,
        "latitude": 42.351183,
        "longitude": 130.383066
    },
    {
        "name": "Kimjŏngsug-ŭp",
        "country": "North Korea",
        "province": "Yanggang-do",
        "population": -1,
        "latitude": 41.4083333,
        "longitude": 127.7647222
    },
    {
        "name": "Puryŏng",
        "country": "North Korea",
        "province": "Hambuk",
        "population": 12267,
        "latitude": 42.0605556,
        "longitude": 129.7116667
    },
    {
        "name": "Pukchil-lodongjagu",
        "country": "North Korea",
        "province": "P'yŏngan-bukto",
        "population": 14129,
        "latitude": 40.2019444,
        "longitude": 125.7483333
    },
    {
        "name": "Yŏnggwang-ŭp",
        "country": "North Korea",
        "province": "Hamgyŏng-namdo",
        "population": 21882,
        "latitude": 40.018333,
        "longitude": 127.454722
    },
    {
        "name": "Onsŏng",
        "country": "North Korea",
        "province": "Hambuk",
        "population": 19806,
        "latitude": 42.9572222,
        "longitude": 129.9933333
    },
    {
        "name": "Ranam",
        "country": "North Korea",
        "province": "Hambuk",
        "population": 34055,
        "latitude": 41.713611,
        "longitude": 129.684444
    },
    {
        "name": "Musan-ŭp",
        "country": "North Korea",
        "province": "Hambuk",
        "population": 21739,
        "latitude": 42.226086,
        "longitude": 129.207756
    },
    {
        "name": "Kyŏngwŏn",
        "country": "North Korea",
        "province": "Hambuk",
        "population": 12650,
        "latitude": 42.811964,
        "longitude": 130.165342
    },
    {
        "name": "Kapsan-ŭp",
        "country": "North Korea",
        "province": "Yanggang-do",
        "population": 20406,
        "latitude": 41.090278,
        "longitude": 128.293333
    },
    {
        "name": "Iwŏn-ŭp",
        "country": "North Korea",
        "province": "Hamgyŏng-namdo",
        "population": 26364,
        "latitude": 40.323056,
        "longitude": 128.655278
    },
    {
        "name": "Hoeryŏng",
        "country": "North Korea",
        "province": "Hambuk",
        "population": 43831,
        "latitude": 42.441128,
        "longitude": 129.746013
    },
    {
        "name": "Hau-ri",
        "country": "North Korea",
        "province": "Hambuk",
        "population": 13581,
        "latitude": 41.2005556,
        "longitude": 129.4702778
    },
    {
        "name": "Chasŏng",
        "country": "North Korea",
        "province": "Chagang-do",
        "population": 12736,
        "latitude": 41.4608333,
        "longitude": 126.6413889
    },
    {
        "name": "Ryongsŏng i-dong",
        "country": "North Korea",
        "province": "Pyongyang",
        "population": -1,
        "latitude": 39.123835,
        "longitude": 125.791471
    },
    {
        "name": "Yonggang-ŭp",
        "country": "North Korea",
        "province": "South Pyongan",
        "population": 13440,
        "latitude": 38.856111,
        "longitude": 125.424444
    },
    {
        "name": "Sŭngho 1-tong",
        "country": "North Korea",
        "province": "Pyongyang",
        "population": 39841,
        "latitude": 38.9913889,
        "longitude": 125.9777778
    },
    {
        "name": "Sinmak",
        "country": "North Korea",
        "province": "Hwanghae-bukto",
        "population": 18669,
        "latitude": 38.4166667,
        "longitude": 126.2333333
    },
    {
        "name": "Sinanju",
        "country": "North Korea",
        "province": "South Pyongan",
        "population": 15693,
        "latitude": 39.5980556,
        "longitude": 125.6097222
    },
    {
        "name": "Samho-rodongjagu",
        "country": "North Korea",
        "province": "Hamgyŏng-namdo",
        "population": 19025,
        "latitude": 39.9475,
        "longitude": 127.8711111
    },
    {
        "name": "Pyŏksŏng-ŭp",
        "country": "North Korea",
        "province": "Hwanghae-namdo",
        "population": 12937,
        "latitude": 38.0475,
        "longitude": 125.556667
    },
    {
        "name": "Panghyŏn-dong",
        "country": "North Korea",
        "province": "P'yŏngan-bukto",
        "population": 11026,
        "latitude": 39.887222,
        "longitude": 125.241389
    },
    {
        "name": "Chŏngju",
        "country": "North Korea",
        "province": "P'yŏngan-bukto",
        "population": 29065,
        "latitude": 39.693333,
        "longitude": 125.210278
    },
    {
        "name": "Changyŏn",
        "country": "North Korea",
        "province": "Hwanghae-namdo",
        "population": 39368,
        "latitude": 38.2508333,
        "longitude": 125.0961111
    },
    {
        "name": "Anbyŏn-ŭp",
        "country": "North Korea",
        "province": "Kangwŏn-do",
        "population": 31845,
        "latitude": 39.0425,
        "longitude": 127.5238889
    },
    {
        "name": "Anak",
        "country": "North Korea",
        "province": "Hwanghae-bukto",
        "population": 19995,
        "latitude": 38.5108333,
        "longitude": 125.4941667
    },
    {
        "name": "Kangsŏ",
        "country": "North Korea",
        "province": "South Pyongan",
        "population": -1,
        "latitude": 38.908611,
        "longitude": 125.526667
    },
    {
        "name": "Kwaksan",
        "country": "North Korea",
        "province": "P'yŏngan-bukto",
        "population": 10478,
        "latitude": 39.6875,
        "longitude": 125.0827778
    },
    {
        "name": "Kusŏng",
        "country": "North Korea",
        "province": "P'yŏngan-bukto",
        "population": 30902,
        "latitude": 39.9811111,
        "longitude": 125.2447222
    },
    {
        "name": "Kujang-ŭp",
        "country": "North Korea",
        "province": "P'yŏngan-bukto",
        "population": 19522,
        "latitude": 39.8672222,
        "longitude": 126.0302778
    },
    {
        "name": "Kowŏn-ŭp",
        "country": "North Korea",
        "province": "Hamgyŏng-namdo",
        "population": 21490,
        "latitude": 39.4380556,
        "longitude": 127.2430556
    },
    {
        "name": "Kosan",
        "country": "North Korea",
        "province": "Kangwŏn-do",
        "population": 24822,
        "latitude": 38.855833,
        "longitude": 127.418056
    },
    {
        "name": "Koksan",
        "country": "North Korea",
        "province": "Hwanghae-bukto",
        "population": 12923,
        "latitude": 38.7819444,
        "longitude": 126.6663889
    },
    {
        "name": "Kangdong-ŭp",
        "country": "North Korea",
        "province": "Pyongyang",
        "population": 28922,
        "latitude": 39.1425,
        "longitude": 126.0961111
    },
    {
        "name": "Hwangju-ŭp",
        "country": "North Korea",
        "province": "Hwanghae-bukto",
        "population": 35641,
        "latitude": 38.670278,
        "longitude": 125.776111
    },
    {
        "name": "Hŭkkyo-ri",
        "country": "North Korea",
        "province": "Hwanghae-bukto",
        "population": 25437,
        "latitude": 38.798611,
        "longitude": 125.791944
    },
    {
        "name": "Hoeyang",
        "country": "North Korea",
        "province": "Kangwŏn-do",
        "population": 21111,
        "latitude": 38.7102778,
        "longitude": 127.5983333
    },
    {
        "name": "Hŭrŭlgol",
        "country": "North Korea",
        "province": "Kangwŏn-do",
        "population": -1,
        "latitude": 38.42822382,
        "longitude": 126.94072186
    },
    {
        "name": "Chungdŭru",
        "country": "North Korea",
        "province": "Chagang-do",
        "population": -1,
        "latitude": 40.278653,
        "longitude": 126.462164
    },
    {
        "name": "Nŭngji-maŭl",
        "country": "North Korea",
        "province": "Chagang-do",
        "population": -1,
        "latitude": 40.791324,
        "longitude": 126.57911
    },
    {
        "name": "Uttosanggae-maŭl",
        "country": "North Korea",
        "province": "Chagang-do",
        "population": -1,
        "latitude": 41.003151,
        "longitude": 126.558467
    },
    {
        "name": "Ryongam-mal",
        "country": "North Korea",
        "province": "Rason",
        "population": -1,
        "latitude": 42.341086,
        "longitude": 130.35703
    },
    {
        "name": "T’ongilgŏri 1-tong",
        "country": "North Korea",
        "province": "Pyongyang",
        "population": -1,
        "latitude": 38.971667,
        "longitude": 125.730556
    },
    {
        "name": "Pakchukkol-maŭl",
        "country": "North Korea",
        "province": "Chagang-do",
        "population": -1,
        "latitude": 40.687601,
        "longitude": 126.624173
    },
    {
        "name": "Nŏlmaegi-maŭl",
        "country": "North Korea",
        "province": "Chagang-do",
        "population": -1,
        "latitude": 40.599444,
        "longitude": 126.636667
    },
    {
        "name": "Angol-maŭl",
        "country": "North Korea",
        "province": "Hamgyŏng-namdo",
        "population": -1,
        "latitude": 41.01264,
        "longitude": 128.861882
    },
    {
        "name": "Komusan Il-tong",
        "country": "North Korea",
        "province": "Hambuk",
        "population": 12242,
        "latitude": 42.109142,
        "longitude": 129.699969
    },
    {
        "name": "Such’im-ni",
        "country": "North Korea",
        "province": "Chagang-do",
        "population": -1,
        "latitude": 41.449722,
        "longitude": 126.628889
    },
    {
        "name": "Uam-ni",
        "country": "North Korea",
        "province": "Rason",
        "population": -1,
        "latitude": 42.2730556,
        "longitude": 130.6016667
    },
    {
        "name": "Sŏnggan-ŭp",
        "country": "North Korea",
        "province": "Chagang-do",
        "population": -1,
        "latitude": 40.794662,
        "longitude": 126.562714
    },
    {
        "name": "Kŭmgol 2-dong",
        "country": "North Korea",
        "province": "Hamgyŏng-namdo",
        "population": -1,
        "latitude": 40.9269444,
        "longitude": 128.8155556
    },
    {
        "name": "Sakchu-ŭp",
        "country": "North Korea",
        "province": "P'yŏngan-bukto",
        "population": 18001,
        "latitude": 40.389444,
        "longitude": 125.046667
    },
    {
        "name": "P’ungsan",
        "country": "North Korea",
        "province": "Yanggang-do",
        "population": -1,
        "latitude": 40.8175,
        "longitude": 128.155278
    },
    {
        "name": "Pakch’ung-nodongjagu",
        "country": "North Korea",
        "province": "Hambuk",
        "population": -1,
        "latitude": 41.663333,
        "longitude": 129.621667
    },
    {
        "name": "Ŏmyŏnbo",
        "country": "North Korea",
        "province": "Yanggang-do",
        "population": -1,
        "latitude": 41.266667,
        "longitude": 127.616667
    },
    {
        "name": "Ŏdaejil-lodongjagu",
        "country": "North Korea",
        "province": "Hambuk",
        "population": -1,
        "latitude": 41.3777778,
        "longitude": 129.7705556
    },
    {
        "name": "Ŏbok-tong",
        "country": "North Korea",
        "province": "Hambuk",
        "population": -1,
        "latitude": 40.838333,
        "longitude": 129.188889
    },
    {
        "name": "Norumegi-ch’on",
        "country": "North Korea",
        "province": "Hambuk",
        "population": -1,
        "latitude": 42.091646,
        "longitude": 129.126188
    },
    {
        "name": "Chilbalbi",
        "country": "North Korea",
        "province": "P'yŏngan-bukto",
        "population": -1,
        "latitude": 40.0138889,
        "longitude": 125.8361111
    },
    {
        "name": "Rajŏk",
        "country": "North Korea",
        "province": "Hambuk",
        "population": -1,
        "latitude": 41.829167,
        "longitude": 128.934722
    },
    {
        "name": "Songwŏn-ŭp",
        "country": "North Korea",
        "province": "Chagang-do",
        "population": -1,
        "latitude": 40.372778,
        "longitude": 126.308333
    },
    {
        "name": "Hwasŏng",
        "country": "North Korea",
        "province": "Hambuk",
        "population": -1,
        "latitude": 41.2555556,
        "longitude": 129.4927778
    },
    {
        "name": "Kyebangdurugŏri",
        "country": "North Korea",
        "province": "Chagang-do",
        "population": -1,
        "latitude": 40.569745,
        "longitude": 126.554852
    },
    {
        "name": "Kŏso-dong",
        "country": "North Korea",
        "province": "Hambuk",
        "population": -1,
        "latitude": 42.041426,
        "longitude": 129.498263
    },
    {
        "name": "Karŭn-dan",
        "country": "North Korea",
        "province": "Rason",
        "population": -1,
        "latitude": 42.31746,
        "longitude": 130.448823
    },
    {
        "name": "Yŏnmongmaŭl",
        "country": "North Korea",
        "province": "Chagang-do",
        "population": -1,
        "latitude": 40.390384,
        "longitude": 126.31395
    },
    {
        "name": "In’gahaech’am",
        "country": "North Korea",
        "province": "Chagang-do",
        "population": -1,
        "latitude": 40.912816,
        "longitude": 126.600696
    },
    {
        "name": "Kimhyŏngjik",
        "country": "North Korea",
        "province": "Yanggang-do",
        "population": -1,
        "latitude": 41.507742,
        "longitude": 127.269587
    },
    {
        "name": "Hoemul-li",
        "country": "North Korea",
        "province": "Hambuk",
        "population": 11681,
        "latitude": 41.4338889,
        "longitude": 129.67
    },
    {
        "name": "Komusal-lodongjagu",
        "country": "North Korea",
        "province": "Hambuk",
        "population": -1,
        "latitude": 42.1127778,
        "longitude": 129.6961111
    },
    {
        "name": "Yup’yŏng-nodongjagu",
        "country": "North Korea",
        "province": "Yanggang-do",
        "population": -1,
        "latitude": 41.768288,
        "longitude": 128.828994
    },
    {
        "name": "Yŏnsa-ŭp",
        "country": "North Korea",
        "province": "Hambuk",
        "population": -1,
        "latitude": 41.9080556,
        "longitude": 129.0111111
    },
    {
        "name": "Yŏnjin-dong",
        "country": "North Korea",
        "province": "Hambuk",
        "population": -1,
        "latitude": 41.9175,
        "longitude": 129.9161111
    },
    {
        "name": "Yongnim-ŭp",
        "country": "North Korea",
        "province": "Chagang-do",
        "population": -1,
        "latitude": 40.539897,
        "longitude": 126.642151
    },
    {
        "name": "Yongje-dong",
        "country": "North Korea",
        "province": "Hambuk",
        "population": -1,
        "latitude": 41.9969444,
        "longitude": 129.9730556
    },
    {
        "name": "Yongdae-nodongjagu",
        "country": "North Korea",
        "province": "Hamgyŏng-namdo",
        "population": -1,
        "latitude": 40.4841667,
        "longitude": 129.0569444
    },
    {
        "name": "Yongch’ŏn-dong",
        "country": "North Korea",
        "province": "Hamgyŏng-namdo",
        "population": -1,
        "latitude": 41.096721,
        "longitude": 128.774279
    },
    {
        "name": "Ryongbuk-nodongjagu",
        "country": "North Korea",
        "province": "Hambuk",
        "population": -1,
        "latitude": 42.668841,
        "longitude": 130.168232
    },
    {
        "name": "Unhŭng-ŭp",
        "country": "North Korea",
        "province": "Yanggang-do",
        "population": -1,
        "latitude": 41.305833,
        "longitude": 128.455
    },
    {
        "name": "Tongsal-lodongjagu",
        "country": "North Korea",
        "province": "Chagang-do",
        "population": -1,
        "latitude": 40.724681,
        "longitude": 126.498016
    },
    {
        "name": "Hoban-nodabgjagu",
        "country": "North Korea",
        "province": "Hamgyŏng-namdo",
        "population": -1,
        "latitude": 40.5447222,
        "longitude": 127.5927778
    },
    {
        "name": "Yŏnjagi-maŭl",
        "country": "North Korea",
        "province": "Chagang-do",
        "population": -1,
        "latitude": 40.553516,
        "longitude": 126.596307
    },
    {
        "name": "Kobakkol-maŭl",
        "country": "North Korea",
        "province": "Chagang-do",
        "population": -1,
        "latitude": 40.603216,
        "longitude": 126.569675
    },
    {
        "name": "Yŏngjŏng-ni",
        "country": "North Korea",
        "province": "Hwanghae-bukto",
        "population": -1,
        "latitude": 37.810278,
        "longitude": 126.529167
    },
    {
        "name": "Ryongsan-dong",
        "country": "North Korea",
        "province": "Pyongyang",
        "population": -1,
        "latitude": 39.051551,
        "longitude": 125.634368
    },
    {
        "name": "Yongamp’o-rodongjagu",
        "country": "North Korea",
        "province": "P'yŏngan-bukto",
        "population": -1,
        "latitude": 39.932222,
        "longitude": 124.373889
    },
    {
        "name": "Yŏnan-ŭp",
        "country": "North Korea",
        "province": "Hwanghae-namdo",
        "population": 22665,
        "latitude": 37.908889,
        "longitude": 126.161111
    },
    {
        "name": "Yŏmju-ŭp",
        "country": "North Korea",
        "province": "P'yŏngan-bukto",
        "population": 9437,
        "latitude": 39.893333,
        "longitude": 124.598056
    },
    {
        "name": "Ryŏkp’o-dong",
        "country": "North Korea",
        "province": "Pyongyang",
        "population": -1,
        "latitude": 38.91842,
        "longitude": 125.779115
    },
    {
        "name": "Yeŭi-dong",
        "country": "North Korea",
        "province": "Hwanghae-namdo",
        "population": -1,
        "latitude": 38.048889,
        "longitude": 126.225
    },
    {
        "name": "Wŏnbung-maŭl",
        "country": "North Korea",
        "province": "Pyongyang",
        "population": -1,
        "latitude": 38.966152,
        "longitude": 125.812273
    },
    {
        "name": "Wasan-maŭl",
        "country": "North Korea",
        "province": "Pyongyang",
        "population": -1,
        "latitude": 39.089823,
        "longitude": 125.771652
    },
    {
        "name": "Kŏmam-maŭl",
        "country": "North Korea",
        "province": "Pyongyang",
        "population": -1,
        "latitude": 38.920833,
        "longitude": 125.643333
    },
    {
        "name": "Tongp’o-dong",
        "country": "North Korea",
        "province": "Pyongyang",
        "population": -1,
        "latitude": 39.085833,
        "longitude": 125.745833
    },
    {
        "name": "T’ongch’ŏn-ŭp",
        "country": "North Korea",
        "province": "Kangwŏn-do",
        "population": 20575,
        "latitude": 38.953889,
        "longitude": 127.891667
    },
    {
        "name": "Taesandu-gol",
        "country": "North Korea",
        "province": "Hwanghae-bukto",
        "population": -1,
        "latitude": 38.8,
        "longitude": 125.75
    },
    {
        "name": "K’ŭnjunggol",
        "country": "North Korea",
        "province": "Pyongyang",
        "population": -1,
        "latitude": 38.957597,
        "longitude": 125.864015
    },
    {
        "name": "Tae-dong",
        "country": "North Korea",
        "province": "South Pyongan",
        "population": -1,
        "latitude": 39.079167,
        "longitude": 125.536667
    },
    {
        "name": "Soŭngjil-li",
        "country": "North Korea",
        "province": "Hamgyŏng-namdo",
        "population": -1,
        "latitude": 39.446667,
        "longitude": 127.521944
    },
    {
        "name": "Sol-mol",
        "country": "North Korea",
        "province": "Hwanghae-namdo",
        "population": -1,
        "latitude": 37.848687,
        "longitude": 125.361837
    },
    {
        "name": "Sogot-burak",
        "country": "North Korea",
        "province": "P'yŏngan-bukto",
        "population": -1,
        "latitude": 39.72723,
        "longitude": 124.810431
    },
    {
        "name": "Sogang-dong",
        "country": "North Korea",
        "province": "Hwanghae-namdo",
        "population": -1,
        "latitude": 37.881517,
        "longitude": 125.157494
    },
    {
        "name": "Sŏdong-ni",
        "country": "North Korea",
        "province": "Hwanghae-namdo",
        "population": -1,
        "latitude": 38.17988615,
        "longitude": 125.39824292
    },
    {
        "name": "Sinsang-nodongjagu",
        "country": "North Korea",
        "province": "Hamgyŏng-namdo",
        "population": -1,
        "latitude": 39.6458333,
        "longitude": 127.4152778
    },
    {
        "name": "Sinanjung-ni",
        "country": "North Korea",
        "province": "Kangwŏn-do",
        "population": -1,
        "latitude": 38.6411111,
        "longitude": 127.7147222
    },
    {
        "name": "Sinam-dong",
        "country": "North Korea",
        "province": "P'yŏngan-bukto",
        "population": -1,
        "latitude": 39.6152778,
        "longitude": 124.6441667
    },
    {
        "name": "Sangsŏng-ni",
        "country": "North Korea",
        "province": "South Pyongan",
        "population": 9888,
        "latitude": 39.169444,
        "longitude": 126.885556
    },
    {
        "name": "Kammun-dong",
        "country": "North Korea",
        "province": "Pyongyang",
        "population": -1,
        "latitude": 39.051137,
        "longitude": 125.845844
    },
    {
        "name": "Saem-mol",
        "country": "North Korea",
        "province": "Hwanghae-namdo",
        "population": -1,
        "latitude": 37.905278,
        "longitude": 125.419444
    },
    {
        "name": "Sa-dong",
        "country": "North Korea",
        "province": "Pyongyang",
        "population": -1,
        "latitude": 39.016667,
        "longitude": 125.816667
    },
    {
        "name": "P’yŏngwŏn",
        "country": "North Korea",
        "province": "South Pyongan",
        "population": -1,
        "latitude": 39.305833,
        "longitude": 125.596667
    },
    {
        "name": "P’o-dong",
        "country": "North Korea",
        "province": "Hwanghae-namdo",
        "population": -1,
        "latitude": 37.90135,
        "longitude": 125.40196
    },
    {
        "name": "Pangsŏng-dong",
        "country": "North Korea",
        "province": "Pyongyang",
        "population": -1,
        "latitude": 38.889307,
        "longitude": 125.888035
    },
    {
        "name": "Paech’ŏn-ŭp",
        "country": "North Korea",
        "province": "Hwanghae-namdo",
        "population": -1,
        "latitude": 37.993056,
        "longitude": 126.301389
    },
    {
        "name": "Ongjang-dong",
        "country": "North Korea",
        "province": "Pyongyang",
        "population": -1,
        "latitude": 39.117175,
        "longitude": 125.756523
    },
    {
        "name": "Ok’pyŏng-dong",
        "country": "North Korea",
        "province": "Kangwŏn-do",
        "population": -1,
        "latitude": 39.289939,
        "longitude": 127.294314
    },
    {
        "name": "Nonam-maŭl",
        "country": "North Korea",
        "province": "Pyongyang",
        "population": -1,
        "latitude": 38.940081,
        "longitude": 125.658711
    },
    {
        "name": "Namgung-maŭl",
        "country": "North Korea",
        "province": "Pyongyang",
        "population": -1,
        "latitude": 39.146219,
        "longitude": 125.764973
    },
    {
        "name": "Nagwŏn",
        "country": "North Korea",
        "province": "Hamgyŏng-namdo",
        "population": -1,
        "latitude": 39.903611,
        "longitude": 127.774722
    },
    {
        "name": "Pakch’ŏngmŏri",
        "country": "North Korea",
        "province": "Hwanghae-namdo",
        "population": -1,
        "latitude": 37.998333,
        "longitude": 125.885833
    },
    {
        "name": "Wŏllo-gol",
        "country": "North Korea",
        "province": "Hwanghae-bukto",
        "population": -1,
        "latitude": 38.008611,
        "longitude": 126.518611
    },
    {
        "name": "Chadoraegi",
        "country": "North Korea",
        "province": "Hwanghae-bukto",
        "population": -1,
        "latitude": 38.233889,
        "longitude": 126.760278
    },
    {
        "name": "Chap’a-ri",
        "country": "North Korea",
        "province": "South Pyongan",
        "population": -1,
        "latitude": 39.268333,
        "longitude": 126.015833
    },
    {
        "name": "Changjil-li",
        "country": "North Korea",
        "province": "Kangwŏn-do",
        "population": -1,
        "latitude": 39.1077778,
        "longitude": 127.6516667
    },
    {
        "name": "Changjin i-dong",
        "country": "North Korea",
        "province": "Pyongyang",
        "population": -1,
        "latitude": 38.980544,
        "longitude": 125.770373
    },
    {
        "name": "Changjae-ri",
        "country": "North Korea",
        "province": "Hwanghae-namdo",
        "population": -1,
        "latitude": 37.9877778,
        "longitude": 125.2713889
    },
    {
        "name": "Changjae",
        "country": "North Korea",
        "province": "Kangwŏn-do",
        "population": -1,
        "latitude": 38.563056,
        "longitude": 128.188889
    },
    {
        "name": "Chae-dong",
        "country": "North Korea",
        "province": "South Pyongan",
        "population": -1,
        "latitude": 39.4925,
        "longitude": 126.2033333
    },
    {
        "name": "Ayang-ni",
        "country": "North Korea",
        "province": "Hwanghae-namdo",
        "population": 16104,
        "latitude": 38.247188,
        "longitude": 125.79476
    },
    {
        "name": "Ansemi",
        "country": "North Korea",
        "province": "Kangwŏn-do",
        "population": -1,
        "latitude": 38.61226089,
        "longitude": 128.21041295
    },
    {
        "name": "Nyu-dong",
        "country": "North Korea",
        "province": "Pyongyang",
        "population": -1,
        "latitude": 38.941827,
        "longitude": 125.750105
    },
    {
        "name": "Munch’ŏn",
        "country": "North Korea",
        "province": "Kangwŏn-do",
        "population": -1,
        "latitude": 39.233889,
        "longitude": 127.359722
    },
    {
        "name": "Mujinjang-maŭl",
        "country": "North Korea",
        "province": "Pyongyang",
        "population": -1,
        "latitude": 38.899444,
        "longitude": 125.902778
    },
    {
        "name": "Yŏho-ri",
        "country": "North Korea",
        "province": "Hamgyŏng-namdo",
        "population": -1,
        "latitude": 39.866667,
        "longitude": 127.782778
    },
    {
        "name": "Maengjung-ni",
        "country": "North Korea",
        "province": "P'yŏngan-bukto",
        "population": -1,
        "latitude": 39.6494444,
        "longitude": 125.5975
    },
    {
        "name": "Kung-gol",
        "country": "North Korea",
        "province": "Hwanghae-namdo",
        "population": -1,
        "latitude": 37.747766,
        "longitude": 125.41976
    },
    {
        "name": "Kumi-ri",
        "country": "North Korea",
        "province": "Hwanghae-namdo",
        "population": -1,
        "latitude": 38.08017,
        "longitude": 124.99847
    },
    {
        "name": "Kosŏng",
        "country": "North Korea",
        "province": "Kangwŏn-do",
        "population": -1,
        "latitude": 38.738935,
        "longitude": 128.183922
    },
    {
        "name": "Kalsal-li",
        "country": "North Korea",
        "province": "Hwanghae-namdo",
        "population": -1,
        "latitude": 38.1983333,
        "longitude": 125.7986111
    },
    {
        "name": "Kalchŏng-gol",
        "country": "North Korea",
        "province": "Hwanghae-namdo",
        "population": -1,
        "latitude": 37.838056,
        "longitude": 125.969722
    },
    {
        "name": "Kajami",
        "country": "North Korea",
        "province": "Hwanghae-bukto",
        "population": -1,
        "latitude": 39.0307834,
        "longitude": 126.83731334
    },
    {
        "name": "Risil-li",
        "country": "North Korea",
        "province": "Pyongyang",
        "population": -1,
        "latitude": 38.937844,
        "longitude": 125.62307
    },
    {
        "name": "Hwach’ŏn-il-tong",
        "country": "North Korea",
        "province": "Pyongyang",
        "population": -1,
        "latitude": 39.016944,
        "longitude": 126.044167
    },
    {
        "name": "Twimoraet’ŏ",
        "country": "North Korea",
        "province": "Pyongyang",
        "population": -1,
        "latitude": 38.995665,
        "longitude": 125.690265
    },
    {
        "name": "Hŭngsang-ni",
        "country": "North Korea",
        "province": "Hamgyŏng-namdo",
        "population": -1,
        "latitude": 39.8525,
        "longitude": 127.4475
    },
    {
        "name": "Chunghwa",
        "country": "North Korea",
        "province": "Pyongyang",
        "population": 19346,
        "latitude": 38.863889,
        "longitude": 125.8
    },
    {
        "name": "Tongmak-tong",
        "country": "North Korea",
        "province": "Kangwŏn-do",
        "population": -1,
        "latitude": 38.313794,
        "longitude": 126.930364
    },
    {
        "name": "Togi-dong",
        "country": "North Korea",
        "province": "Kangwŏn-do",
        "population": -1,
        "latitude": 38.440884,
        "longitude": 126.884399
    },
    {
        "name": "Wŏllyang-dong",
        "country": "North Korea",
        "province": "Kangwŏn-do",
        "population": -1,
        "latitude": 38.4004407,
        "longitude": 126.80721416
    },
    {
        "name": "Yongp’o-maŭl",
        "country": "North Korea",
        "province": "Pyongyang",
        "population": -1,
        "latitude": 38.957189,
        "longitude": 125.648993
    },
    {
        "name": "Yongch’u il-tong",
        "country": "North Korea",
        "province": "Pyongyang",
        "population": -1,
        "latitude": 39.137901,
        "longitude": 125.777425
    },
    {
        "name": "Ryonggung il-tong",
        "country": "North Korea",
        "province": "Pyongyang",
        "population": -1,
        "latitude": 39.120814,
        "longitude": 125.766008
    },
    {
        "name": "Chinu-dong",
        "country": "North Korea",
        "province": "Hwanghae-namdo",
        "population": -1,
        "latitude": 38.355965,
        "longitude": 125.590028
    },
    {
        "name": "Yujŏng-maŭl",
        "country": "North Korea",
        "province": "Hwanghae-namdo",
        "population": -1,
        "latitude": 38.425494,
        "longitude": 125.589545
    },
    {
        "name": "Aejŏngdong-maŭl",
        "country": "North Korea",
        "province": "Hwanghae-namdo",
        "population": -1,
        "latitude": 38.432364,
        "longitude": 125.647266
    },
    {
        "name": "Karaegol",
        "country": "North Korea",
        "province": "Chagang-do",
        "population": -1,
        "latitude": 40.8584,
        "longitude": 126.702393
    },
    {
        "name": "Obong-dong",
        "country": "North Korea",
        "province": "Chagang-do",
        "population": -1,
        "latitude": 41.706389,
        "longitude": 126.986667
    },
    {
        "name": "Tŏngmak",
        "country": "North Korea",
        "province": "Yanggang-do",
        "population": -1,
        "latitude": 41.514444,
        "longitude": 127.0125
    },
    {
        "name": "Yŏnp’o",
        "country": "North Korea",
        "province": "Yanggang-do",
        "population": -1,
        "latitude": 41.47694,
        "longitude": 127.182501
    },
    {
        "name": "Chikkolmaŭl",
        "country": "North Korea",
        "province": "Chagang-do",
        "population": -1,
        "latitude": 40.283249,
        "longitude": 126.44287
    },
    {
        "name": "Sŏnggolmaŭl",
        "country": "North Korea",
        "province": "Chagang-do",
        "population": -1,
        "latitude": 40.292798,
        "longitude": 126.371597
    },
    {
        "name": "Kwangsŏng-dong",
        "country": "North Korea",
        "province": "Hamgyŏng-namdo",
        "population": -1,
        "latitude": 40.406448,
        "longitude": 127.055404
    },
    {
        "name": "Hanha-dong",
        "country": "North Korea",
        "province": "Hamgyŏng-namdo",
        "population": -1,
        "latitude": 40.464537,
        "longitude": 127.106957
    },
    {
        "name": "Changhang-dong",
        "country": "North Korea",
        "province": "Hamgyŏng-namdo",
        "population": -1,
        "latitude": 40.408301,
        "longitude": 127.177376
    },
    {
        "name": "Sinhŭng-dong",
        "country": "North Korea",
        "province": "Hamgyŏng-namdo",
        "population": -1,
        "latitude": 40.339148,
        "longitude": 127.184533
    },
    {
        "name": "Yonghŭng-dong",
        "country": "North Korea",
        "province": "Hamgyŏng-namdo",
        "population": -1,
        "latitude": 40.333121,
        "longitude": 127.166524
    },
    {
        "name": "Taehŭng-maŭl",
        "country": "North Korea",
        "province": "Hamgyŏng-namdo",
        "population": -1,
        "latitude": 40.32726,
        "longitude": 127.138772
    },
    {
        "name": "Sŏch’i-dong",
        "country": "North Korea",
        "province": "Hamgyŏng-namdo",
        "population": -1,
        "latitude": 40.308503,
        "longitude": 127.168649
    },
    {
        "name": "Panghyang-dong",
        "country": "North Korea",
        "province": "Chagang-do",
        "population": -1,
        "latitude": 40.759806,
        "longitude": 126.52447
    },
    {
        "name": "T’akkoji",
        "country": "North Korea",
        "province": "Chagang-do",
        "population": -1,
        "latitude": 40.756062,
        "longitude": 126.567282
    },
    {
        "name": "Kotŭn-maŭl",
        "country": "North Korea",
        "province": "Chagang-do",
        "population": -1,
        "latitude": 40.861184,
        "longitude": 126.495168
    },
    {
        "name": "Haenam",
        "country": "North Korea",
        "province": "Chagang-do",
        "population": -1,
        "latitude": 40.917275,
        "longitude": 126.521714
    },
    {
        "name": "Wŏnp’yŏng",
        "country": "North Korea",
        "province": "Chagang-do",
        "population": -1,
        "latitude": 40.902413,
        "longitude": 126.528827
    },
    {
        "name": "Araenamju",
        "country": "North Korea",
        "province": "Chagang-do",
        "population": -1,
        "latitude": 40.982252,
        "longitude": 126.534309
    },
    {
        "name": "Utnamju",
        "country": "North Korea",
        "province": "Chagang-do",
        "population": -1,
        "latitude": 40.996922,
        "longitude": 126.564386
    },
    {
        "name": "Pangyŏ-dong",
        "country": "North Korea",
        "province": "Hambuk",
        "population": -1,
        "latitude": 42.361703,
        "longitude": 130.200473
    },
    {
        "name": "Chŏktunji",
        "country": "North Korea",
        "province": "Hambuk",
        "population": -1,
        "latitude": 42.486975,
        "longitude": 130.230702
    },
    {
        "name": "Toksan",
        "country": "North Korea",
        "province": "Rason",
        "population": -1,
        "latitude": 42.378273,
        "longitude": 130.328002
    },
    {
        "name": "Changp’o",
        "country": "North Korea",
        "province": "Hambuk",
        "population": -1,
        "latitude": 42.678929,
        "longitude": 129.941934
    },
    {
        "name": "Ok-ch’on",
        "country": "North Korea",
        "province": "Hambuk",
        "population": -1,
        "latitude": 42.555278,
        "longitude": 129.950833
    },
    {
        "name": "Hyesan-jin",
        "country": "North Korea",
        "province": "Rason",
        "population": -1,
        "latitude": 42.203433,
        "longitude": 130.32407
    },
    {
        "name": "Hanip’yŏng",
        "country": "North Korea",
        "province": "Rason",
        "population": -1,
        "latitude": 42.232796,
        "longitude": 130.213911
    },
    {
        "name": "Yuhyŏng-dong",
        "country": "North Korea",
        "province": "Rason",
        "population": -1,
        "latitude": 42.224158,
        "longitude": 130.267754
    },
    {
        "name": "Changdŏk-tong",
        "country": "North Korea",
        "province": "Hambuk",
        "population": -1,
        "latitude": 42.965386,
        "longitude": 130.040489
    },
    {
        "name": "Hae-dong",
        "country": "North Korea",
        "province": "Hambuk",
        "population": -1,
        "latitude": 42.800835,
        "longitude": 130.104869
    },
    {
        "name": "Kŏŭlchidae-ch’on",
        "country": "North Korea",
        "province": "Hambuk",
        "population": -1,
        "latitude": 42.791742,
        "longitude": 129.934575
    },
    {
        "name": "Myŏngch’ŏn-ch’on",
        "country": "North Korea",
        "province": "Hambuk",
        "population": -1,
        "latitude": 42.99428,
        "longitude": 129.944616
    },
    {
        "name": "Samp’o",
        "country": "North Korea",
        "province": "Hambuk",
        "population": -1,
        "latitude": 42.889511,
        "longitude": 129.974434
    },
    {
        "name": "Sangju-p’o",
        "country": "North Korea",
        "province": "Hambuk",
        "population": -1,
        "latitude": 42.768373,
        "longitude": 129.931658
    },
    {
        "name": "Sŏwŏn-dong",
        "country": "North Korea",
        "province": "Hambuk",
        "population": -1,
        "latitude": 42.790168,
        "longitude": 129.973026
    },
    {
        "name": "Kyewŏn",
        "country": "North Korea",
        "province": "Hambuk",
        "population": -1,
        "latitude": 42.579309,
        "longitude": 129.840123
    },
    {
        "name": "Kunsim-dong",
        "country": "North Korea",
        "province": "Hambuk",
        "population": -1,
        "latitude": 42.510526,
        "longitude": 129.806777
    },
    {
        "name": "Panmuk-tong",
        "country": "North Korea",
        "province": "Hambuk",
        "population": -1,
        "latitude": 42.503611,
        "longitude": 129.870556
    },
    {
        "name": "Sagonda-ri",
        "country": "North Korea",
        "province": "Hambuk",
        "population": -1,
        "latitude": 42.67454,
        "longitude": 129.820885
    },
    {
        "name": "Turong-gol",
        "country": "North Korea",
        "province": "Hambuk",
        "population": -1,
        "latitude": 42.683669,
        "longitude": 129.835686
    },
    {
        "name": "Sangt’an",
        "country": "North Korea",
        "province": "Hambuk",
        "population": -1,
        "latitude": 42.937778,
        "longitude": 129.860556
    },
    {
        "name": "Kach’ŏsu",
        "country": "North Korea",
        "province": "Hambuk",
        "population": -1,
        "latitude": 42.838889,
        "longitude": 129.878889
    },
    {
        "name": "Kangu",
        "country": "North Korea",
        "province": "Hambuk",
        "population": -1,
        "latitude": 42.596479,
        "longitude": 130.288368
    },
    {
        "name": "Yŏn-dong",
        "country": "North Korea",
        "province": "Hambuk",
        "population": -1,
        "latitude": 42.667891,
        "longitude": 130.280633
    },
    {
        "name": "Kosŏng",
        "country": "North Korea",
        "province": "Hambuk",
        "population": -1,
        "latitude": 42.739444,
        "longitude": 130.204167
    },
    {
        "name": "Nonggyŏngdongnodu",
        "country": "North Korea",
        "province": "Hambuk",
        "population": -1,
        "latitude": 42.524964,
        "longitude": 130.33219
    },
    {
        "name": "Sangsŏ",
        "country": "North Korea",
        "province": "Rason",
        "population": -1,
        "latitude": 42.520477,
        "longitude": 130.450605
    },
    {
        "name": "Yongdang-ch’on",
        "country": "North Korea",
        "province": "Hambuk",
        "population": -1,
        "latitude": 42.705981,
        "longitude": 130.237748
    },
    {
        "name": "Ryongyŏn-dong",
        "country": "North Korea",
        "province": "Hambuk",
        "population": -1,
        "latitude": 42.648333,
        "longitude": 130.197076
    },
    {
        "name": "Samp’o-dong",
        "country": "North Korea",
        "province": "Hambuk",
        "population": -1,
        "latitude": 41.250833,
        "longitude": 129.730278
    },
    {
        "name": "Tanji-mal",
        "country": "North Korea",
        "province": "Hwanghae-namdo",
        "population": -1,
        "latitude": 37.960833,
        "longitude": 125.368889
    },
    {
        "name": "Sakkuji",
        "country": "North Korea",
        "province": "Hwanghae-namdo",
        "population": -1,
        "latitude": 37.772105,
        "longitude": 125.380142
    },
    {
        "name": "Ch’ŏlsim-dong",
        "country": "North Korea",
        "province": "Hwanghae-namdo",
        "population": -1,
        "latitude": 37.945833,
        "longitude": 125.276944
    },
    {
        "name": "P’yŏngch’ŏn",
        "country": "North Korea",
        "province": "Pyongyang",
        "population": -1,
        "latitude": 38.993056,
        "longitude": 125.715278
    },
    {
        "name": "Taehyŏn-dong",
        "country": "North Korea",
        "province": "Pyongyang",
        "population": -1,
        "latitude": 38.932826,
        "longitude": 125.84328
    },
    {
        "name": "Sŭng-ni",
        "country": "North Korea",
        "province": "Pyongyang",
        "population": -1,
        "latitude": 38.965556,
        "longitude": 125.706111
    },
    {
        "name": "Maejŏng-ni",
        "country": "North Korea",
        "province": "Hwanghae-bukto",
        "population": -1,
        "latitude": 38.40108,
        "longitude": 126.31575
    },
    {
        "name": "Saengdongch’am",
        "country": "North Korea",
        "province": "Chagang-do",
        "population": -1,
        "latitude": 40.720951,
        "longitude": 126.633842
    },
    {
        "name": "Kŏnp’och’am",
        "country": "North Korea",
        "province": "Chagang-do",
        "population": -1,
        "latitude": 40.698629,
        "longitude": 126.640893
    },
    {
        "name": "Yongma-dong",
        "country": "North Korea",
        "province": "Chagang-do",
        "population": -1,
        "latitude": 40.662782,
        "longitude": 126.675059
    },
    {
        "name": "Saemaŭl",
        "country": "North Korea",
        "province": "Chagang-do",
        "population": -1,
        "latitude": 40.569,
        "longitude": 126.616764
    },
    {
        "name": "Tŏng-maŭl",
        "country": "North Korea",
        "province": "Chagang-do",
        "population": -1,
        "latitude": 40.55827,
        "longitude": 126.743806
    },
    {
        "name": "Maesanggol-maŭl",
        "country": "North Korea",
        "province": "Chagang-do",
        "population": -1,
        "latitude": 40.55,
        "longitude": 126.674722
    },
    {
        "name": "Man’gŭmduru-maŭl",
        "country": "North Korea",
        "province": "Chagang-do",
        "population": -1,
        "latitude": 40.555833,
        "longitude": 126.631667
    },
    {
        "name": "Chosan-maŭl",
        "country": "North Korea",
        "province": "Chagang-do",
        "population": -1,
        "latitude": 40.552138,
        "longitude": 126.615183
    },
    {
        "name": "Ssarigubi-maŭl",
        "country": "North Korea",
        "province": "Chagang-do",
        "population": -1,
        "latitude": 40.525575,
        "longitude": 126.699553
    },
    {
        "name": "Kanp’yŏng-ch’am",
        "country": "North Korea",
        "province": "Chagang-do",
        "population": -1,
        "latitude": 40.938787,
        "longitude": 126.632447
    },
    {
        "name": "Such’im-ch’am",
        "country": "North Korea",
        "province": "Chagang-do",
        "population": -1,
        "latitude": 40.934502,
        "longitude": 126.623706
    },
    {
        "name": "Kuch’ang-dong",
        "country": "North Korea",
        "province": "Chagang-do",
        "population": -1,
        "latitude": 40.815928,
        "longitude": 126.651194
    },
    {
        "name": "Pyŏrang-maŭl",
        "country": "North Korea",
        "province": "Chagang-do",
        "population": -1,
        "latitude": 40.790092,
        "longitude": 126.694251
    },
    {
        "name": "Mangyang-dong",
        "country": "North Korea",
        "province": "Hambuk",
        "population": -1,
        "latitude": 42.347629,
        "longitude": 130.006513
    },
    {
        "name": "Kamakpau",
        "country": "North Korea",
        "province": "Hambuk",
        "population": -1,
        "latitude": 42.150556,
        "longitude": 130.189156
    },
    {
        "name": "Taeyang-dong",
        "country": "North Korea",
        "province": "Rason",
        "population": -1,
        "latitude": 42.221775,
        "longitude": 130.073332
    },
    {
        "name": "Susang-dong",
        "country": "North Korea",
        "province": "Rason",
        "population": -1,
        "latitude": 42.210445,
        "longitude": 130.142847
    },
    {
        "name": "Myŏngjap’yŏng",
        "country": "North Korea",
        "province": "Rason",
        "population": -1,
        "latitude": 42.581397,
        "longitude": 130.504488
    },
    {
        "name": "Chagŭnsa-gol",
        "country": "North Korea",
        "province": "Hambuk",
        "population": -1,
        "latitude": 42.408401,
        "longitude": 129.766865
    },
    {
        "name": "Chagŭnsŏŭi-dong",
        "country": "North Korea",
        "province": "Hambuk",
        "population": -1,
        "latitude": 42.388966,
        "longitude": 129.778264
    },
    {
        "name": "Chung-dong",
        "country": "North Korea",
        "province": "Hambuk",
        "population": -1,
        "latitude": 42.397038,
        "longitude": 129.628069
    },
    {
        "name": "Chung-dong",
        "country": "North Korea",
        "province": "Hambuk",
        "population": -1,
        "latitude": 42.429168,
        "longitude": 129.832909
    },
    {
        "name": "Pangŭi-dong",
        "country": "North Korea",
        "province": "Hambuk",
        "population": -1,
        "latitude": 42.4925,
        "longitude": 129.857778
    },
    {
        "name": "Pisŏk-tong",
        "country": "North Korea",
        "province": "Hambuk",
        "population": -1,
        "latitude": 42.367171,
        "longitude": 129.794568
    },
    {
        "name": "Mogyŏ-dong",
        "country": "North Korea",
        "province": "Hwanghae-namdo",
        "population": -1,
        "latitude": 37.705692,
        "longitude": 125.357986
    },
    {
        "name": "Sŏnjin-dong",
        "country": "North Korea",
        "province": "Hwanghae-namdo",
        "population": -1,
        "latitude": 37.733934,
        "longitude": 125.401352
    },
    {
        "name": "Taegŭm-dong",
        "country": "North Korea",
        "province": "Hwanghae-namdo",
        "population": -1,
        "latitude": 37.74,
        "longitude": 125.434444
    },
    {
        "name": "Tat’oji",
        "country": "North Korea",
        "province": "Hwanghae-namdo",
        "population": -1,
        "latitude": 38.589722,
        "longitude": 125.037778
    },
    {
        "name": "Chogaedŭl-li",
        "country": "North Korea",
        "province": "Hwanghae-namdo",
        "population": -1,
        "latitude": 38.5766667,
        "longitude": 125.0272222
    },
    {
        "name": "Tae-dong",
        "country": "North Korea",
        "province": "Hwanghae-namdo",
        "population": -1,
        "latitude": 37.77684,
        "longitude": 125.58278
    },
    {
        "name": "Kinsa-dong",
        "country": "North Korea",
        "province": "Hwanghae-namdo",
        "population": -1,
        "latitude": 37.877421,
        "longitude": 125.595935
    },
    {
        "name": "Samgŏri",
        "country": "North Korea",
        "province": "South Pyongan",
        "population": -1,
        "latitude": 39.1275,
        "longitude": 125.6055556
    },
    {
        "name": "O-ri",
        "country": "North Korea",
        "province": "Pyongyang",
        "population": -1,
        "latitude": 39.160456,
        "longitude": 125.686734
    },
    {
        "name": "Panwŏl-dong",
        "country": "North Korea",
        "province": "Hwanghae-namdo",
        "population": -1,
        "latitude": 38.63143,
        "longitude": 125.516015
    },
    {
        "name": "Wŏnch’ŏn-dong",
        "country": "North Korea",
        "province": "Hwanghae-namdo",
        "population": -1,
        "latitude": 38.57154,
        "longitude": 125.538637
    },
    {
        "name": "P’ungsan",
        "country": "North Korea",
        "province": "Hwanghae-namdo",
        "population": -1,
        "latitude": 38.511327,
        "longitude": 125.59313
    },
    {
        "name": "P’o-ch’on",
        "country": "North Korea",
        "province": "Hwanghae-namdo",
        "population": -1,
        "latitude": 38.626667,
        "longitude": 125.565278
    },
    {
        "name": "Chŏng-ch’on",
        "country": "North Korea",
        "province": "Hwanghae-namdo",
        "population": -1,
        "latitude": 38.537222,
        "longitude": 125.541667
    },
    {
        "name": "Sŏk-dong",
        "country": "North Korea",
        "province": "Hwanghae-namdo",
        "population": -1,
        "latitude": 38.524223,
        "longitude": 125.532406
    },
    {
        "name": "Kwanjin",
        "country": "North Korea",
        "province": "Hambuk",
        "population": -1,
        "latitude": 42.076389,
        "longitude": 130.067222
    },
    {
        "name": "Taehong-dong",
        "country": "North Korea",
        "province": "Hambuk",
        "population": -1,
        "latitude": 42.118142,
        "longitude": 130.142344
    },
    {
        "name": "Tolp’yo-dong",
        "country": "North Korea",
        "province": "Hambuk",
        "population": -1,
        "latitude": 42.130833,
        "longitude": 130.070833
    },
    {
        "name": "Such’am-dong",
        "country": "North Korea",
        "province": "Hambuk",
        "population": -1,
        "latitude": 42.347444,
        "longitude": 130.092265
    },
    {
        "name": "Chungdŏk-tong",
        "country": "North Korea",
        "province": "Hambuk",
        "population": -1,
        "latitude": 42.457485,
        "longitude": 130.02463
    },
    {
        "name": "Tobok-tong",
        "country": "North Korea",
        "province": "Hambuk",
        "population": -1,
        "latitude": 42.471933,
        "longitude": 130.229214
    },
    {
        "name": "Saeondŏk",
        "country": "North Korea",
        "province": "Hambuk",
        "population": -1,
        "latitude": 42.496587,
        "longitude": 130.229021
    },
    {
        "name": "Changae-dong",
        "country": "North Korea",
        "province": "Hambuk",
        "population": -1,
        "latitude": 42.574793,
        "longitude": 130.130321
    },
    {
        "name": "Paksŏ-ch’on",
        "country": "North Korea",
        "province": "Hambuk",
        "population": -1,
        "latitude": 42.598436,
        "longitude": 130.35607
    },
    {
        "name": "Arae-gol",
        "country": "North Korea",
        "province": "Rason",
        "population": -1,
        "latitude": 42.540992,
        "longitude": 130.482694
    },
    {
        "name": "Hap’ung-ch’ŏn",
        "country": "North Korea",
        "province": "Hambuk",
        "population": -1,
        "latitude": 42.939188,
        "longitude": 130.045742
    },
    {
        "name": "Chaein-dong",
        "country": "North Korea",
        "province": "Hambuk",
        "population": -1,
        "latitude": 42.9525,
        "longitude": 130.049722
    },
    {
        "name": "Ch’angp’yŏng",
        "country": "North Korea",
        "province": "Hambuk",
        "population": -1,
        "latitude": 42.096507,
        "longitude": 129.798931
    },
    {
        "name": "Songhak-tong",
        "country": "North Korea",
        "province": "Hambuk",
        "population": -1,
        "latitude": 42.37499,
        "longitude": 129.486396
    },
    {
        "name": "Sunam-dong",
        "country": "North Korea",
        "province": "Hambuk",
        "population": -1,
        "latitude": 42.380603,
        "longitude": 129.631374
    },
    {
        "name": "Yŏngsan-dong",
        "country": "North Korea",
        "province": "Hambuk",
        "population": -1,
        "latitude": 42.311111,
        "longitude": 129.828333
    },
    {
        "name": "Ilman-dong",
        "country": "North Korea",
        "province": "Hambuk",
        "population": -1,
        "latitude": 42.444806,
        "longitude": 129.971772
    },
    {
        "name": "Ongnarugaek-kol",
        "country": "North Korea",
        "province": "Hambuk",
        "population": -1,
        "latitude": 42.42631,
        "longitude": 129.879513
    },
    {
        "name": "Kyŏngho-dong",
        "country": "North Korea",
        "province": "Hambuk",
        "population": -1,
        "latitude": 42.432495,
        "longitude": 129.818955
    },
    {
        "name": "Changmu-dong",
        "country": "North Korea",
        "province": "Hambuk",
        "population": -1,
        "latitude": 42.438056,
        "longitude": 129.826944
    },
    {
        "name": "Kŏmunsup’o",
        "country": "North Korea",
        "province": "Hambuk",
        "population": -1,
        "latitude": 42.521298,
        "longitude": 129.891582
    },
    {
        "name": "Hwap’ungdŏk",
        "country": "North Korea",
        "province": "Hambuk",
        "population": -1,
        "latitude": 42.511635,
        "longitude": 129.831238
    },
    {
        "name": "P’ohang-dong",
        "country": "North Korea",
        "province": "Hambuk",
        "population": -1,
        "latitude": 42.574444,
        "longitude": 129.82
    },
    {
        "name": "Modok-tong",
        "country": "North Korea",
        "province": "Hambuk",
        "population": -1,
        "latitude": 42.786108,
        "longitude": 129.957083
    },
    {
        "name": "Songsam-dong",
        "country": "North Korea",
        "province": "Chagang-do",
        "population": -1,
        "latitude": 41.3438889,
        "longitude": 126.495
    },
    {
        "name": "Kamdŏgi",
        "country": "North Korea",
        "province": "Chagang-do",
        "population": -1,
        "latitude": 41.37,
        "longitude": 126.616389
    },
    {
        "name": "Chugam-dong",
        "country": "North Korea",
        "province": "Chagang-do",
        "population": -1,
        "latitude": 41.35186,
        "longitude": 126.654246
    },
    {
        "name": "Hwangch’ŏltŏgi",
        "country": "North Korea",
        "province": "Chagang-do",
        "population": -1,
        "latitude": 41.458131,
        "longitude": 126.674722
    },
    {
        "name": "Pŏltŏk-tong",
        "country": "North Korea",
        "province": "Chagang-do",
        "population": -1,
        "latitude": 41.394167,
        "longitude": 126.781667
    },
    {
        "name": "Chungjang-dong",
        "country": "North Korea",
        "province": "Chagang-do",
        "population": -1,
        "latitude": 41.715,
        "longitude": 127.043611
    },
    {
        "name": "P’op’yŏng",
        "country": "North Korea",
        "province": "Yanggang-do",
        "population": -1,
        "latitude": 41.508866,
        "longitude": 127.266213
    },
    {
        "name": "Ch’angp’yŏng-ch’on",
        "country": "North Korea",
        "province": "Hamgyŏng-namdo",
        "population": -1,
        "latitude": 41.024167,
        "longitude": 128.852778
    },
    {
        "name": "Wŏlsandŏng-maŭl",
        "country": "North Korea",
        "province": "Hamgyŏng-namdo",
        "population": -1,
        "latitude": 41.039442,
        "longitude": 128.841492
    },
    {
        "name": "Sirubongdŏgi",
        "country": "North Korea",
        "province": "Hamgyŏng-namdo",
        "population": -1,
        "latitude": 41.073611,
        "longitude": 128.883056
    },
    {
        "name": "Saemdŏgi",
        "country": "North Korea",
        "province": "Hamgyŏng-namdo",
        "population": -1,
        "latitude": 41.018889,
        "longitude": 128.9
    },
    {
        "name": "Kapsan’gol",
        "country": "North Korea",
        "province": "Hamgyŏng-namdo",
        "population": -1,
        "latitude": 41.046787,
        "longitude": 128.975426
    },
    {
        "name": "Sŏngdwi-ch’on",
        "country": "North Korea",
        "province": "Hambuk",
        "population": -1,
        "latitude": 41.087309,
        "longitude": 129.212635
    },
    {
        "name": "Tujibawi-burak",
        "country": "North Korea",
        "province": "Yanggang-do",
        "population": -1,
        "latitude": 41.959167,
        "longitude": 128.750556
    },
    {
        "name": "Hasam-dong",
        "country": "North Korea",
        "province": "Hambuk",
        "population": -1,
        "latitude": 41.939722,
        "longitude": 129.047778
    },
    {
        "name": "Konch’angdŏk",
        "country": "North Korea",
        "province": "Hambuk",
        "population": -1,
        "latitude": 41.902222,
        "longitude": 129.4125
    },
    {
        "name": "Mirŏnsang-ch’on",
        "country": "North Korea",
        "province": "Hambuk",
        "population": -1,
        "latitude": 41.598611,
        "longitude": 129.433333
    },
    {
        "name": "Ungi-dong",
        "country": "North Korea",
        "province": "Hambuk",
        "population": -1,
        "latitude": 41.905556,
        "longitude": 128.966389
    },
    {
        "name": "Kangdumol",
        "country": "North Korea",
        "province": "Yanggang-do",
        "population": -1,
        "latitude": 41.885556,
        "longitude": 128.4525
    },
    {
        "name": "Tŭryŏng-gol",
        "country": "North Korea",
        "province": "Hambuk",
        "population": -1,
        "latitude": 41.162778,
        "longitude": 129.086667
    },
    {
        "name": "Hasanwŏl-tong",
        "country": "North Korea",
        "province": "Hambuk",
        "population": -1,
        "latitude": 41.155234,
        "longitude": 129.049906
    },
    {
        "name": "Unp’yŏng-dong",
        "country": "North Korea",
        "province": "Hambuk",
        "population": -1,
        "latitude": 41.215,
        "longitude": 129.246389
    },
    {
        "name": "Paeryŏng",
        "country": "North Korea",
        "province": "Hambuk",
        "population": -1,
        "latitude": 41.066944,
        "longitude": 129.45
    },
    {
        "name": "Kŏlp’o",
        "country": "North Korea",
        "province": "Hambuk",
        "population": -1,
        "latitude": 41.278333,
        "longitude": 129.353333
    },
    {
        "name": "Tŭrimanji",
        "country": "North Korea",
        "province": "Hambuk",
        "population": -1,
        "latitude": 41.516361,
        "longitude": 129.207084
    },
    {
        "name": "Ch’ap’o-dong",
        "country": "North Korea",
        "province": "Hambuk",
        "population": -1,
        "latitude": 41.507978,
        "longitude": 129.227402
    },
    {
        "name": "Sup’ul-gol",
        "country": "North Korea",
        "province": "Hambuk",
        "population": -1,
        "latitude": 41.79,
        "longitude": 129.545278
    },
    {
        "name": "Changul-li",
        "country": "North Korea",
        "province": "Yanggang-do",
        "population": -1,
        "latitude": 41.463434,
        "longitude": 128.406928
    },
    {
        "name": "T’aep’yŏng-ni",
        "country": "North Korea",
        "province": "P'yŏngan-bukto",
        "population": -1,
        "latitude": 40.063333,
        "longitude": 126.108056
    },
    {
        "name": "Taenam-dong",
        "country": "North Korea",
        "province": "Hamgyŏng-namdo",
        "population": -1,
        "latitude": 40.308789,
        "longitude": 127.134733
    },
    {
        "name": "Tajang-dong",
        "country": "North Korea",
        "province": "Hambuk",
        "population": -1,
        "latitude": 42.892135,
        "longitude": 129.965062
    },
    {
        "name": "Taehŭng",
        "country": "North Korea",
        "province": "South Pyongan",
        "population": -1,
        "latitude": 40.094722,
        "longitude": 126.931944
    },
    {
        "name": "Taehŭng 2-dong",
        "country": "North Korea",
        "province": "Hamgyŏng-namdo",
        "population": -1,
        "latitude": 41.049465,
        "longitude": 128.869041
    },
    {
        "name": "Taehongdan-ŭp",
        "country": "North Korea",
        "province": "Yanggang-do",
        "population": -1,
        "latitude": 42.0033333,
        "longitude": 128.8494444
    },
    {
        "name": "Taegwan-ŭp",
        "country": "North Korea",
        "province": "P'yŏngan-bukto",
        "population": -1,
        "latitude": 40.208333,
        "longitude": 125.202778
    },
    {
        "name": "Taegwan",
        "country": "North Korea",
        "province": "P'yŏngan-bukto",
        "population": -1,
        "latitude": 40.2127778,
        "longitude": 125.2016667
    },
    {
        "name": "Taedŏk",
        "country": "North Korea",
        "province": "Hambuk",
        "population": -1,
        "latitude": 42.395306,
        "longitude": 129.793274
    },
    {
        "name": "Taettong-ch’on",
        "country": "North Korea",
        "province": "Hambuk",
        "population": -1,
        "latitude": 40.644444,
        "longitude": 129.174167
    },
    {
        "name": "Ch’il-tong",
        "country": "North Korea",
        "province": "Hambuk",
        "population": -1,
        "latitude": 41.962778,
        "longitude": 128.950278
    },
    {
        "name": "Taedŏk-ch’on",
        "country": "North Korea",
        "province": "Yanggang-do",
        "population": -1,
        "latitude": 41.283333,
        "longitude": 127.65
    },
    {
        "name": "K’ŭndo-gol",
        "country": "North Korea",
        "province": "Hambuk",
        "population": -1,
        "latitude": 41.845,
        "longitude": 128.95
    },
    {
        "name": "Taebau",
        "country": "North Korea",
        "province": "Yanggang-do",
        "population": -1,
        "latitude": 41.7305556,
        "longitude": 128.7997222
    },
    {
        "name": "Taeal-li",
        "country": "North Korea",
        "province": "P'yŏngan-bukto",
        "population": -1,
        "latitude": 40.1583333,
        "longitude": 125.2141667
    },
    {
        "name": "Taeam-dong",
        "country": "North Korea",
        "province": "Rason",
        "population": -1,
        "latitude": 42.321951,
        "longitude": 130.543592
    },
    {
        "name": "Sŏdapp’o",
        "country": "North Korea",
        "province": "Hambuk",
        "population": -1,
        "latitude": 41.142209,
        "longitude": 129.229759
    },
    {
        "name": "Susŏng-dong",
        "country": "North Korea",
        "province": "Hambuk",
        "population": -1,
        "latitude": 41.8272222,
        "longitude": 129.7361111
    },
    {
        "name": "Susŏ-ch’on",
        "country": "North Korea",
        "province": "Hambuk",
        "population": -1,
        "latitude": 40.861944,
        "longitude": 129.452222
    },
    {
        "name": "Suryu-gol",
        "country": "North Korea",
        "province": "Hambuk",
        "population": -1,
        "latitude": 41.6169444,
        "longitude": 129.5527778
    },
    {
        "name": "Sŭllyŏlchŏ-ri",
        "country": "North Korea",
        "province": "Hamgyŏng-namdo",
        "population": -1,
        "latitude": 40.8169444,
        "longitude": 128.465
    },
    {
        "name": "Sup’ung-nodongjagu",
        "country": "North Korea",
        "province": "P'yŏngan-bukto",
        "population": -1,
        "latitude": 40.448333,
        "longitude": 124.944167
    },
    {
        "name": "Sŭngbang-nodongjagu",
        "country": "North Korea",
        "province": "Chagang-do",
        "population": -1,
        "latitude": 40.9869444,
        "longitude": 126.695
    },
    {
        "name": "Sŭngbang-dong",
        "country": "North Korea",
        "province": "Hamgyŏng-namdo",
        "population": -1,
        "latitude": 41.103045,
        "longitude": 128.76717
    },
    {
        "name": "Sumŭn-dong",
        "country": "North Korea",
        "province": "Hambuk",
        "population": -1,
        "latitude": 42.94593,
        "longitude": 129.906069
    },
    {
        "name": "Sujŏl-li",
        "country": "North Korea",
        "province": "Chagang-do",
        "population": -1,
        "latitude": 40.318816,
        "longitude": 126.64495
    },
    {
        "name": "Susŏng",
        "country": "North Korea",
        "province": "Hambuk",
        "population": -1,
        "latitude": 42.655,
        "longitude": 130.260278
    },
    {
        "name": "Sujik-kol",
        "country": "North Korea",
        "province": "Hambuk",
        "population": -1,
        "latitude": 41.336172,
        "longitude": 129.550799
    },
    {
        "name": "Sugup’o",
        "country": "North Korea",
        "province": "Hambuk",
        "population": -1,
        "latitude": 42.865183,
        "longitude": 129.840982
    },
    {
        "name": "Such’ŏl-li",
        "country": "North Korea",
        "province": "Hamgyŏng-namdo",
        "population": -1,
        "latitude": 40.345524,
        "longitude": 127.193645
    },
    {
        "name": "Subuk",
        "country": "North Korea",
        "province": "Hambuk",
        "population": -1,
        "latitude": 41.3294444,
        "longitude": 129.6427778
    },
    {
        "name": "Ssangp’o-dong",
        "country": "North Korea",
        "province": "Hambuk",
        "population": -1,
        "latitude": 40.701667,
        "longitude": 129.200278
    },
    {
        "name": "Ssangp’o I-dong",
        "country": "North Korea",
        "province": "Hambuk",
        "population": -1,
        "latitude": 40.6925,
        "longitude": 129.202778
    },
    {
        "name": "Ssangp’o-dong",
        "country": "North Korea",
        "province": "Hambuk",
        "population": -1,
        "latitude": 41.948909,
        "longitude": 129.979498
    },
    {
        "name": "Kwangmyŏng-ni",
        "country": "North Korea",
        "province": "Chagang-do",
        "population": -1,
        "latitude": 40.737656,
        "longitude": 126.523354
    },
    {
        "name": "Sŏyang-ni",
        "country": "North Korea",
        "province": "Chagang-do",
        "population": -1,
        "latitude": 40.287045,
        "longitude": 126.620804
    },
    {
        "name": "Sŏwŏn-dong",
        "country": "North Korea",
        "province": "Hambuk",
        "population": -1,
        "latitude": 42.511454,
        "longitude": 130.033052
    },
    {
        "name": "Sŏsu-gol",
        "country": "North Korea",
        "province": "Hambuk",
        "population": -1,
        "latitude": 41.788889,
        "longitude": 129.461944
    },
    {
        "name": "Sorisin-dong",
        "country": "North Korea",
        "province": "Yanggang-do",
        "population": -1,
        "latitude": 41.454444,
        "longitude": 127.400833
    },
    {
        "name": "Sŏp’o-hang",
        "country": "North Korea",
        "province": "Rason",
        "population": -1,
        "latitude": 42.310563,
        "longitude": 130.598415
    },
    {
        "name": "Son-gol",
        "country": "North Korea",
        "province": "Hambuk",
        "population": -1,
        "latitude": 40.9225,
        "longitude": 129.5822222
    },
    {
        "name": "Songjŏnmogi",
        "country": "North Korea",
        "province": "Hambuk",
        "population": -1,
        "latitude": 41.625278,
        "longitude": 129.514722
    },
    {
        "name": "Songjŏn",
        "country": "North Korea",
        "province": "Hamgyŏng-namdo",
        "population": -1,
        "latitude": 40.576944,
        "longitude": 129.08
    },
    {
        "name": "Songjŏng-ni",
        "country": "North Korea",
        "province": "Hamgyŏng-namdo",
        "population": -1,
        "latitude": 40.305839,
        "longitude": 128.619694
    },
    {
        "name": "Sŏngjang-ni",
        "country": "North Korea",
        "province": "Chagang-do",
        "population": -1,
        "latitude": 41.060278,
        "longitude": 126.743056
    },
    {
        "name": "Sŏngha-rodongjagu",
        "country": "North Korea",
        "province": "Chagang-do",
        "population": -1,
        "latitude": 40.796172,
        "longitude": 126.578149
    },
    {
        "name": "Sŏngha-ri",
        "country": "North Korea",
        "province": "Hambuk",
        "population": -1,
        "latitude": 40.791667,
        "longitude": 129.346667
    },
    {
        "name": "Sŏan",
        "country": "North Korea",
        "province": "Hambuk",
        "population": -1,
        "latitude": 41.872222,
        "longitude": 129.152778
    },
    {
        "name": "Sŏngdŏk-ch’on",
        "country": "North Korea",
        "province": "Hambuk",
        "population": -1,
        "latitude": 41.143303,
        "longitude": 129.07139
    },
    {
        "name": "Songjŏn-dong",
        "country": "North Korea",
        "province": "Hambuk",
        "population": -1,
        "latitude": 42.852222,
        "longitude": 130.166389
    },
    {
        "name": "Sŏnbul-li",
        "country": "North Korea",
        "province": "Hamgyŏng-namdo",
        "population": -1,
        "latitude": 40.256111,
        "longitude": 128.638333
    },
    {
        "name": "Sŏnbau-gol",
        "country": "North Korea",
        "province": "Hambuk",
        "population": -1,
        "latitude": 40.941667,
        "longitude": 129.139167
    },
    {
        "name": "Sŏnbau",
        "country": "North Korea",
        "province": "Hambuk",
        "population": -1,
        "latitude": 40.991667,
        "longitude": 129.445833
    },
    {
        "name": "Soenoe-dong",
        "country": "North Korea",
        "province": "P'yŏngan-bukto",
        "population": -1,
        "latitude": 40.0486111,
        "longitude": 125.4941667
    },
    {
        "name": "Sŏman",
        "country": "North Korea",
        "province": "Yanggang-do",
        "population": -1,
        "latitude": 41.329404,
        "longitude": 128.896554
    },
    {
        "name": "Solbanmal",
        "country": "North Korea",
        "province": "North Korea",
        "population": -1,
        "latitude": 40.066667,
        "longitude": 127.383333
    },
    {
        "name": "Sŏkpong-ni",
        "country": "North Korea",
        "province": "Hambuk",
        "population": -1,
        "latitude": 42.156944,
        "longitude": 129.687812
    },
    {
        "name": "Son’goch’i",
        "country": "North Korea",
        "province": "Hamgyŏng-namdo",
        "population": -1,
        "latitude": 40.136111,
        "longitude": 128.456111
    },
    {
        "name": "Sŏkkae-gol",
        "country": "North Korea",
        "province": "Yanggang-do",
        "population": -1,
        "latitude": 41.366389,
        "longitude": 128.6425
    },
    {
        "name": "Sŏkha",
        "country": "North Korea",
        "province": "P'yŏngan-bukto",
        "population": -1,
        "latitude": 40.0686111,
        "longitude": 124.4386111
    },
    {
        "name": "Sŏjung-maŭl",
        "country": "North Korea",
        "province": "Hamgyŏng-namdo",
        "population": -1,
        "latitude": 40.456845,
        "longitude": 127.056734
    },
    {
        "name": "Sinhŭng-ni",
        "country": "North Korea",
        "province": "P'yŏngan-bukto",
        "population": -1,
        "latitude": 40.054167,
        "longitude": 124.959167
    },
    {
        "name": "Sŏdu-ri",
        "country": "North Korea",
        "province": "Yanggang-do",
        "population": -1,
        "latitude": 41.445627,
        "longitude": 128.842593
    },
    {
        "name": "Sip-tong",
        "country": "North Korea",
        "province": "Hambuk",
        "population": -1,
        "latitude": 42.050051,
        "longitude": 129.250051
    },
    {
        "name": "Sinyang-nodongjagu",
        "country": "North Korea",
        "province": "Hambuk",
        "population": -1,
        "latitude": 41.8263889,
        "longitude": 128.9905556
    },
    {
        "name": "Sinsang-ni",
        "country": "North Korea",
        "province": "P'yŏngan-bukto",
        "population": -1,
        "latitude": 40.1338889,
        "longitude": 125.2786111
    },
    {
        "name": "Sinhŭng-ni",
        "country": "North Korea",
        "province": "Yanggang-do",
        "population": -1,
        "latitude": 41.252193,
        "longitude": 128.277268
    },
    {
        "name": "Yŏngsang-il-dong",
        "country": "North Korea",
        "province": "North Korea",
        "population": -1,
        "latitude": 40.066667,
        "longitude": 124.433333
    },
    {
        "name": "Sinp’o-dong",
        "country": "North Korea",
        "province": "Hamgyŏng-namdo",
        "population": -1,
        "latitude": 40.37641,
        "longitude": 127.008221
    },
    {
        "name": "Sinp’o",
        "country": "North Korea",
        "province": "Hambuk",
        "population": -1,
        "latitude": 41.3725,
        "longitude": 129.794444
    },
    {
        "name": "Sinp’o",
        "country": "North Korea",
        "province": "Hamgyŏng-namdo",
        "population": -1,
        "latitude": 40.039709,
        "longitude": 128.194297
    },
    {
        "name": "Sinmusŏng-nodongjagu",
        "country": "North Korea",
        "province": "Yanggang-do",
        "population": -1,
        "latitude": 41.969221,
        "longitude": 128.315611
    },
    {
        "name": "Sinhŭng",
        "country": "North Korea",
        "province": "Hamgyŏng-namdo",
        "population": -1,
        "latitude": 40.193333,
        "longitude": 127.555833
    },
    {
        "name": "Sinjŏng-ni",
        "country": "North Korea",
        "province": "Yanggang-do",
        "population": -1,
        "latitude": 41.3,
        "longitude": 127.9
    },
    {
        "name": "Sinhŭng-ch’ŏn",
        "country": "North Korea",
        "province": "Rason",
        "population": -1,
        "latitude": 42.46941,
        "longitude": 130.532145
    },
    {
        "name": "Sin’gŏl-li",
        "country": "North Korea",
        "province": "Hambuk",
        "population": -1,
        "latitude": 42.677387,
        "longitude": 130.285437
    },
    {
        "name": "Sinch’ŏng-ni",
        "country": "North Korea",
        "province": "Chagang-do",
        "population": -1,
        "latitude": 40.856375,
        "longitude": 126.550048
    },
    {
        "name": "Sinch’ang-nodongjagu",
        "country": "North Korea",
        "province": "Hamgyŏng-namdo",
        "population": -1,
        "latitude": 40.1363889,
        "longitude": 128.4694444
    },
    {
        "name": "Sinch’am",
        "country": "North Korea",
        "province": "Hambuk",
        "population": -1,
        "latitude": 42.115833,
        "longitude": 129.419167
    },
    {
        "name": "Sinbong-maŭl",
        "country": "North Korea",
        "province": "Hamgyŏng-namdo",
        "population": -1,
        "latitude": 41.003068,
        "longitude": 128.892111
    },
    {
        "name": "Sinbang-ni",
        "country": "North Korea",
        "province": "Chagang-do",
        "population": -1,
        "latitude": 41.055717,
        "longitude": 127.443035
    },
    {
        "name": "Kŏp’ŭn’gae",
        "country": "North Korea",
        "province": "Yanggang-do",
        "population": -1,
        "latitude": 41.9075,
        "longitude": 128.816667
    },
    {
        "name": "Simch’ŏn-gol",
        "country": "North Korea",
        "province": "Hambuk",
        "population": -1,
        "latitude": 41.739722,
        "longitude": 129.587222
    },
    {
        "name": "Se-dong",
        "country": "North Korea",
        "province": "Hambuk",
        "population": -1,
        "latitude": 42.726293,
        "longitude": 130.148995
    },
    {
        "name": "Sat’an",
        "country": "North Korea",
        "province": "Hambuk",
        "population": -1,
        "latitude": 42.482085,
        "longitude": 130.143027
    },
    {
        "name": "Sasŭmk’o-mal",
        "country": "North Korea",
        "province": "Hamgyŏng-namdo",
        "population": -1,
        "latitude": 41.071944,
        "longitude": 128.801389
    },
    {
        "name": "Sap’yŏng",
        "country": "North Korea",
        "province": "Hambuk",
        "population": -1,
        "latitude": 42.125336,
        "longitude": 129.13263
    },
    {
        "name": "Sap’o-ri",
        "country": "North Korea",
        "province": "Hambuk",
        "population": -1,
        "latitude": 40.8066667,
        "longitude": 129.5225
    },
    {
        "name": "Sanyang-nodongjagu",
        "country": "North Korea",
        "province": "Yanggang-do",
        "population": -1,
        "latitude": 41.3994444,
        "longitude": 128.8552778
    },
    {
        "name": "Sangsŏnggan",
        "country": "North Korea",
        "province": "Chagang-do",
        "population": -1,
        "latitude": 40.741572,
        "longitude": 126.528264
    },
    {
        "name": "Sŏngnamdongsangse-dong",
        "country": "North Korea",
        "province": "Hambuk",
        "population": -1,
        "latitude": 42.326667,
        "longitude": 129.580556
    },
    {
        "name": "Sangnong-nodongjagu",
        "country": "North Korea",
        "province": "Hamgyŏng-namdo",
        "population": -1,
        "latitude": 40.6027778,
        "longitude": 128.7277778
    },
    {
        "name": "Sangnamsŏk",
        "country": "North Korea",
        "province": "Hambuk",
        "population": -1,
        "latitude": 40.8525,
        "longitude": 129.168889
    },
    {
        "name": "Sangnaenggub",
        "country": "North Korea",
        "province": "Hambuk",
        "population": -1,
        "latitude": 42.307242,
        "longitude": 129.21559
    },
    {
        "name": "Sangmyŏng-gol",
        "country": "North Korea",
        "province": "Hambuk",
        "population": -1,
        "latitude": 41.370278,
        "longitude": 129.570278
    },
    {
        "name": "Sangha-ri",
        "country": "North Korea",
        "province": "Hambuk",
        "population": -1,
        "latitude": 40.9291667,
        "longitude": 129.3244444
    },
    {
        "name": "Sanggyŏngp’yŏng",
        "country": "North Korea",
        "province": "Yanggang-do",
        "population": -1,
        "latitude": 41.775857,
        "longitude": 128.826798
    },
    {
        "name": "Sandang",
        "country": "North Korea",
        "province": "Hambuk",
        "population": -1,
        "latitude": 41.706667,
        "longitude": 129.574167
    },
    {
        "name": "Sanch’i-gol",
        "country": "North Korea",
        "province": "Hambuk",
        "population": -1,
        "latitude": 41.344722,
        "longitude": 129.435278
    },
    {
        "name": "Samsan-dong",
        "country": "North Korea",
        "province": "Hambuk",
        "population": -1,
        "latitude": 42.092514,
        "longitude": 129.007462
    },
    {
        "name": "Samnang-ni",
        "country": "North Korea",
        "province": "Chagang-do",
        "population": -1,
        "latitude": 40.6966667,
        "longitude": 126.1497222
    },
    {
        "name": "Samjiyŏn-ŭp",
        "country": "North Korea",
        "province": "Yanggang-do",
        "population": -1,
        "latitude": 41.803565,
        "longitude": 128.318862
    },
    {
        "name": "Samilp’o",
        "country": "North Korea",
        "province": "Hambuk",
        "population": -1,
        "latitude": 41.990555,
        "longitude": 129.971978
    },
    {
        "name": "Sae-mal",
        "country": "North Korea",
        "province": "Hambuk",
        "population": -1,
        "latitude": 41.6255556,
        "longitude": 129.5663889
    },
    {
        "name": "Sae-mal",
        "country": "North Korea",
        "province": "Hambuk",
        "population": -1,
        "latitude": 41.6013889,
        "longitude": 129.5872222
    },
    {
        "name": "Sae-mal",
        "country": "North Korea",
        "province": "Hambuk",
        "population": -1,
        "latitude": 41.5680556,
        "longitude": 129.5547222
    },
    {
        "name": "Saeirwŏn",
        "country": "North Korea",
        "province": "Hambuk",
        "population": -1,
        "latitude": 40.781111,
        "longitude": 129.071111
    },
    {
        "name": "Saegol-ch’on",
        "country": "North Korea",
        "province": "Hambuk",
        "population": -1,
        "latitude": 40.974722,
        "longitude": 129.218056
    },
    {
        "name": "Saebyŏl",
        "country": "North Korea",
        "province": "Hambuk",
        "population": -1,
        "latitude": 42.8111111,
        "longitude": 130.2019444
    },
    {
        "name": "Kyeha",
        "country": "North Korea",
        "province": "Hambuk",
        "population": -1,
        "latitude": 42.42368,
        "longitude": 129.374409
    },
    {
        "name": "Sŏ-dong",
        "country": "North Korea",
        "province": "Hambuk",
        "population": -1,
        "latitude": 40.883989,
        "longitude": 129.467431
    },
    {
        "name": "Sadŭk-ch’on",
        "country": "North Korea",
        "province": "Hambuk",
        "population": -1,
        "latitude": 41.167929,
        "longitude": 129.134474
    },
    {
        "name": "Paeamsŏm",
        "country": "North Korea",
        "province": "Yanggang-do",
        "population": -1,
        "latitude": 41.156271,
        "longitude": 128.982209
    },
    {
        "name": "Pyŏro-dong",
        "country": "North Korea",
        "province": "Chagang-do",
        "population": -1,
        "latitude": 41.141389,
        "longitude": 126.241111
    },
    {
        "name": "P’yŏngwŏn",
        "country": "North Korea",
        "province": "Chagang-do",
        "population": -1,
        "latitude": 40.627778,
        "longitude": 126.8375
    },
    {
        "name": "Pyŏngma-gol",
        "country": "North Korea",
        "province": "Hambuk",
        "population": -1,
        "latitude": 41.367778,
        "longitude": 129.514167
    },
    {
        "name": "Pyŏktan",
        "country": "North Korea",
        "province": "North Korea",
        "population": -1,
        "latitude": 40.633333,
        "longitude": 125.283333
    },
    {
        "name": "Puyun",
        "country": "North Korea",
        "province": "Hambuk",
        "population": -1,
        "latitude": 41.8711111,
        "longitude": 129.5211111
    },
    {
        "name": "Pup’ung-dong",
        "country": "North Korea",
        "province": "P'yŏngan-bukto",
        "population": -1,
        "latitude": 40.438333,
        "longitude": 124.956667
    },
    {
        "name": "Punt’o-gol",
        "country": "North Korea",
        "province": "Hambuk",
        "population": -1,
        "latitude": 40.789167,
        "longitude": 129.285278
    },
    {
        "name": "P’ungsal-li",
        "country": "North Korea",
        "province": "Hambuk",
        "population": -1,
        "latitude": 42.253333,
        "longitude": 129.758333
    },
    {
        "name": "Pundae-ri",
        "country": "North Korea",
        "province": "Yanggang-do",
        "population": -1,
        "latitude": 41.325278,
        "longitude": 127.747778
    },
    {
        "name": "Pukkyesu",
        "country": "North Korea",
        "province": "Yanggang-do",
        "population": -1,
        "latitude": 41.24837,
        "longitude": 128.875857
    },
    {
        "name": "Pujŏn",
        "country": "North Korea",
        "province": "Hamgyŏng-namdo",
        "population": -1,
        "latitude": 40.488333,
        "longitude": 127.620278
    },
    {
        "name": "Puam",
        "country": "North Korea",
        "province": "Hambuk",
        "population": -1,
        "latitude": 42.135278,
        "longitude": 130.029167
    },
    {
        "name": "P’osang-ni",
        "country": "North Korea",
        "province": "North Korea",
        "population": -1,
        "latitude": 41.497762,
        "longitude": 127.233725
    },
    {
        "name": "Pongjŏn-dong",
        "country": "North Korea",
        "province": "Hambuk",
        "population": -1,
        "latitude": 40.885,
        "longitude": 129.068889
    },
    {
        "name": "Ponghwa-ri",
        "country": "North Korea",
        "province": "Hamgyŏng-namdo",
        "population": -1,
        "latitude": 40.5197222,
        "longitude": 129.1113889
    },
    {
        "name": "Pongnam-gol",
        "country": "North Korea",
        "province": "Hambuk",
        "population": -1,
        "latitude": 41.6880556,
        "longitude": 129.6205556
    },
    {
        "name": "Pohyŏl-li",
        "country": "North Korea",
        "province": "Hamgyŏng-namdo",
        "population": -1,
        "latitude": 40.136389,
        "longitude": 127.8775
    },
    {
        "name": "P’ogŏ-dong",
        "country": "North Korea",
        "province": "Hamgyŏng-namdo",
        "population": -1,
        "latitude": 40.733611,
        "longitude": 128.896944
    },
    {
        "name": "Pogansu",
        "country": "North Korea",
        "province": "Yanggang-do",
        "population": -1,
        "latitude": 41.3613889,
        "longitude": 128.4111111
    },
    {
        "name": "Poch’ŏn-ŭp",
        "country": "North Korea",
        "province": "Yanggang-do",
        "population": -1,
        "latitude": 41.5191667,
        "longitude": 128.2994444
    },
    {
        "name": "Poch’ol-li",
        "country": "North Korea",
        "province": "Hambuk",
        "population": -1,
        "latitude": 41.0616667,
        "longitude": 129.7194444
    },
    {
        "name": "P’anp’yŏng-ni",
        "country": "North Korea",
        "province": "Chagang-do",
        "population": -1,
        "latitude": 40.45,
        "longitude": 125.833333
    },
    {
        "name": "Pangwŏn-dong",
        "country": "North Korea",
        "province": "Hambuk",
        "population": -1,
        "latitude": 42.659665,
        "longitude": 129.815906
    },
    {
        "name": "Pangsali-li",
        "country": "North Korea",
        "province": "P'yŏngan-bukto",
        "population": -1,
        "latitude": 40.3613889,
        "longitude": 124.7486111
    },
    {
        "name": "Pangjin-dong",
        "country": "North Korea",
        "province": "Hambuk",
        "population": -1,
        "latitude": 42.1561111,
        "longitude": 130.1927778
    },
    {
        "name": "Songhŭng-ni",
        "country": "North Korea",
        "province": "Hamgyŏng-namdo",
        "population": -1,
        "latitude": 40.3475,
        "longitude": 127.555
    },
    {
        "name": "Pakkumi",
        "country": "North Korea",
        "province": "Hamgyŏng-namdo",
        "population": -1,
        "latitude": 40.135,
        "longitude": 128.4747222
    },
    {
        "name": "Paengmi-gol",
        "country": "North Korea",
        "province": "Hamgyŏng-namdo",
        "population": -1,
        "latitude": 40.3541667,
        "longitude": 128.6763889
    },
    {
        "name": "Paengma-nodongjagu",
        "country": "North Korea",
        "province": "P'yŏngan-bukto",
        "population": -1,
        "latitude": 40.0758333,
        "longitude": 124.5713889
    },
    {
        "name": "Paenamu-gol",
        "country": "North Korea",
        "province": "Hambuk",
        "population": -1,
        "latitude": 41.5869444,
        "longitude": 129.5230556
    },
    {
        "name": "Paeksal-li",
        "country": "North Korea",
        "province": "Chagang-do",
        "population": -1,
        "latitude": 40.363168,
        "longitude": 126.513483
    },
    {
        "name": "Paegwŏndongmal-ch’on",
        "country": "North Korea",
        "province": "Hambuk",
        "population": -1,
        "latitude": 40.910278,
        "longitude": 129.314444
    },
    {
        "name": "Paegam-ŭp",
        "country": "North Korea",
        "province": "Yanggang-do",
        "population": -1,
        "latitude": 41.569764,
        "longitude": 128.81189
    },
    {
        "name": "Paegam-gol",
        "country": "North Korea",
        "province": "Chagang-do",
        "population": -1,
        "latitude": 40.737683,
        "longitude": 126.728068
    },
    {
        "name": "Osil-li",
        "country": "North Korea",
        "province": "Yanggang-do",
        "population": -1,
        "latitude": 41.468861,
        "longitude": 128.294192
    },
    {
        "name": "Osang-dong",
        "country": "North Korea",
        "province": "Hambuk",
        "population": -1,
        "latitude": 41.2963889,
        "longitude": 129.7466667
    },
    {
        "name": "Onch’ŏl-li",
        "country": "North Korea",
        "province": "Hambuk",
        "population": -1,
        "latitude": 41.996389,
        "longitude": 129.3075
    },
    {
        "name": "Onsup’yŏng-ch’on",
        "country": "North Korea",
        "province": "Hambuk",
        "population": -1,
        "latitude": 41.003043,
        "longitude": 129.218573
    },
    {
        "name": "Onch’ŏl-li",
        "country": "North Korea",
        "province": "P'yŏngan-bukto",
        "population": -1,
        "latitude": 40.322778,
        "longitude": 125.0625
    },
    {
        "name": "Okkang-ni",
        "country": "North Korea",
        "province": "P'yŏngan-bukto",
        "population": -1,
        "latitude": 40.325268,
        "longitude": 124.735181
    },
    {
        "name": "Ŏjŏk-tong",
        "country": "North Korea",
        "province": "P'yŏngan-bukto",
        "population": -1,
        "latitude": 40.22,
        "longitude": 124.5277778
    },
    {
        "name": "Paksandu",
        "country": "North Korea",
        "province": "Hamgyŏng-namdo",
        "population": -1,
        "latitude": 40.6572222,
        "longitude": 128.7755556
    },
    {
        "name": "Yŏndŏk",
        "country": "North Korea",
        "province": "Hambuk",
        "population": -1,
        "latitude": 42.719663,
        "longitude": 129.984529
    },
    {
        "name": "Nŭptŏk",
        "country": "North Korea",
        "province": "Hambuk",
        "population": -1,
        "latitude": 40.993611,
        "longitude": 129.442222
    },
    {
        "name": "Nŭngsan",
        "country": "North Korea",
        "province": "Hambuk",
        "population": -1,
        "latitude": 40.874167,
        "longitude": 129.523333
    },
    {
        "name": "Nŭnggok",
        "country": "North Korea",
        "province": "Hambuk",
        "population": -1,
        "latitude": 42.050059,
        "longitude": 129.116602
    },
    {
        "name": "Rop’yŏng-ni",
        "country": "North Korea",
        "province": "Hambuk",
        "population": -1,
        "latitude": 41.937682,
        "longitude": 128.902317
    },
    {
        "name": "Nondŭl",
        "country": "North Korea",
        "province": "Hambuk",
        "population": -1,
        "latitude": 40.905833,
        "longitude": 129.286111
    },
    {
        "name": "Nongp’yŏngsang-dong",
        "country": "North Korea",
        "province": "Yanggang-do",
        "population": -1,
        "latitude": 41.342222,
        "longitude": 127.979722
    },
    {
        "name": "Nongp’o",
        "country": "North Korea",
        "province": "Hambuk",
        "population": -1,
        "latitude": 42.752933,
        "longitude": 130.207064
    },
    {
        "name": "Kalbal-gol",
        "country": "North Korea",
        "province": "Yanggang-do",
        "population": -1,
        "latitude": 40.8858333,
        "longitude": 128.32
    },
    {
        "name": "Sangdŏk",
        "country": "North Korea",
        "province": "Hambuk",
        "population": -1,
        "latitude": 42.291669,
        "longitude": 129.218855
    },
    {
        "name": "Rasŏk-tong",
        "country": "North Korea",
        "province": "Hambuk",
        "population": -1,
        "latitude": 42.148247,
        "longitude": 130.090895
    },