[
    {
        "name": "Taraz",
        "country": "Kazakhstan",
        "province": "Zhambyl",
        "population": 358153,
        "latitude": 42.9,
        "longitude": 71.3666667
    },
    {
        "name": "Pavlodar",
        "country": "Kazakhstan",
        "province": "Pavlodar Region",
        "population": 329002,
        "latitude": 52.283333,
        "longitude": 76.966666
    },
    {
        "name": "Ust-Kamenogorsk",
        "country": "Kazakhstan",
        "province": "East Kazakhstan",
        "population": 319067,
        "latitude": 49.97142869819424,
        "longitude": 82.6058578491211
    },
    {
        "name": "Astana",
        "country": "Kazakhstan",
        "province": "Astana",
        "population": 345604,
        "latitude": 51.1800962564279,
        "longitude": 71.4459800720215
    },
    {
        "name": "Shymkent",
        "country": "Kazakhstan",
        "province": "Shymkent",
        "population": 1200000,
        "latitude": 42.3,
        "longitude": 69.6
    },
    {
        "name": "Almaty",
        "country": "Kazakhstan",
        "province": "Almaty",
        "population": 1977011,
        "latitude": 43.25,
        "longitude": 76.916667
    },
    {
        "name": "Kokshetau",
        "country": "Kazakhstan",
        "province": "Aqmola",
        "population": 150649,
        "latitude": 53.283333,
        "longitude": 69.4
    },
    {
        "name": "Zhezqazghan",
        "country": "Kazakhstan",
        "province": "Ulytau Region",
        "population": 104357,
        "latitude": 47.787457,
        "longitude": 67.71118
    },
    {
        "name": "Taldykorgan",
        "country": "Kazakhstan",
        "province": "Jetisu Region",
        "population": 116558,
        "latitude": 45.015556,
        "longitude": 78.373889
    },
    {
        "name": "Semey",
        "country": "Kazakhstan",
        "province": "Abai Region",
        "population": 292780,
        "latitude": 50.426749,
        "longitude": 80.266694
    },
    {
        "name": "Kyzylorda",
        "country": "Kazakhstan",
        "province": "Qyzylorda",
        "population": 354800,
        "latitude": 44.852778,
        "longitude": 65.509167
    },
    {
        "name": "Kostanay",
        "country": "Kazakhstan",
        "province": "Qostanay",
        "population": 210000,
        "latitude": 53.21435,
        "longitude": 63.62463
    },
    {
        "name": "Petropavl",
        "country": "Kazakhstan",
        "province": "North Kazakhstan",
        "population": 200920,
        "latitude": 54.866666,
        "longitude": 69.15
    },
    {
        "name": "Oral",
        "country": "Kazakhstan",
        "province": "East Kazakhstan",
        "population": 330000,
        "latitude": 51.233333,
        "longitude": 51.366667
    },
    {
        "name": "Karaganda",
        "country": "Kazakhstan",
        "province": "Karaganda",
        "population": 497777,
        "latitude": 49.80187,
        "longitude": 73.10211
    },
    {
        "name": "Atyrau",
        "country": "Kazakhstan",
        "province": "Atyraū",
        "population": 290700,
        "latitude": 47.116667,
        "longitude": 51.883333
    },
    {
        "name": "Aktobe",
        "country": "Kazakhstan",
        "province": "Aqtöbe",
        "population": 500757,
        "latitude": 50.27968675692932,
        "longitude": 57.207183837890625
    },
    {
        "name": "Aktau",
        "country": "Kazakhstan",
        "province": "Mangghystaū",
        "population": 147443,
        "latitude": 43.648059,
        "longitude": 51.172219
    },
    {
        "name": "Ekibastuz",
        "country": "Kazakhstan",
        "province": "Pavlodar Region",
        "population": 121470,
        "latitude": 51.723714,
        "longitude": 75.322869
    },
    {
        "name": "Turkestan",
        "country": "Kazakhstan",
        "province": "Turkistan",
        "population": 227098,
        "latitude": 43.297331,
        "longitude": 68.251748
    },
    {
        "name": "Temirtau",
        "country": "Kazakhstan",
        "province": "Karaganda",
        "population": 170600,
        "latitude": 50.054938,
        "longitude": 72.964643
    },
    {
        "name": "Baikonur",
        "country": "Kazakhstan",
        "province": "Baikonur",
        "population": 70000,
        "latitude": 45.616667,
        "longitude": 63.316667
    },
    {
        "name": "Kentau",
        "country": "Kazakhstan",
        "province": "Turkistan",
        "population": 57408,
        "latitude": 43.516721,
        "longitude": 68.504631
    },
    {
        "name": "Sarkand",
        "country": "Kazakhstan",
        "province": "Jetisu Region",
        "population": 76919,
        "latitude": 45.413216,
        "longitude": 79.917133
    },
    {
        "name": "Konayev",
        "country": "Kazakhstan",
        "province": "Almaty Oblysy",
        "population": 42167,
        "latitude": 43.86681,
        "longitude": 77.063037
    },
    {
        "name": "Ridder",
        "country": "Kazakhstan",
        "province": "Batys Qazaqstan",
        "population": 52664,
        "latitude": 50.34524,
        "longitude": 83.515621
    },
    {
        "name": "Balqash",
        "country": "Kazakhstan",
        "province": "Karaganda",
        "population": 81364,
        "latitude": 46.848056,
        "longitude": 74.995
    },
    {
        "name": "Aral",
        "country": "Kazakhstan",
        "province": "Qyzylorda",
        "population": 33017,
        "latitude": 46.801739,
        "longitude": 61.663121
    },
    {
        "name": "Zhangaözen",
        "country": "Kazakhstan",
        "province": "Mangghystaū",
        "population": 103598,
        "latitude": 43.34116,
        "longitude": 52.86192
    },
    {
        "name": "Stepnogorsk",
        "country": "Kazakhstan",
        "province": "Aqmola",
        "population": 46736,
        "latitude": 52.350617,
        "longitude": 71.881607
    },
    {
        "name": "Esik",
        "country": "Kazakhstan",
        "province": "Almaty Oblysy",
        "population": 32995,
        "latitude": 43.35520358966531,
        "longitude": 77.45245456695557
    },
    {
        "name": "Aqsū",
        "country": "Kazakhstan",
        "province": "Pavlodar Region",
        "population": 44808,
        "latitude": 52.04023,
        "longitude": 76.927483
    },
    {
        "name": "Shardara",
        "country": "Kazakhstan",
        "province": "Turkistan",
        "population": 25356,
        "latitude": 41.258325,
        "longitude": 67.969912
    },
    {
        "name": "Zyryanovsk",
        "country": "Kazakhstan",
        "province": "Batys Qazaqstan",
        "population": 44929,
        "latitude": 49.736258,
        "longitude": 84.254158
    },
    {
        "name": "Zhetikara",
        "country": "Kazakhstan",
        "province": "Qostanay",
        "population": 43104,
        "latitude": 52.190191,
        "longitude": 61.198936
    },
    {
        "name": "Novokazalinsk",
        "country": "Kazakhstan",
        "province": "Qyzylorda",
        "population": 35883,
        "latitude": 45.84806,
        "longitude": 62.152536
    },
    {
        "name": "Chu",
        "country": "Kazakhstan",
        "province": "Zhambyl",
        "population": 39785,
        "latitude": 43.60334,
        "longitude": 73.759192
    },
    {
        "name": "Saryaghash",
        "country": "Kazakhstan",
        "province": "Turkistan",
        "population": 25139,
        "latitude": 41.460421,
        "longitude": 69.167909
    },
    {
        "name": "Rudnyy",
        "country": "Kazakhstan",
        "province": "Qostanay",
        "population": 124000,
        "latitude": 52.97244,
        "longitude": 63.110549
    },
    {
        "name": "Zharkent",
        "country": "Kazakhstan",
        "province": "Jetisu Region",
        "population": 34422,
        "latitude": 44.1666,
        "longitude": 80.006549
    },
    {
        "name": "Ayagoz",
        "country": "Kazakhstan",
        "province": "Abai Region",
        "population": 33479,
        "latitude": 47.964473,
        "longitude": 80.434372
    },
    {
        "name": "Atbasar",
        "country": "Kazakhstan",
        "province": "Aqmola",
        "population": 34797,
        "latitude": 51.80854,
        "longitude": 68.358225
    },
    {
        "name": "Arys",
        "country": "Kazakhstan",
        "province": "Turkistan",
        "population": 36285,
        "latitude": 42.430155,
        "longitude": 68.808701
    },
    {
        "name": "Arqalyk",
        "country": "Kazakhstan",
        "province": "Qostanay",
        "population": 42000,
        "latitude": 50.250311,
        "longitude": 66.903837
    },
    {
        "name": "Kandyagash",
        "country": "Kazakhstan",
        "province": "Aqtöbe",
        "population": 28196,
        "latitude": 49.469124,
        "longitude": 57.419142
    },
    {
        "name": "Qulsary",
        "country": "Kazakhstan",
        "province": "Atyraū",
        "population": 51216,
        "latitude": 46.95307452952103,
        "longitude": 54.019775390625
    },
    {
        "name": "Chemolgan",
        "country": "Kazakhstan",
        "province": "Almaty",
        "population": 13616,
        "latitude": 43.376326,
        "longitude": 76.62456
    },
    {
        "name": "Egindiköl",
        "country": "Kazakhstan",
        "province": "Aqmola",
        "population": 3751,
        "latitude": 51.052271,
        "longitude": 69.475113
    },
    {
        "name": "Taiynsha",
        "country": "Kazakhstan",
        "province": "North Kazakhstan",
        "population": 13148,
        "latitude": 53.847963,
        "longitude": 69.76773
    },
    {
        "name": "Kirovskiy",
        "country": "Kazakhstan",
        "province": "Jetisu Region",
        "population": 11810,
        "latitude": 44.902249,
        "longitude": 78.231571
    },
    {
        "name": "Asyqata",
        "country": "Kazakhstan",
        "province": "Turkistan",
        "population": 11378,
        "latitude": 40.894602,
        "longitude": 68.364304
    },
    {
        "name": "Terengköl",
        "country": "Kazakhstan",
        "province": "Pavlodar Region",
        "population": 8931,
        "latitude": 53.066494,
        "longitude": 76.104893
    },
    {
        "name": "Ertis",
        "country": "Kazakhstan",
        "province": "Pavlodar Region",
        "population": 9216,
        "latitude": 53.333649,
        "longitude": 75.45775
    },
    {
        "name": "Atakent",
        "country": "Kazakhstan",
        "province": "Turkistan",
        "population": 12895,
        "latitude": 40.847821,
        "longitude": 68.506431
    },
    {
        "name": "Glūbokoe",
        "country": "Kazakhstan",
        "province": "Batys Qazaqstan",
        "population": 11192,
        "latitude": 50.138865,
        "longitude": 82.31114
    },
    {
        "name": "Georgīevka",
        "country": "Kazakhstan",
        "province": "Abai Region",
        "population": 22047,
        "latitude": 49.330091,
        "longitude": 81.572752
    },
    {
        "name": "Yereymentau",
        "country": "Kazakhstan",
        "province": "Aqmola",
        "population": 14169,
        "latitude": 51.623636,
        "longitude": 73.102651
    },
    {
        "name": "Otegen Batyra",
        "country": "Kazakhstan",
        "province": "Almaty",
        "population": 18864,
        "latitude": 43.419489,
        "longitude": 77.020201
    },
    {
        "name": "Dzhalagash",
        "country": "Kazakhstan",
        "province": "Qyzylorda",
        "population": 14226,
        "latitude": 45.083333,
        "longitude": 64.666667
    },
    {
        "name": "Dzerzhinskoye",
        "country": "Kazakhstan",
        "province": "Jetisu Region",
        "population": -1,
        "latitude": 45.818374,
        "longitude": 81.079621
    },
    {
        "name": "Druzhba",
        "country": "Kazakhstan",
        "province": "Jetisu Region",
        "population": 2930,
        "latitude": 45.253318,
        "longitude": 82.480436
    },
    {
        "name": "Derzhavinsk",
        "country": "Kazakhstan",
        "province": "Aqmola",
        "population": 13856,
        "latitude": 51.097176,
        "longitude": 66.318746
    },
    {
        "name": "Sholakkorgan",
        "country": "Kazakhstan",
        "province": "Turkistan",
        "population": 10836,
        "latitude": 43.764528,
        "longitude": 69.178564
    },
    {
        "name": "Chiili",
        "country": "Kazakhstan",
        "province": "Qyzylorda",
        "population": 29832,
        "latitude": 44.17057,
        "longitude": 66.733762
    },
    {
        "name": "Burunday",
        "country": "Kazakhstan",
        "province": "Almaty",
        "population": 20996,
        "latitude": 43.355671,
        "longitude": 76.854772
    },
    {
        "name": "Aksu",
        "country": "Kazakhstan",
        "province": "Turkistan",
        "population": 26115,
        "latitude": 42.42193,
        "longitude": 69.827091
    },
    {
        "name": "Belūsovka",
        "country": "Kazakhstan",
        "province": "Batys Qazaqstan",
        "population": 9948,
        "latitude": 50.132867,
        "longitude": 82.524814
    },
    {
        "name": "Zhosaly",
        "country": "Kazakhstan",
        "province": "Qyzylorda",
        "population": 20065,
        "latitude": 45.487778,
        "longitude": 64.078056
    },
    {
        "name": "Zharyk",
        "country": "Kazakhstan",
        "province": "Karaganda",
        "population": 2940,
        "latitude": 48.856919,
        "longitude": 72.835983
    },
    {
        "name": "Zhangatas",
        "country": "Kazakhstan",
        "province": "Zhambyl",
        "population": 33492,
        "latitude": 43.562223,
        "longitude": 69.734283
    },
    {
        "name": "Zaysan",
        "country": "Kazakhstan",
        "province": "East Kazakhstan",
        "population": 17600,
        "latitude": 47.46657077685898,
        "longitude": 84.87144470214844
    },
    {
        "name": "Yanykurgan",
        "country": "Kazakhstan",
        "province": "Qyzylorda",
        "population": 21339,
        "latitude": 43.906516,
        "longitude": 67.246374
    },
    {
        "name": "Saumalkol'",
        "country": "Kazakhstan",
        "province": "North Kazakhstan",
        "population": 2074,
        "latitude": 53.292701,
        "longitude": 68.104999
    },
    {
        "name": "Turar Ryskulov",
        "country": "Kazakhstan",
        "province": "Turkistan",
        "population": 18421,
        "latitude": 42.533396,
        "longitude": 70.349601
    },
    {
        "name": "Ushtobe",
        "country": "Kazakhstan",
        "province": "Jetisu Region",
        "population": 20492,
        "latitude": 45.252583,
        "longitude": 77.982841
    },
    {
        "name": "Urzhar",
        "country": "Kazakhstan",
        "province": "East Kazakhstan",
        "population": 14826,
        "latitude": 47.09302,
        "longitude": 81.629393
    },
    {
        "name": "Turgen",
        "country": "Kazakhstan",
        "province": "Almaty",
        "population": 13000,
        "latitude": 43.400556,
        "longitude": 77.593333
    },
    {
        "name": "Timiryazevo",
        "country": "Kazakhstan",
        "province": "North Kazakhstan",
        "population": 4147,
        "latitude": 53.749467,
        "longitude": 66.488523
    },
    {
        "name": "Torghay",
        "country": "Kazakhstan",
        "province": "Qostanay",
        "population": 5277,
        "latitude": 49.630722,
        "longitude": 63.490351
    },
    {
        "name": "Terenozek",
        "country": "Kazakhstan",
        "province": "Qyzylorda",
        "population": 9661,
        "latitude": 45.050529,
        "longitude": 64.98395
    },
    {
        "name": "Temirlanovka",
        "country": "Kazakhstan",
        "province": "Turkistan",
        "population": 12245,
        "latitude": 42.599982,
        "longitude": 69.258357
    },
    {
        "name": "Tekeli",
        "country": "Kazakhstan",
        "province": "Jetisu Region",
        "population": 26678,
        "latitude": 44.867796,
        "longitude": 78.728068
    },
    {
        "name": "Tasbuget",
        "country": "Kazakhstan",
        "province": "Qyzylorda",
        "population": 16455,
        "latitude": 44.770182,
        "longitude": 65.554615
    },
    {
        "name": "Talghar",
        "country": "Kazakhstan",
        "province": "Almaty",
        "population": 42194,
        "latitude": 43.302354,
        "longitude": 77.238106
    },
    {
        "name": "Stepnyak",
        "country": "Kazakhstan",
        "province": "Aqmola",
        "population": 4928,
        "latitude": 52.834889,
        "longitude": 70.788612
    },
    {
        "name": "Myrzakent",
        "country": "Kazakhstan",
        "province": "Turkistan",
        "population": 9752,
        "latitude": 40.663376,
        "longitude": 68.545101
    },
    {
        "name": "Shchūchīnsk",
        "country": "Kazakhstan",
        "province": "Aqmola",
        "population": 47290,
        "latitude": 52.935921,
        "longitude": 70.18895
    },
    {
        "name": "Shar",
        "country": "Kazakhstan",
        "province": "Abai Region",
        "population": 9087,
        "latitude": 49.587204,
        "longitude": 81.048826
    },
    {
        "name": "Shakhtinsk",
        "country": "Kazakhstan",
        "province": "Karaganda",
        "population": 41602,
        "latitude": 49.708846,
        "longitude": 72.592121
    },
    {
        "name": "Shakhan",
        "country": "Kazakhstan",
        "province": "Karaganda",
        "population": 13273,
        "latitude": 49.819575,
        "longitude": 72.65407
    },
    {
        "name": "Saryozek",
        "country": "Kazakhstan",
        "province": "Jetisu Region",
        "population": 13930,
        "latitude": 44.36178,
        "longitude": 77.972791
    },
    {
        "name": "Soran",
        "country": "Kazakhstan",
        "province": "Karaganda",
        "population": 42552,
        "latitude": 49.790799,
        "longitude": 72.837439
    },
    {
        "name": "Kachar",
        "country": "Kazakhstan",
        "province": "Qostanay",
        "population": 10285,
        "latitude": 53.367993,
        "longitude": 62.868385
    },
    {
        "name": "Qarazhal",
        "country": "Kazakhstan",
        "province": "Ulytau Region",
        "population": 13807,
        "latitude": 48.006269,
        "longitude": 70.796073
    },
    {
        "name": "Karatau",
        "country": "Kazakhstan",
        "province": "Zhambyl",
        "population": 37881,
        "latitude": 43.178687,
        "longitude": 70.467681
    },
    {
        "name": "Tughyl",
        "country": "Kazakhstan",
        "province": "Batys Qazaqstan",
        "population": 6696,
        "latitude": 47.724974,
        "longitude": 84.205854
    },
    {
        "name": "Pervorosiyskiy",
        "country": "Kazakhstan",
        "province": "Batys Qazaqstan",
        "population": 2583,
        "latitude": 49.717391,
        "longitude": 83.848597
    },
    {
        "name": "Pervomayka",
        "country": "Kazakhstan",
        "province": "Almaty",
        "population": 7874,
        "latitude": 43.373611,
        "longitude": 76.94
    },
    {
        "name": "Mynaral",
        "country": "Kazakhstan",
        "province": "Zhambyl",
        "population": 1303,
        "latitude": 45.4161111,
        "longitude": 73.6844444
    },
    {
        "name": "Kurchatov",
        "country": "Kazakhstan",
        "province": "Abai Region",
        "population": 10747,
        "latitude": 50.756172,
        "longitude": 78.54188
    },
    {
        "name": "Sarykemer",
        "country": "Kazakhstan",
        "province": "Zhambyl",
        "population": 15132,
        "latitude": 43,
        "longitude": 71.5
    },
    {
        "name": "Merke",
        "country": "Kazakhstan",
        "province": "Zhambyl",
        "population": 15934,
        "latitude": 42.869762,
        "longitude": 73.184627
    },
    {
        "name": "Makīnsk",
        "country": "Kazakhstan",
        "province": "Aqmola",
        "population": 17711,
        "latitude": 52.6329,
        "longitude": 70.419112
    },
    {
        "name": "Lugovoye",
        "country": "Kazakhstan",
        "province": "Zhambyl",
        "population": 13128,
        "latitude": 42.910104,
        "longitude": 72.720661
    },
    {
        "name": "Lugovoy",
        "country": "Kazakhstan",
        "province": "Zhambyl",
        "population": 10422,
        "latitude": 42.941965,
        "longitude": 72.760979
    },
    {
        "name": "Līsakovsk",
        "country": "Kazakhstan",
        "province": "Qostanay",
        "population": 40000,
        "latitude": 52.544881,
        "longitude": 62.498926
    },
    {
        "name": "Kazygurt",
        "country": "Kazakhstan",
        "province": "Turkistan",
        "population": 14737,
        "latitude": 41.756398,
        "longitude": 69.383901
    },
    {
        "name": "Lenīnskīy",
        "country": "Kazakhstan",
        "province": "Pavlodar Region",
        "population": 8646,
        "latitude": 52.253463,
        "longitude": 76.782107
    },
    {
        "name": "Lenger",
        "country": "Kazakhstan",
        "province": "Turkistan",
        "population": 21238,
        "latitude": 42.181518,
        "longitude": 69.885821
    },
    {
        "name": "Kishkenekol'",
        "country": "Kazakhstan",
        "province": "North Kazakhstan",
        "population": 6779,
        "latitude": 53.635894,
        "longitude": 72.340793
    },
    {
        "name": "Ashchysay",
        "country": "Kazakhstan",
        "province": "Turkistan",
        "population": 5635,
        "latitude": 43.553697,
        "longitude": 68.897918
    },
    {
        "name": "Prigorodnoye",
        "country": "Kazakhstan",
        "province": "Karaganda",
        "population": 3563,
        "latitude": 49.692443,
        "longitude": 75.584383
    },
    {
        "name": "Akkol",
        "country": "Kazakhstan",
        "province": "Aqmola",
        "population": 16773,
        "latitude": 53.296168,
        "longitude": 69.59997
    },
    {
        "name": "Abay",
        "country": "Kazakhstan",
        "province": "Karaganda",
        "population": 35454,
        "latitude": 49.635745,
        "longitude": 72.86164
    },
    {
        "name": "Zhetibay",
        "country": "Kazakhstan",
        "province": "Mangghystaū",
        "population": 11731,
        "latitude": 43.589285,
        "longitude": 52.103133
    },
    {
        "name": "Shubarkuduk",
        "country": "Kazakhstan",
        "province": "Aqtöbe",
        "population": 11733,
        "latitude": 49.143907,
        "longitude": 56.481964
    },
    {
        "name": "Shetpe",
        "country": "Kazakhstan",
        "province": "Mangghystaū",
        "population": 11836,
        "latitude": 44.13922,
        "longitude": 52.153051
    },
    {
        "name": "Shalqar",
        "country": "Kazakhstan",
        "province": "Aqtöbe",
        "population": 27399,
        "latitude": 47.831718,
        "longitude": 59.621113
    },
    {
        "name": "Shalkar",
        "country": "Kazakhstan",
        "province": "Atyraū",
        "population": 27072,
        "latitude": 48.033333,
        "longitude": 48.9
    },
    {
        "name": "Peremetnoe",
        "country": "Kazakhstan",
        "province": "East Kazakhstan",
        "population": 4003,
        "latitude": 51.198013,
        "longitude": 50.85291
    },
    {
        "name": "Xamït Erğalïyev awılı",
        "country": "Kazakhstan",
        "province": "Atyraū",
        "population": -1,
        "latitude": 47.352965,
        "longitude": 51.201017
    },
    {
        "name": "Miyaly",
        "country": "Kazakhstan",
        "province": "Atyraū",
        "population": 6213,
        "latitude": 48.883858,
        "longitude": 53.79387
    },
    {
        "name": "Maqat",
        "country": "Kazakhstan",
        "province": "Atyraū",
        "population": 14082,
        "latitude": 47.64967,
        "longitude": 53.342907
    },
    {
        "name": "Khromtau",
        "country": "Kazakhstan",
        "province": "Aqtöbe",
        "population": 23715,
        "latitude": 50.251612,
        "longitude": 58.435741
    },
    {
        "name": "Inderbor",
        "country": "Kazakhstan",
        "province": "Atyraū",
        "population": 13254,
        "latitude": 48.55,
        "longitude": 51.7833333
    },
    {
        "name": "Fort-Shevchenko",
        "country": "Kazakhstan",
        "province": "Mangghystaū",
        "population": 5213,
        "latitude": 44.506544,
        "longitude": 50.26388
    },
    {
        "name": "Quryq",
        "country": "Kazakhstan",
        "province": "Mangghystaū",
        "population": 11836,
        "latitude": 43.180321,
        "longitude": 51.681158
    },
    {
        "name": "Emba",
        "country": "Kazakhstan",
        "province": "Aqtöbe",
        "population": 18760,
        "latitude": 48.829814,
        "longitude": 58.150422
    },
    {
        "name": "Zhänibek",
        "country": "Kazakhstan",
        "province": "East Kazakhstan",
        "population": 8212,
        "latitude": 49.422785,
        "longitude": 46.84626
    },
    {
        "name": "Dzhangala",
        "country": "Kazakhstan",
        "province": "Kazakhstan",
        "population": 5954,
        "latitude": 49.2166667,
        "longitude": 50.3333333
    },
    {
        "name": "Zhympīty",
        "country": "Kazakhstan",
        "province": "East Kazakhstan",
        "population": 6262,
        "latitude": 50.256038,
        "longitude": 52.593169
    },
    {
        "name": "Chingirlau",
        "country": "Kazakhstan",
        "province": "East Kazakhstan",
        "population": 6218,
        "latitude": 51.099965,
        "longitude": 54.087457
    },
    {
        "name": "Chapaev",
        "country": "Kazakhstan",
        "province": "East Kazakhstan",
        "population": 6000,
        "latitude": 50.187227,
        "longitude": 51.177105
    },
    {
        "name": "Börili",
        "country": "Kazakhstan",
        "province": "East Kazakhstan",
        "population": 3593,
        "latitude": 51.427814,
        "longitude": 52.710758
    },
    {
        "name": "Beyneu",
        "country": "Kazakhstan",
        "province": "Mangghystaū",
        "population": 14245,
        "latitude": 45.316667,
        "longitude": 55.2
    },
    {
        "name": "Baūtīno",
        "country": "Kazakhstan",
        "province": "Mangghystaū",
        "population": 3247,
        "latitude": 44.544789,
        "longitude": 50.246285
    },
    {
        "name": "Balyqshy",
        "country": "Kazakhstan",
        "province": "Atyraū",
        "population": 19260,
        "latitude": 47.066667,
        "longitude": 51.866667
    },
    {
        "name": "Aksay",
        "country": "Kazakhstan",
        "province": "East Kazakhstan",
        "population": 34799,
        "latitude": 51.168098,
        "longitude": 52.997815
    },
    {
        "name": "Priozersk",
        "country": "Kazakhstan",
        "province": "Karaganda",
        "population": 13457,
        "latitude": 46.03105733995,
        "longitude": 73.7024688720703
    },
    {
        "name": "Gangyushkīno",
        "country": "Kazakhstan",
        "province": "Atyraū",
        "population": -1,
        "latitude": 46.564567,
        "longitude": 48.682363
    },
    {
        "name": "Shakhat",
        "country": "Kazakhstan",
        "province": "East Kazakhstan",
        "population": -1,
        "latitude": 49.705034,
        "longitude": 49.416302
    },
    {
        "name": "Goloshchëkino",
        "country": "Kazakhstan",
        "province": "Qostanay",
        "population": -1,
        "latitude": 53.882304,
        "longitude": 61.951408
    },
    {
        "name": "Syrdar’īnskoe",
        "country": "Kazakhstan",
        "province": "Turkistan",
        "population": -1,
        "latitude": 41.491824,
        "longitude": 68.033073
    },
    {
        "name": "Chinzhi",
        "country": "Kazakhstan",
        "province": "Abai Region",
        "population": -1,
        "latitude": 50.180029,
        "longitude": 79.264634
    },
    {
        "name": "Ozernyy",
        "country": "Kazakhstan",
        "province": "Karaganda",
        "population": 3563,
        "latitude": 46.807141,
        "longitude": 75.035999
    },
    {
        "name": "Chiganak",
        "country": "Kazakhstan",
        "province": "Zhambyl",
        "population": 2405,
        "latitude": 44.830556,
        "longitude": 70.001944
    },
    {
        "name": "Chelgashi",
        "country": "Kazakhstan",
        "province": "Qostanay",
        "population": -1,
        "latitude": 52.137193,
        "longitude": 65.650668
    },
    {
        "name": "Bozingen",
        "country": "Kazakhstan",
        "province": "Almaty",
        "population": -1,
        "latitude": 45.3875,
        "longitude": 75.252778
    },
    {
        "name": "Akdala",
        "country": "Kazakhstan",
        "province": "Zhambyl",
        "population": -1,
        "latitude": 44.245665,
        "longitude": 73.333739
    },
    {
        "name": "Altay",
        "country": "Kazakhstan",
        "province": "Batys Qazaqstan",
        "population": 2678,
        "latitude": 50.245931,
        "longitude": 82.362522
    },
    {
        "name": "Sovkhoz Imeni Abaya",
        "country": "Kazakhstan",
        "province": "Turkistan",
        "population": -1,
        "latitude": 41.290402,
        "longitude": 68.661745
    },
    {
        "name": "Novotroitsk",
        "country": "Kazakhstan",
        "province": "Batys Qazaqstan",
        "population": -1,
        "latitude": 49.830164,
        "longitude": 82.891544
    },
    {
        "name": "Amandyk",
        "country": "Kazakhstan",
        "province": "North Kazakhstan",
        "population": -1,
        "latitude": 53.466669,
        "longitude": 70.402514
    },
    {
        "name": "Boroshilovo",
        "country": "Kazakhstan",
        "province": "Aqmola",
        "population": -1,
        "latitude": 52.861313,
        "longitude": 72.746663
    },
    {
        "name": "Maleevsk",
        "country": "Kazakhstan",
        "province": "Batys Qazaqstan",
        "population": 2678,
        "latitude": 49.814406,
        "longitude": 84.291021
    },
    {
        "name": "Belköl",
        "country": "Kazakhstan",
        "province": "Qyzylorda",
        "population": 1486,
        "latitude": 44.813842,
        "longitude": 65.587779
    },
    {
        "name": "Madeniyet",
        "country": "Kazakhstan",
        "province": "North Kazakhstan",
        "population": -1,
        "latitude": 53.001917,
        "longitude": 67.218672
    },
    {
        "name": "Sarsay",
        "country": "Kazakhstan",
        "province": "North Kazakhstan",
        "population": -1,
        "latitude": 53.08284,
        "longitude": 67.733904
    },
    {
        "name": "Madeniyet",
        "country": "Kazakhstan",
        "province": "North Kazakhstan",
        "population": -1,
        "latitude": 53.126011,
        "longitude": 68.034792
    },
    {
        "name": "Podzavodsk",
        "country": "Kazakhstan",
        "province": "Aqmola",
        "population": -1,
        "latitude": 52.74229,
        "longitude": 68.903162
    },
    {
        "name": "Akchok",
        "country": "Kazakhstan",
        "province": "North Kazakhstan",
        "population": -1,
        "latitude": 52.684952,
        "longitude": 67.88109
    },
    {
        "name": "Zhanaaul",
        "country": "Kazakhstan",
        "province": "Pavlodar Region",
        "population": -1,
        "latitude": 52.71192,
        "longitude": 76.470939
    },
    {
        "name": "Kurchum",
        "country": "Kazakhstan",
        "province": "Batys Qazaqstan",
        "population": 8800,
        "latitude": 48.566028,
        "longitude": 83.661463
    },
    {
        "name": "Kūlomzīno",
        "country": "Kazakhstan",
        "province": "North Kazakhstan",
        "population": -1,
        "latitude": 55.249464,
        "longitude": 70.474468
    },
    {
        "name": "Kystau-Kurchum",
        "country": "Kazakhstan",
        "province": "Batys Qazaqstan",
        "population": -1,
        "latitude": 48.671915,
        "longitude": 84.517796
    },
    {
        "name": "Yekpindi",
        "country": "Kazakhstan",
        "province": "Turkistan",
        "population": -1,
        "latitude": 42.795432,
        "longitude": 69.193688
    },
    {
        "name": "Krasnogorskīy",
        "country": "Kazakhstan",
        "province": "Aqmola",
        "population": 3646,
        "latitude": 52.245599,
        "longitude": 66.520814
    },
    {
        "name": "Karamyrza",
        "country": "Kazakhstan",
        "province": "Qostanay",
        "population": -1,
        "latitude": 52.547164,
        "longitude": 65.822742
    },
    {
        "name": "Kovyl'naya",
        "country": "Kazakhstan",
        "province": "Aqmola",
        "population": -1,
        "latitude": 52.042037,
        "longitude": 66.053652
    },
    {
        "name": "Kotel'nīkovo",
        "country": "Kazakhstan",
        "province": "Pavlodar Region",
        "population": -1,
        "latitude": 53.152337,
        "longitude": 73.984178
    },
    {
        "name": "Kyzylasker",
        "country": "Kazakhstan",
        "province": "Turkistan",
        "population": -1,
        "latitude": 43.386428,
        "longitude": 68.0598
    },
    {
        "name": "Karsakovka",
        "country": "Kazakhstan",
        "province": "North Kazakhstan",
        "population": -1,
        "latitude": 52.801,
        "longitude": 67.771566
    },
    {
        "name": "Konstantīnovka",
        "country": "Kazakhstan",
        "province": "Pavlodar Region",
        "population": -1,
        "latitude": 52.786723,
        "longitude": 77.220808
    },
    {
        "name": "Komsomol'skoe",
        "country": "Kazakhstan",
        "province": "North Kazakhstan",
        "population": -1,
        "latitude": 53.12899,
        "longitude": 72.341902
    },
    {
        "name": "Komsomol'skoye",
        "country": "Kazakhstan",
        "province": "Aqtöbe",
        "population": -1,
        "latitude": 50.433557,
        "longitude": 60.500574
    },
    {
        "name": "Komsomol",
        "country": "Kazakhstan",
        "province": "North Kazakhstan",
        "population": -1,
        "latitude": 53.754788,
        "longitude": 66.401619
    },
    {
        "name": "Komsomolets",
        "country": "Kazakhstan",
        "province": "Qostanay",
        "population": 9838,
        "latitude": 53.750188,
        "longitude": 62.0584
    },
    {
        "name": "Qolzhat",
        "country": "Kazakhstan",
        "province": "Almaty",
        "population": -1,
        "latitude": 43.509516,
        "longitude": 80.674262
    },
    {
        "name": "Klement'evka",
        "country": "Kazakhstan",
        "province": "Abai Region",
        "population": -1,
        "latitude": 50.261449,
        "longitude": 80.929267
    },
    {
        "name": "Qīyaly",
        "country": "Kazakhstan",
        "province": "North Kazakhstan",
        "population": -1,
        "latitude": 54.200286,
        "longitude": 69.648046
    },
    {
        "name": "Taldinka",
        "country": "Kazakhstan",
        "province": "Karaganda",
        "population": -1,
        "latitude": 49.538383,
        "longitude": 75.879107
    },
    {
        "name": "Belaghash",
        "country": "Kazakhstan",
        "province": "Karaganda",
        "population": -1,
        "latitude": 50.074376,
        "longitude": 74.295391
    },
    {
        "name": "Khersonskiy",
        "country": "Kazakhstan",
        "province": "North Kazakhstan",
        "population": -1,
        "latitude": 53.921483,
        "longitude": 73.506521
    },
    {
        "name": "Khozret",
        "country": "Kazakhstan",
        "province": "Qostanay",
        "population": -1,
        "latitude": 51.973231,
        "longitude": 60.460677
    },
    {
        "name": "Karabulak",
        "country": "Kazakhstan",
        "province": "Jetisu Region",
        "population": -1,
        "latitude": 44.908807,
        "longitude": 78.490439
    },
    {
        "name": "Kendyrlik",
        "country": "Kazakhstan",
        "province": "Batys Qazaqstan",
        "population": -1,
        "latitude": 47.499812,
        "longitude": 85.173658
    },
    {
        "name": "Kegen",
        "country": "Kazakhstan",
        "province": "Almaty",
        "population": 9993,
        "latitude": 43.021427,
        "longitude": 79.220545
    },
    {
        "name": "Qazanshungkyr",
        "country": "Kazakhstan",
        "province": "Abai Region",
        "population": -1,
        "latitude": 49.554409,
        "longitude": 81.772833
    },
    {
        "name": "Qazaly",
        "country": "Kazakhstan",
        "province": "Qyzylorda",
        "population": 7686,
        "latitude": 45.764143,
        "longitude": 62.101316
    },
    {
        "name": "Qotanqaraghay",
        "country": "Kazakhstan",
        "province": "Batys Qazaqstan",
        "population": -1,
        "latitude": 49.175088,
        "longitude": 85.602363
    },
    {
        "name": "Karynsaldy",
        "country": "Kazakhstan",
        "province": "Qostanay",
        "population": -1,
        "latitude": 50.770758,
        "longitude": 66.044952
    },
    {
        "name": "Karaoy",
        "country": "Kazakhstan",
        "province": "Almaty",
        "population": -1,
        "latitude": 43.520604,
        "longitude": 76.831178
    },
    {
        "name": "Ashchysay",
        "country": "Kazakhstan",
        "province": "Almaty",
        "population": -1,
        "latitude": 43.555819,
        "longitude": 77.975187
    },
    {
        "name": "Karasu",
        "country": "Kazakhstan",
        "province": "Karaganda",
        "population": -1,
        "latitude": 47.440008,
        "longitude": 75.586984
    },
    {
        "name": "Karakastek",
        "country": "Kazakhstan",
        "province": "Almaty",
        "population": -1,
        "latitude": 43.132954,
        "longitude": 76.1012
    },
    {
        "name": "Karagayly",
        "country": "Kazakhstan",
        "province": "Qostanay",
        "population": -1,
        "latitude": 53.364648,
        "longitude": 64.875723
    },
    {
        "name": "Konyrtubek",
        "country": "Kazakhstan",
        "province": "Aqmola",
        "population": -1,
        "latitude": 50.895012,
        "longitude": 69.180611
    },
    {
        "name": "Tenizovskiy",
        "country": "Kazakhstan",
        "province": "Qostanay",
        "population": -1,
        "latitude": 54.098635,
        "longitude": 64.427327
    },
    {
        "name": "Kantagi",
        "country": "Kazakhstan",
        "province": "Turkistan",
        "population": 10186,
        "latitude": 43.527861,
        "longitude": 68.58287
    },
    {
        "name": "Kansor",
        "country": "Kazakhstan",
        "province": "Qostanay",
        "population": -1,
        "latitude": 53.346341,
        "longitude": 61.28098
    },
    {
        "name": "Kamyshenka",
        "country": "Kazakhstan",
        "province": "Abai Region",
        "population": -1,
        "latitude": 50.702231,
        "longitude": 80.745003
    },
    {
        "name": "Kalkaman",
        "country": "Kazakhstan",
        "province": "Pavlodar Region",
        "population": 5415,
        "latitude": 51.953488,
        "longitude": 76.027232
    },
    {
        "name": "Qaratoghay",
        "country": "Kazakhstan",
        "province": "Batys Qazaqstan",
        "population": -1,
        "latitude": 48.39287,
        "longitude": 84.479906
    },
    {
        "name": "Kayyndykol'",
        "country": "Kazakhstan",
        "province": "Qostanay",
        "population": -1,
        "latitude": 52.293673,
        "longitude": 62.666117
    },
    {
        "name": "Īvanovka",
        "country": "Kazakhstan",
        "province": "Abai Region",
        "population": -1,
        "latitude": 48.551287,
        "longitude": 82.798131
    },
    {
        "name": "Ishimskoye",
        "country": "Kazakhstan",
        "province": "North Kazakhstan",
        "population": -1,
        "latitude": 53.57846,
        "longitude": 66.805126
    },
    {
        "name": "Muratbayevo",
        "country": "Kazakhstan",
        "province": "Turkistan",
        "population": -1,
        "latitude": 41.12861,
        "longitude": 68.733333
    },
    {
        "name": "Tokhtarovo",
        "country": "Kazakhstan",
        "province": "Qostanay",
        "population": -1,
        "latitude": 52.11188,
        "longitude": 61.558257
    },
    {
        "name": "Imeni Panfilova",
        "country": "Kazakhstan",
        "province": "Almaty",
        "population": -1,
        "latitude": 43.388101,
        "longitude": 77.121342
    },
    {
        "name": "Molodogvardeyskoe",
        "country": "Kazakhstan",
        "province": "North Kazakhstan",
        "population": -1,
        "latitude": 54.094667,
        "longitude": 70.796527
    },
    {
        "name": "Kīrov",
        "country": "Kazakhstan",
        "province": "North Kazakhstan",
        "population": -1,
        "latitude": 54.149081,
        "longitude": 70.324228
    },
    {
        "name": "Altynemel",
        "country": "Kazakhstan",
        "province": "Jetisu Region",
        "population": -1,
        "latitude": 44.335741,
        "longitude": 78.447512
    },
    {
        "name": "Imeni Karla Marksa",
        "country": "Kazakhstan",
        "province": "Qostanay",
        "population": -1,
        "latitude": 54.332179,
        "longitude": 65.638818
    },
    {
        "name": "Mulyavskoye",
        "country": "Kazakhstan",
        "province": "Pavlodar Region",
        "population": -1,
        "latitude": 52.900981,
        "longitude": 76.236136
    },
    {
        "name": "Ibata",
        "country": "Kazakhstan",
        "province": "Turkistan",
        "population": -1,
        "latitude": 43.342315,
        "longitude": 68.680931
    },
    {
        "name": "Grigor'yevka",
        "country": "Kazakhstan",
        "province": "North Kazakhstan",
        "population": -1,
        "latitude": 54.366521,
        "longitude": 71.027258
    },
    {
        "name": "Grabovo",
        "country": "Kazakhstan",
        "province": "Pavlodar Region",
        "population": -1,
        "latitude": 53.111424,
        "longitude": 74.874147
    },
    {
        "name": "Gornoe",
        "country": "Kazakhstan",
        "province": "Batys Qazaqstan",
        "population": -1,
        "latitude": 48.466765,
        "longitude": 84.997639
    },
    {
        "name": "Aysha bibi",
        "country": "Kazakhstan",
        "province": "Zhambyl",
        "population": -1,
        "latitude": 42.836589,
        "longitude": 71.206749
    },
    {
        "name": "Korday",
        "country": "Kazakhstan",
        "province": "Zhambyl",
        "population": 9821,
        "latitude": 43.038822,
        "longitude": 74.71287
    },
    {
        "name": "Georgīivka",
        "country": "Kazakhstan",
        "province": "Qostanay",
        "population": -1,
        "latitude": 52.693039,
        "longitude": 61.084184
    },
    {
        "name": "Moyynkum",
        "country": "Kazakhstan",
        "province": "Zhambyl",
        "population": 10923,
        "latitude": 44.284612,
        "longitude": 72.939196
    },
    {
        "name": "Fedorovka",
        "country": "Kazakhstan",
        "province": "Qostanay",
        "population": 8317,
        "latitude": 53.638089,
        "longitude": 62.696535
    },
    {
        "name": "Esil",
        "country": "Kazakhstan",
        "province": "Aqmola",
        "population": 13504,
        "latitude": 51.954527,
        "longitude": 66.407722
    },
    {
        "name": "Zhetysay",
        "country": "Kazakhstan",
        "province": "Turkistan",
        "population": -1,
        "latitude": 40.776313,
        "longitude": 68.32774
    },
    {
        "name": "Dzhana-Aul",
        "country": "Kazakhstan",
        "province": "Batys Qazaqstan",
        "population": -1,
        "latitude": 48.14163,
        "longitude": 85.197857
    },
    {
        "name": "Dönenbay",
        "country": "Kazakhstan",
        "province": "Abai Region",
        "population": -1,
        "latitude": 48.148017,
        "longitude": 80.032626
    },
    {
        "name": "Dolinka",
        "country": "Kazakhstan",
        "province": "Karaganda",
        "population": 4543,
        "latitude": 49.676853,
        "longitude": 72.678224
    },
    {
        "name": "Dokūchaevka",
        "country": "Kazakhstan",
        "province": "Qostanay",
        "population": -1,
        "latitude": 51.657084,
        "longitude": 64.225345
    },
    {
        "name": "Karakuduk",
        "country": "Kazakhstan",
        "province": "Pavlodar Region",
        "population": -1,
        "latitude": 53.213569,
        "longitude": 75.430447
    },
    {
        "name": "Dal'noye",
        "country": "Kazakhstan",
        "province": "Aqmola",
        "population": -1,
        "latitude": 52.240766,
        "longitude": 66.372275
    },
    {
        "name": "Chundzha",
        "country": "Kazakhstan",
        "province": "Almaty",
        "population": -1,
        "latitude": 43.538134,
        "longitude": 79.465819
    },
    {
        "name": "Kirovo",
        "country": "Kazakhstan",
        "province": "Almaty",
        "population": -1,
        "latitude": 43.252909,
        "longitude": 76.360489
    },
    {
        "name": "Chervonnoye",
        "country": "Kazakhstan",
        "province": "North Kazakhstan",
        "population": -1,
        "latitude": 53.276442,
        "longitude": 66.726341
    },
    {
        "name": "Chernozūbovka",
        "country": "Kazakhstan",
        "province": "North Kazakhstan",
        "population": -1,
        "latitude": 52.692914,
        "longitude": 66.629696
    },
    {
        "name": "Chyornoe",
        "country": "Kazakhstan",
        "province": "Pavlodar Region",
        "population": -1,
        "latitude": 51.721812,
        "longitude": 77.531196
    },
    {
        "name": "Chernoretskoe",
        "country": "Kazakhstan",
        "province": "Pavlodar Region",
        "population": -1,
        "latitude": 52.748998,
        "longitude": 76.651643
    },
    {
        "name": "Sherdayaq",
        "country": "Kazakhstan",
        "province": "Batys Qazaqstan",
        "population": -1,
        "latitude": 48.82058,
        "longitude": 84.002844
    },
    {
        "name": "Shenggeldi",
        "country": "Kazakhstan",
        "province": "Turkistan",
        "population": -1,
        "latitude": 41.858333,
        "longitude": 68.992222
    },
    {
        "name": "Burylbaytal",
        "country": "Kazakhstan",
        "province": "Zhambyl",
        "population": -1,
        "latitude": 45.043289,
        "longitude": 74.046132
    },
    {
        "name": "Būlaevo",
        "country": "Kazakhstan",
        "province": "North Kazakhstan",
        "population": 9886,
        "latitude": 54.905963,
        "longitude": 70.441549
    },
    {
        "name": "Bodene",
        "country": "Kazakhstan",
        "province": "Abai Region",
        "population": -1,
        "latitude": 50.618196,
        "longitude": 79.113155
    },
    {
        "name": "Budennovskoye",
        "country": "Kazakhstan",
        "province": "Jetisu Region",
        "population": -1,
        "latitude": 44.649633,
        "longitude": 78.752231
    },
    {
        "name": "Budënnovka",
        "country": "Kazakhstan",
        "province": "Aqmola",
        "population": -1,
        "latitude": 52.100441,
        "longitude": 69.627027
    },
    {
        "name": "Borovskoy",
        "country": "Kazakhstan",
        "province": "Qostanay",
        "population": 9659,
        "latitude": 53.792695,
        "longitude": 64.182678
    },
    {
        "name": "Būrabay",
        "country": "Kazakhstan",
        "province": "North Kazakhstan",
        "population": 6500,
        "latitude": 53.0838176001005,
        "longitude": 70.3137874603271
    },
    {
        "name": "Borodūlīkha",
        "country": "Kazakhstan",
        "province": "Abai Region",
        "population": 5931,
        "latitude": 50.71841,
        "longitude": 80.929502
    },
    {
        "name": "Ülkennaryn",
        "country": "Kazakhstan",
        "province": "Batys Qazaqstan",
        "population": -1,
        "latitude": 49.212448,
        "longitude": 84.507575
    },
    {
        "name": "Besqaraghay",
        "country": "Kazakhstan",
        "province": "Abai Region",
        "population": -1,
        "latitude": 50.886714,
        "longitude": 79.482289
    },
    {
        "name": "Ülken Böken",
        "country": "Kazakhstan",
        "province": "Abai Region",
        "population": -1,
        "latitude": 48.782896,
        "longitude": 82.697548
    },
    {
        "name": "Boko",
        "country": "Kazakhstan",
        "province": "Abai Region",
        "population": 1052,
        "latitude": 49.056316,
        "longitude": 81.637211
    },
    {
        "name": "Bikktesin",
        "country": "Kazakhstan",
        "province": "Aqmola",
        "population": -1,
        "latitude": 53.480884,
        "longitude": 68.934562
    },
    {
        "name": "Birlikskoye",
        "country": "Kazakhstan",
        "province": "North Kazakhstan",
        "population": -1,
        "latitude": 53.041379,
        "longitude": 66.723537
    },
    {
        "name": "Bīghash",
        "country": "Kazakhstan",
        "province": "Abai Region",
        "population": -1,
        "latitude": 48.638413,
        "longitude": 82.009387
    },
    {
        "name": "Bīdayyq",
        "country": "Kazakhstan",
        "province": "North Kazakhstan",
        "population": -1,
        "latitude": 54.03004,
        "longitude": 72.735179
    },
    {
        "name": "Bestöbe",
        "country": "Kazakhstan",
        "province": "Aqmola",
        "population": 7189,
        "latitude": 52.497951,
        "longitude": 73.095919
    },
    {
        "name": "Belozerka",
        "country": "Kazakhstan",
        "province": "Qostanay",
        "population": -1,
        "latitude": 52.804572,
        "longitude": 63.277197
    },
    {
        "name": "Koktobe",
        "country": "Kazakhstan",
        "province": "Pavlodar Region",
        "population": 3610,
        "latitude": 51.529831,
        "longitude": 77.471463
    },
    {
        "name": "Belogorskīy",
        "country": "Kazakhstan",
        "province": "Batys Qazaqstan",
        "population": 1530,
        "latitude": 49.478874,
        "longitude": 83.141381
    },
    {
        "name": "Belaghash",
        "country": "Kazakhstan",
        "province": "Abai Region",
        "population": -1,
        "latitude": 50.768825,
        "longitude": 80.663805
    },
    {
        "name": "Kengesshil",
        "country": "Kazakhstan",
        "province": "Turkistan",
        "population": -1,
        "latitude": 40.858695,
        "longitude": 68.540388
    },
    {
        "name": "Yegindykul’",
        "country": "Kazakhstan",
        "province": "Aqmola",
        "population": -1,
        "latitude": 50.844193,
        "longitude": 70.828166
    },
    {
        "name": "Zlatogorka",
        "country": "Kazakhstan",
        "province": "North Kazakhstan",
        "population": -1,
        "latitude": 53.062743,
        "longitude": 68.051212
    },
    {
        "name": "Zhūravlyovka",
        "country": "Kazakhstan",
        "province": "Aqmola",
        "population": -1,
        "latitude": 51.947885,
        "longitude": 69.954731
    },
    {
        "name": "Zholymbet",
        "country": "Kazakhstan",
        "province": "Aqmola",
        "population": 6876,
        "latitude": 51.742591,
        "longitude": 71.709709
    },
    {
        "name": "Zhelezīnka",
        "country": "Kazakhstan",
        "province": "Pavlodar Region",
        "population": 5225,
        "latitude": 53.538803,
        "longitude": 75.313256
    },
    {
        "name": "Shöptiköl",
        "country": "Kazakhstan",
        "province": "North Kazakhstan",
        "population": -1,
        "latitude": 52.430885,
        "longitude": 66.752602
    },
    {
        "name": "Dzhansugurov",
        "country": "Kazakhstan",
        "province": "Jetisu Region",
        "population": -1,
        "latitude": 45.398013,
        "longitude": 79.504023
    },
    {
        "name": "Zhangaötkel",
        "country": "Kazakhstan",
        "province": "Zhambyl",
        "population": -1,
        "latitude": 43.125531,
        "longitude": 70.721817
    },
    {
        "name": "Zhangatap",
        "country": "Kazakhstan",
        "province": "Pavlodar Region",
        "population": -1,
        "latitude": 52.800705,
        "longitude": 76.389329
    },
    {
        "name": "Arqaty",
        "country": "Kazakhstan",
        "province": "Abai Region",
        "population": -1,
        "latitude": 49.033702,
        "longitude": 80.063744
    },
    {
        "name": "Sovkhoz Baskan",
        "country": "Kazakhstan",
        "province": "Jetisu Region",
        "population": -1,
        "latitude": 45.752525,
        "longitude": 79.679366
    },
    {
        "name": "Uchastok Lenina",
        "country": "Kazakhstan",
        "province": "Qyzylorda",
        "population": -1,
        "latitude": 43.939386,
        "longitude": 67.448814
    },
    {
        "name": "Zhanaaul",
        "country": "Kazakhstan",
        "province": "Pavlodar Region",
        "population": -1,
        "latitude": 52.249127,
        "longitude": 78.651813
    },
    {
        "name": "Pervoye Maya",
        "country": "Kazakhstan",
        "province": "Qyzylorda",
        "population": -1,
        "latitude": 43.834722,
        "longitude": 67.176944
    },
    {
        "name": "Zhanaarna",
        "country": "Kazakhstan",
        "province": "Abai Region",
        "population": -1,
        "latitude": 48.434642,
        "longitude": 79.773077
    },
    {
        "name": "Zhalgyskan",
        "country": "Kazakhstan",
        "province": "Qostanay",
        "population": -1,
        "latitude": 52.992902,
        "longitude": 65.111938
    },
    {
        "name": "Zhalgyzagash",
        "country": "Kazakhstan",
        "province": "Jetisu Region",
        "population": -1,
        "latitude": 44.764505,
        "longitude": 78.557524
    },
    {
        "name": "Zhalghyztobe",
        "country": "Kazakhstan",
        "province": "East Kazakhstan",
        "population": 4400,
        "latitude": 49.210939,
        "longitude": 81.215956
    },
    {
        "name": "Zhaksy-Zhangyztau",
        "country": "Kazakhstan",
        "province": "North Kazakhstan",
        "population": -1,
        "latitude": 52.641055,
        "longitude": 68.221246
    },
    {
        "name": "Zhaksy",
        "country": "Kazakhstan",
        "province": "Aqmola",
        "population": 5001,
        "latitude": 51.910578,
        "longitude": 67.316646
    },
    {
        "name": "Zhayylma",
        "country": "Kazakhstan",
        "province": "Qostanay",
        "population": -1,
        "latitude": 51.539452,
        "longitude": 61.630482
    },
    {
        "name": "Zhabagyly",
        "country": "Kazakhstan",
        "province": "Pavlodar Region",
        "population": -1,
        "latitude": 51.493533,
        "longitude": 78.843758
    },
    {
        "name": "Barlybay",
        "country": "Kazakhstan",
        "province": "Pavlodar Region",
        "population": -1,
        "latitude": 52.916414,
        "longitude": 75.06826
    },
    {
        "name": "Uzynbulaq",
        "country": "Kazakhstan",
        "province": "Almaty",
        "population": -1,
        "latitude": 43.166667,
        "longitude": 79.016667
    },
    {
        "name": "Yelizavetinka",
        "country": "Kazakhstan",
        "province": "Aqmola",
        "population": -1,
        "latitude": 51.474656,
        "longitude": 71.211164
    },
    {
        "name": "Egindibulaq",
        "country": "Kazakhstan",
        "province": "Abai Region",
        "population": -1,
        "latitude": 48.892857,
        "longitude": 81.0736
    },
    {
        "name": "Balyqtybulaq",
        "country": "Kazakhstan",
        "province": "Batys Qazaqstan",
        "population": -1,
        "latitude": 48.84523,
        "longitude": 86.532443
    },
    {
        "name": "Arshaly",
        "country": "Kazakhstan",
        "province": "Aqmola",
        "population": -1,
        "latitude": 50.831124,
        "longitude": 72.179953
    },
    {
        "name": "Vīl'yamskīy",
        "country": "Kazakhstan",
        "province": "Qostanay",
        "population": -1,
        "latitude": 51.862585,
        "longitude": 65.191008
    },
    {
        "name": "Verkhūba",
        "country": "Kazakhstan",
        "province": "Batys Qazaqstan",
        "population": -1,
        "latitude": 50.476607,
        "longitude": 82.417808
    },
    {
        "name": "Pendzhim",
        "country": "Kazakhstan",
        "province": "Jetisu Region",
        "population": -1,
        "latitude": 44.213212,
        "longitude": 80.206046
    },
    {
        "name": "Uzunbulak",
        "country": "Kazakhstan",
        "province": "Abai Region",
        "population": -1,
        "latitude": 48.623116,
        "longitude": 82.356749
    },
    {
        "name": "Uzynaghash",
        "country": "Kazakhstan",
        "province": "Qostanay",
        "population": -1,
        "latitude": 54.327035,
        "longitude": 64.300065
    },
    {
        "name": "Ūst'-Talovka",
        "country": "Kazakhstan",
        "province": "Batys Qazaqstan",
        "population": 6122,
        "latitude": 50.550581,
        "longitude": 81.848466
    },
    {
        "name": "Ūspenka",
        "country": "Kazakhstan",
        "province": "Batys Qazaqstan",
        "population": -1,
        "latitude": 48.598284,
        "longitude": 85.969011
    },
    {
        "name": "Ushsorka",
        "country": "Kazakhstan",
        "province": "Qostanay",
        "population": -1,
        "latitude": 52.067149,
        "longitude": 62.548617
    },
    {
        "name": "Urunkhayka",
        "country": "Kazakhstan",
        "province": "Batys Qazaqstan",
        "population": -1,
        "latitude": 48.785776,
        "longitude": 86.027291
    },
    {
        "name": "Ūrlyutyub",
        "country": "Kazakhstan",
        "province": "Pavlodar Region",
        "population": -1,
        "latitude": 53.731427,
        "longitude": 75.028767
    },
    {
        "name": "Uritskiy",
        "country": "Kazakhstan",
        "province": "Qostanay",
        "population": -1,
        "latitude": 53.31891,
        "longitude": 65.539225
    },
    {
        "name": "Botaqara",
        "country": "Kazakhstan",
        "province": "Karaganda",
        "population": -1,
        "latitude": 50.060009,
        "longitude": 73.713971
    },
    {
        "name": "Ubinka",
        "country": "Kazakhstan",
        "province": "Batys Qazaqstan",
        "population": -1,
        "latitude": 50.320212,
        "longitude": 81.733165
    },
    {
        "name": "Uba-Forpost",
        "country": "Kazakhstan",
        "province": "Abai Region",
        "population": -1,
        "latitude": 50.33923,
        "longitude": 81.642027
    },
    {
        "name": "Tyul’kubas",
        "country": "Kazakhstan",
        "province": "Turkistan",
        "population": 10802,
        "latitude": 42.485779,
        "longitude": 70.29601
    },
    {
        "name": "Aqqum",
        "country": "Kazakhstan",
        "province": "Aqtöbe",
        "population": -1,
        "latitude": 50.076464,
        "longitude": 62.124182
    },
    {
        "name": "Tuzagash",
        "country": "Kazakhstan",
        "province": "Pavlodar Region",
        "population": -1,
        "latitude": 51.31879,
        "longitude": 78.696039
    },
    {
        "name": "Krasnooktyabr'skiy",
        "country": "Kazakhstan",
        "province": "Qostanay",
        "population": -1,
        "latitude": 52.047568,
        "longitude": 62.401392
    },
    {
        "name": "Togurzhap",
        "country": "Kazakhstan",
        "province": "North Kazakhstan",
        "population": -1,
        "latitude": 53.51457,
        "longitude": 71.930988
    },
    {
        "name": "Troyebratskiy",
        "country": "Kazakhstan",
        "province": "Qostanay",
        "population": 2951,
        "latitude": 54.443061,
        "longitude": 66.079823
    },
    {
        "name": "Kzyltan",
        "country": "Kazakhstan",
        "province": "Aqmola",
        "population": -1,
        "latitude": 53.391909,
        "longitude": 69.696348
    },
    {
        "name": "Budennovka",
        "country": "Kazakhstan",
        "province": "Batys Qazaqstan",
        "population": -1,
        "latitude": 48.779335,
        "longitude": 84.202926
    },
    {
        "name": "Topolyovka",
        "country": "Kazakhstan",
        "province": "Jetisu Region",
        "population": -1,
        "latitude": 45.427162,
        "longitude": 80.33074
    },
    {
        "name": "Birlik",
        "country": "Kazakhstan",
        "province": "Aqmola",
        "population": -1,
        "latitude": 51.636327,
        "longitude": 69.477465
    },
    {
        "name": "Tokarevka",
        "country": "Kazakhstan",
        "province": "Karaganda",
        "population": 4098,
        "latitude": 50.115733,
        "longitude": 73.160337
    },
    {
        "name": "Teristangbaly",
        "country": "Kazakhstan",
        "province": "Abai Region",
        "population": -1,
        "latitude": 50.094173,
        "longitude": 80.809447
    },
    {
        "name": "Tegermen",
        "country": "Kazakhstan",
        "province": "Almaty",
        "population": -1,
        "latitude": 43.396156,
        "longitude": 79.71207
    },
    {
        "name": "Ayat",
        "country": "Kazakhstan",
        "province": "Qostanay",
        "population": 3130,
        "latitude": 52.835541,
        "longitude": 62.520784
    },
    {
        "name": "Talshyq",
        "country": "Kazakhstan",
        "province": "North Kazakhstan",
        "population": 3111,
        "latitude": 53.637356,
        "longitude": 71.874039
    },
    {
        "name": "Suykbulak",
        "country": "Kazakhstan",
        "province": "Abai Region",
        "population": 1244,
        "latitude": 49.708375,
        "longitude": 81.048542
    },
    {
        "name": "Akzhan",
        "country": "Kazakhstan",
        "province": "North Kazakhstan",
        "population": -1,
        "latitude": 53.800314,
        "longitude": 66.698447
    },
    {
        "name": "Staroikan",
        "country": "Kazakhstan",
        "province": "Turkistan",
        "population": -1,
        "latitude": 43.191258,
        "longitude": 68.525442
    },
    {
        "name": "Qazasalghan",
        "country": "Kazakhstan",
        "province": "Qostanay",
        "population": -1,
        "latitude": 49.212563,
        "longitude": 62.651007
    },
    {
        "name": "Sovetskoe",
        "country": "Kazakhstan",
        "province": "North Kazakhstan",
        "population": -1,
        "latitude": 54.429572,
        "longitude": 70.343928
    },
    {
        "name": "Imeni Dzhambula",
        "country": "Kazakhstan",
        "province": "Aqmola",
        "population": -1,
        "latitude": 51.273661,
        "longitude": 70.319396
    },
    {
        "name": "Solov'yevo",
        "country": "Kazakhstan",
        "province": "Batys Qazaqstan",
        "population": -1,
        "latitude": 49.609763,
        "longitude": 84.35135
    },
    {
        "name": "Smīrnovo",
        "country": "Kazakhstan",
        "province": "North Kazakhstan",
        "population": 5742,
        "latitude": 54.514801,
        "longitude": 69.427316
    },
    {
        "name": "Ysmayylov",
        "country": "Kazakhstan",
        "province": "Qostanay",
        "population": -1,
        "latitude": 52.129458,
        "longitude": 62.703215
    },
    {
        "name": "Eskene Bulaghy",
        "country": "Kazakhstan",
        "province": "Abai Region",
        "population": -1,
        "latitude": 47.60178,
        "longitude": 80.918085
    },
    {
        "name": "Shungqyrköl",
        "country": "Kazakhstan",
        "province": "North Kazakhstan",
        "population": -1,
        "latitude": 53.86635,
        "longitude": 70.848212
    },
    {
        "name": "Shunkurkul'",
        "country": "Kazakhstan",
        "province": "Qostanay",
        "population": -1,
        "latitude": 52.268595,
        "longitude": 61.908354
    },
    {
        "name": "Shuqyrköl",
        "country": "Kazakhstan",
        "province": "North Kazakhstan",
        "population": -1,
        "latitude": 53.125603,
        "longitude": 67.304335
    },
    {
        "name": "Rgayty",
        "country": "Kazakhstan",
        "province": "Zhambyl",
        "population": -1,
        "latitude": 43.130577,
        "longitude": 74.846565
    },
    {
        "name": "Shokat",
        "country": "Kazakhstan",
        "province": "Pavlodar Region",
        "population": -1,
        "latitude": 52.32529,
        "longitude": 77.304272
    },
    {
        "name": "Shingozha",
        "country": "Kazakhstan",
        "province": "Abai Region",
        "population": -1,
        "latitude": 47.742684,
        "longitude": 80.642273
    },
    {
        "name": "Ulan",
        "country": "Kazakhstan",
        "province": "Batys Qazaqstan",
        "population": -1,
        "latitude": 49.741282,
        "longitude": 82.222306
    },
    {
        "name": "Shilikkemer",
        "country": "Kazakhstan",
        "province": "Almaty",
        "population": -1,
        "latitude": 43.515027,
        "longitude": 76.892458
    },
    {
        "name": "Shenggeldi",
        "country": "Kazakhstan",
        "province": "Almaty",
        "population": -1,
        "latitude": 43.980971,
        "longitude": 77.462856
    },
    {
        "name": "Shemonaīkha",
        "country": "Kazakhstan",
        "province": "Batys Qazaqstan",
        "population": 20087,
        "latitude": 50.628985,
        "longitude": 81.910923
    },
    {
        "name": "Shantobe",
        "country": "Kazakhstan",
        "province": "Aqmola",
        "population": 5626,
        "latitude": 52.453761,
        "longitude": 68.174747
    },
    {
        "name": "Shalqar",
        "country": "Kazakhstan",
        "province": "North Kazakhstan",
        "population": -1,
        "latitude": 53.175674,
        "longitude": 68.515286
    },
    {
        "name": "Sergeevka",
        "country": "Kazakhstan",
        "province": "North Kazakhstan",
        "population": 8845,
        "latitude": 53.881391,
        "longitude": 67.408821
    },
    {
        "name": "Serebryansk",
        "country": "Kazakhstan",
        "province": "Batys Qazaqstan",
        "population": -1,
        "latitude": 49.684024,
        "longitude": 83.296767
    },
    {
        "name": "Semizbughy",
        "country": "Kazakhstan",
        "province": "Karaganda",
        "population": -1,
        "latitude": 50.198415,
        "longitude": 74.831604
    },
    {
        "name": "Semīyarka",
        "country": "Kazakhstan",
        "province": "Abai Region",
        "population": -1,
        "latitude": 50.893174,
        "longitude": 78.310789
    },
    {
        "name": "Sayaq",
        "country": "Kazakhstan",
        "province": "Karaganda",
        "population": 4543,
        "latitude": 47,
        "longitude": 77.2666667
    },
    {
        "name": "Sastobe",
        "country": "Kazakhstan",
        "province": "Turkistan",
        "population": 6827,
        "latitude": 42.553302,
        "longitude": 69.998345
    },
    {
        "name": "Saryshaghan",
        "country": "Kazakhstan",
        "province": "Karaganda",
        "population": 4365,
        "latitude": 46.118052,
        "longitude": 73.613359
    },
    {
        "name": "Saksaul’skiy",
        "country": "Kazakhstan",
        "province": "Qyzylorda",
        "population": 9296,
        "latitude": 47.081524,
        "longitude": 61.152386
    },
    {
        "name": "Makeyevka",
        "country": "Kazakhstan",
        "province": "Aqmola",
        "population": -1,
        "latitude": 52.135886,
        "longitude": 68.29371
    },
    {
        "name": "Roshchinskoye",
        "country": "Kazakhstan",
        "province": "North Kazakhstan",
        "population": -1,
        "latitude": 54.059999,
        "longitude": 69.144053
    },
    {
        "name": "Rodinovka",
        "country": "Kazakhstan",
        "province": "Aqmola",
        "population": -1,
        "latitude": 51.044906,
        "longitude": 70.919768
    },
    {
        "name": "Razdol'noe",
        "country": "Kazakhstan",
        "province": "Aqmola",
        "population": -1,
        "latitude": 53.606227,
        "longitude": 69.616413
    },
    {
        "name": "Rakhman Qaynary",
        "country": "Kazakhstan",
        "province": "Batys Qazaqstan",
        "population": -1,
        "latitude": 49.531572,
        "longitude": 86.515413
    },
    {
        "name": "Qarqaraly",
        "country": "Kazakhstan",
        "province": "Karaganda",
        "population": 8195,
        "latitude": 49.412873,
        "longitude": 75.472858
    },
    {
        "name": "Qaraūyl",
        "country": "Kazakhstan",
        "province": "Abai Region",
        "population": 5261,
        "latitude": 48.945091,
        "longitude": 79.255017
    },
    {
        "name": "Pyateryzhsk",
        "country": "Kazakhstan",
        "province": "Pavlodar Region",
        "population": -1,
        "latitude": 53.368167,
        "longitude": 75.547701
    },
    {
        "name": "Prokhladnoe",
        "country": "Kazakhstan",
        "province": "Abai Region",
        "population": -1,
        "latitude": 48.508344,
        "longitude": 82.685028
    },
    {
        "name": "Presnoredut'",
        "country": "Kazakhstan",
        "province": "North Kazakhstan",
        "population": -1,
        "latitude": 54.555745,
        "longitude": 66.153631
    },
    {
        "name": "Pokrovka",
        "country": "Kazakhstan",
        "province": "Abai Region",
        "population": -1,
        "latitude": 49.429541,
        "longitude": 81.398662
    },
    {
        "name": "Tselīnnoe",
        "country": "Kazakhstan",
        "province": "North Kazakhstan",
        "population": -1,
        "latitude": 53.989315,
        "longitude": 66.072104
    },
    {
        "name": "Peshkovka",
        "country": "Kazakhstan",
        "province": "Qostanay",
        "population": -1,
        "latitude": 53.732189,
        "longitude": 62.393365
    },
    {
        "name": "Chapayevo",
        "country": "Kazakhstan",
        "province": "Aqmola",
        "population": -1,
        "latitude": 50.880805,
        "longitude": 67.147283
    },
    {
        "name": "Osibay",
        "country": "Kazakhstan",
        "province": "Karaganda",
        "population": -1,
        "latitude": 49.884364,
        "longitude": 76.626304
    },
    {
        "name": "Ordzhonīkīdze",
        "country": "Kazakhstan",
        "province": "Qostanay",
        "population": 4919,
        "latitude": 52.447718,
        "longitude": 61.749416
    },
    {
        "name": "Ondiris",
        "country": "Kazakhstan",
        "province": "Abai Region",
        "population": -1,
        "latitude": 50.950927,
        "longitude": 79.182586
    },
    {
        "name": "Al'zhanka",
        "country": "Kazakhstan",
        "province": "North Kazakhstan",
        "population": -1,
        "latitude": 53.063719,
        "longitude": 68.643119
    },
    {
        "name": "Ognevka",
        "country": "Kazakhstan",
        "province": "Batys Qazaqstan",
        "population": 1722,
        "latitude": 49.683682,
        "longitude": 83.016868
    },
    {
        "name": "Novorossiysk",
        "country": "Kazakhstan",
        "province": "Almaty",
        "population": -1,
        "latitude": 43.246827,
        "longitude": 76.43632
    },
    {
        "name": "Kumdykol'",
        "country": "Kazakhstan",
        "province": "Aqmola",
        "population": -1,
        "latitude": 52.77055,
        "longitude": 68.75549
    },
    {
        "name": "Novotimofeyevka",
        "country": "Kazakhstan",
        "province": "Batys Qazaqstan",
        "population": -1,
        "latitude": 49.10776,
        "longitude": 84.042895
    },
    {
        "name": "Novaya Shūl'ba",
        "country": "Kazakhstan",
        "province": "Abai Region",
        "population": -1,
        "latitude": 50.539782,
        "longitude": 81.328818
    },
    {
        "name": "Zhanga Buqtyrma",
        "country": "Kazakhstan",
        "province": "Batys Qazaqstan",
        "population": 6026,
        "latitude": 49.628725,
        "longitude": 83.521016
    },
    {
        "name": "Tömengi Burlyq",
        "country": "Kazakhstan",
        "province": "North Kazakhstan",
        "population": -1,
        "latitude": 52.773963,
        "longitude": 68.172177
    },
    {
        "name": "Sätbayev",
        "country": "Kazakhstan",
        "province": "Ulytau Region",
        "population": -1,
        "latitude": 47.904087,
        "longitude": 67.541119
    },
    {
        "name": "Zhetigen",
        "country": "Kazakhstan",
        "province": "Almaty",
        "population": -1,
        "latitude": 43.676537,
        "longitude": 77.109054
    },
    {
        "name": "Nezhīnka",
        "country": "Kazakhstan",
        "province": "North Kazakhstan",
        "population": -1,
        "latitude": 53.062096,
        "longitude": 66.742138
    },
    {
        "name": "Milybulak",
        "country": "Kazakhstan",
        "province": "Karaganda",
        "population": -1,
        "latitude": 48.906553,
        "longitude": 75.234984
    },
    {
        "name": "Muktikol'",
        "country": "Kazakhstan",
        "province": "Qostanay",
        "population": -1,
        "latitude": 51.796226,
        "longitude": 60.913923
    },
    {
        "name": "Novokrasnovskoye",
        "country": "Kazakhstan",
        "province": "Kazakhstan",
        "population": -1,
        "latitude": 53.562179,
        "longitude": 72.934443
    },
    {
        "name": "Mukur",
        "country": "Kazakhstan",
        "province": "North Kazakhstan",
        "population": -1,
        "latitude": 53.292632,
        "longitude": 67.068865
    },
    {
        "name": "Molodezhnoe",
        "country": "Kazakhstan",
        "province": "North Kazakhstan",
        "population": -1,
        "latitude": 54.565555,
        "longitude": 70.215751
    },
    {
        "name": "Men'shchikovka",
        "country": "Kazakhstan",
        "province": "Aqmola",
        "population": -1,
        "latitude": 52.676447,
        "longitude": 68.61173
    },
    {
        "name": "Mayqayyng",
        "country": "Kazakhstan",
        "province": "Pavlodar Region",
        "population": 7695,
        "latitude": 51.459807,
        "longitude": 75.80232
    },
    {
        "name": "Matay",
        "country": "Kazakhstan",
        "province": "Jetisu Region",
        "population": 4139,
        "latitude": 45.899604,
        "longitude": 78.720393
    },
    {
        "name": "Masangshy",
        "country": "Kazakhstan",
        "province": "Zhambyl",
        "population": -1,
        "latitude": 42.916667,
        "longitude": 75.316667
    },
    {
        "name": "Masak",
        "country": "Kazakhstan",
        "province": "Almaty",
        "population": -1,
        "latitude": 43.619585,
        "longitude": 78.306669
    },
    {
        "name": "Mamlyutka",
        "country": "Kazakhstan",
        "province": "North Kazakhstan",
        "population": -1,
        "latitude": 54.938962,
        "longitude": 68.538891
    },
    {
        "name": "Malonarymka",
        "country": "Kazakhstan",
        "province": "Batys Qazaqstan",
        "population": -1,
        "latitude": 49.256215,
        "longitude": 84.743375
    },
    {
        "name": "Malaya Vladīmīrovka",
        "country": "Kazakhstan",
        "province": "Abai Region",
        "population": -1,
        "latitude": 50.951727,
        "longitude": 79.412645
    },
    {
        "name": "Makhtashy",
        "country": "Kazakhstan",
        "province": "Turkistan",
        "population": -1,
        "latitude": 41.254949,
        "longitude": 68.84295
    },
    {
        "name": "Yenbekshi",
        "country": "Kazakhstan",
        "province": "Turkistan",
        "population": -1,
        "latitude": 41.00265,
        "longitude": 68.220857
    },
    {
        "name": "Madeniyët",
        "country": "Kazakhstan",
        "province": "Aqmola",
        "population": -1,
        "latitude": 53.036809,
        "longitude": 70.630536
    },
    {
        "name": "Mädenīet",
        "country": "Kazakhstan",
        "province": "Aqmola",
        "population": -1,
        "latitude": 52.097548,
        "longitude": 68.988064
    },
    {
        "name": "Madeniyet",
        "country": "Kazakhstan",
        "province": "Abai Region",
        "population": -1,
        "latitude": 47.875098,
        "longitude": 78.620131
    },
    {
        "name": "Lomonosovka",
        "country": "Kazakhstan",
        "province": "North Kazakhstan",
        "population": -1,
        "latitude": 52.803906,
        "longitude": 66.468009
    },
    {
        "name": "Ülgi",
        "country": "Kazakhstan",
        "province": "Jetisu Region",
        "population": -1,
        "latitude": 46.288333,
        "longitude": 78.311389
    },
    {
        "name": "Lepsy",
        "country": "Kazakhstan",
        "province": "Jetisu Region",
        "population": 5350,
        "latitude": 46.234258,
        "longitude": 78.94034
    },
    {
        "name": "Otdeleniye Nomer Dva Sovkhoza Dzhambula",
        "country": "Kazakhstan",
        "province": "Turkistan",
        "population": -1,
        "latitude": 41.453333,
        "longitude": 68.251389
    },
    {
        "name": "Lenino",
        "country": "Kazakhstan",
        "province": "Qostanay",
        "population": -1,
        "latitude": 53.987252,
        "longitude": 63.276109
    },
    {
        "name": "Leningradskiy",
        "country": "Kazakhstan",
        "province": "Qostanay",
        "population": -1,
        "latitude": 53.161511,
        "longitude": 66.26586
    },
    {
        "name": "Kyzylzhar",
        "country": "Kazakhstan",
        "province": "Qostanay",
        "population": -1,
        "latitude": 53.621049,
        "longitude": 63.867548
    },
    {
        "name": "Kyzylzhar",
        "country": "Kazakhstan",
        "province": "Jetisu Region",
        "population": -1,
        "latitude": 44.435111,
        "longitude": 78.134471
    },
    {
        "name": "Kyzyldau",
        "country": "Kazakhstan",
        "province": "Pavlodar Region",
        "population": -1,
        "latitude": 53.511109,
        "longitude": 76.239146
    },
    {
        "name": "Kyzylsharua",
        "country": "Kazakhstan",
        "province": "Turkistan",
        "population": -1,
        "latitude": 43.077502,
        "longitude": 67.952778
    },
    {
        "name": "Qyzylsaya",
        "country": "Kazakhstan",
        "province": "Aqmola",
        "population": -1,
        "latitude": 53.548047,
        "longitude": 68.849102
    },
    {
        "name": "Kyzylgayrat",
        "country": "Kazakhstan",
        "province": "Almaty",
        "population": -1,
        "latitude": 43.308116,
        "longitude": 77.143942
    },
    {
        "name": "Qyzylashchy",
        "country": "Kazakhstan",
        "province": "Jetisu Region",
        "population": -1,
        "latitude": 45.99591,
        "longitude": 80.727464
    },
    {
        "name": "Kyzylagash",
        "country": "Kazakhstan",
        "province": "Jetisu Region",
        "population": -1,
        "latitude": 45.3725,
        "longitude": 78.721111
    },
    {
        "name": "Chernyakhovskoye",
        "country": "Kazakhstan",
        "province": "Aqmola",
        "population": -1,
        "latitude": 52.5,
        "longitude": 71.65
    },
    {
        "name": "Qazyqurt",
        "country": "Kazakhstan",
        "province": "Turkistan",
        "population": -1,
        "latitude": 41.97467,
        "longitude": 69.503513
    },
    {
        "name": "Kūybyshevskīy",
        "country": "Kazakhstan",
        "province": "North Kazakhstan",
        "population": -1,
        "latitude": 53.203496,
        "longitude": 66.814312
    },
    {
        "name": "Kutuzova",
        "country": "Kazakhstan",
        "province": "Pavlodar Region",
        "population": -1,
        "latitude": 53.584762,
        "longitude": 74.528672
    },
    {
        "name": "Kuralai",
        "country": "Kazakhstan",
        "province": "North Kazakhstan",
        "population": -1,
        "latitude": 55.041042,
        "longitude": 70.887611
    },
    {
        "name": "Birlestik",
        "country": "Kazakhstan",
        "province": "North Kazakhstan",
        "population": 1354,
        "latitude": 53.584138,
        "longitude": 68.353819
    },
    {
        "name": "Bazar",
        "country": "Kazakhstan",
        "province": "Abai Region",
        "population": -1,
        "latitude": 47.856449,
        "longitude": 82.718985
    },
    {
        "name": "Bayanaul",
        "country": "Kazakhstan",
        "province": "Pavlodar Region",
        "population": 5700,
        "latitude": 50.793039,
        "longitude": 75.701226
    },
    {
        "name": "Qogham",
        "country": "Kazakhstan",
        "province": "Turkistan",
        "population": 2276,
        "latitude": 42.827739,
        "longitude": 68.280736
    },
    {
        "name": "Basqynshy",
        "country": "Kazakhstan",
        "province": "Jetisu Region",
        "population": -1,
        "latitude": 44.340803,
        "longitude": 80.382456
    },
    {
        "name": "Basköl",
        "country": "Kazakhstan",
        "province": "Abai Region",
        "population": -1,
        "latitude": 51.187405,
        "longitude": 79.300387
    },
    {
        "name": "Barankol’",
        "country": "Kazakhstan",
        "province": "Aqmola",
        "population": -1,
        "latitude": 51.184943,
        "longitude": 66.836473
    },
    {
        "name": "Balkashīno",
        "country": "Kazakhstan",
        "province": "Aqmola",
        "population": 6147,
        "latitude": 52.51779,
        "longitude": 68.751596
    },
    {
        "name": "Bakanas",
        "country": "Kazakhstan",
        "province": "Almaty",
        "population": 6965,
        "latitude": 44.806216,
        "longitude": 76.270321
    },
    {
        "name": "Bäyimbet",
        "country": "Kazakhstan",
        "province": "Pavlodar Region",
        "population": -1,
        "latitude": 51.830639,
        "longitude": 79.215874
    },
    {
        "name": "Dzerzhinskiy",
        "country": "Kazakhstan",
        "province": "Qostanay",
        "population": -1,
        "latitude": 51.445086,
        "longitude": 61.33548
    },
    {
        "name": "Aydarlinskoye",
        "country": "Kazakhstan",
        "province": "Qostanay",
        "population": -1,
        "latitude": 52.182644,
        "longitude": 65.277426
    },
    {
        "name": "Äūezov",
        "country": "Kazakhstan",
        "province": "Abai Region",
        "population": 4209,
        "latitude": 49.710027,
        "longitude": 81.580183
    },
    {
        "name": "Atasū",
        "country": "Kazakhstan",
        "province": "Ulytau Region",
        "population": 13184,
        "latitude": 48.686593,
        "longitude": 71.644688
    },
    {
        "name": "Atyghay",
        "country": "Kazakhstan",
        "province": "Abai Region",
        "population": -1,
        "latitude": 46.75198,
        "longitude": 82.413097
    },
    {
        "name": "Asūbulaq",
        "country": "Kazakhstan",
        "province": "Batys Qazaqstan",
        "population": 5644,
        "latitude": 49.540256,
        "longitude": 82.994715
    },
    {
        "name": "Astrakhanka",
        "country": "Kazakhstan",
        "province": "Aqmola",
        "population": 6459,
        "latitude": 51.530684,
        "longitude": 69.796852
    },
    {
        "name": "Sovkhoz Arkalykskiy",
        "country": "Kazakhstan",
        "province": "Qostanay",
        "population": -1,
        "latitude": 50.118047,
        "longitude": 66.572999
    },
    {
        "name": "Akchakol'",
        "country": "Kazakhstan",
        "province": "Qostanay",
        "population": -1,
        "latitude": 53.916667,
        "longitude": 65.882528
    },
    {
        "name": "Gornoye",
        "country": "Kazakhstan",
        "province": "North Kazakhstan",
        "population": -1,
        "latitude": 52.930169,
        "longitude": 68.246252
    },
    {
        "name": "Arkhipovka",
        "country": "Kazakhstan",
        "province": "Batys Qazaqstan",
        "population": -1,
        "latitude": 48.437898,
        "longitude": 85.503875
    },
    {
        "name": "Novostroyka",
        "country": "Kazakhstan",
        "province": "Turkistan",
        "population": -1,
        "latitude": 41.658138,
        "longitude": 69.375012
    },
    {
        "name": "Aqtoghay",
        "country": "Kazakhstan",
        "province": "Abai Region",
        "population": 4974,
        "latitude": 46.950676,
        "longitude": 79.676213
    },
    {
        "name": "Aqsū",
        "country": "Kazakhstan",
        "province": "Aqmola",
        "population": 8543,
        "latitude": 52.444223,
        "longitude": 71.957606
    },
    {
        "name": "Aqshataū",
        "country": "Kazakhstan",
        "province": "Karaganda",
        "population": 4899,
        "latitude": 47.989167,
        "longitude": 74.0575
    },
    {
        "name": "Aqadyr",
        "country": "Kazakhstan",
        "province": "Karaganda",
        "population": 9710,
        "latitude": 48.26014,
        "longitude": 72.858511
    },
    {
        "name": "Amangeldi",
        "country": "Kazakhstan",
        "province": "Qostanay",
        "population": -1,
        "latitude": 50.18271,
        "longitude": 65.189656
    },
    {
        "name": "Alga",
        "country": "Kazakhstan",
        "province": "Pavlodar Region",
        "population": -1,
        "latitude": 52.382632,
        "longitude": 77.787346
    },
    {
        "name": "Akkol'",
        "country": "Kazakhstan",
        "province": "Aqmola",
        "population": 2605,
        "latitude": 51.993743,
        "longitude": 70.947042
    },
    {
        "name": "Terekty",
        "country": "Kazakhstan",
        "province": "Batys Qazaqstan",
        "population": -1,
        "latitude": 48.426479,
        "longitude": 85.734737
    },
    {
        "name": "Alaköl",
        "country": "Kazakhstan",
        "province": "Pavlodar Region",
        "population": -1,
        "latitude": 54.018975,
        "longitude": 75.927566
    },
    {
        "name": "Budënnovka",
        "country": "Kazakhstan",
        "province": "Zhambyl",
        "population": -1,
        "latitude": 43.136944,
        "longitude": 71.642222
    },
    {
        "name": "Aqtuyesay",
        "country": "Kazakhstan",
        "province": "Kazakhstan",
        "population": -1,
        "latitude": 53.918363,
        "longitude": 72.657445
    },
    {
        "name": "Aktas",
        "country": "Kazakhstan",
        "province": "Karaganda",
        "population": 9888,
        "latitude": 49.77952,
        "longitude": 72.961282
    },
    {
        "name": "Aksu",
        "country": "Kazakhstan",
        "province": "Qostanay",
        "population": -1,
        "latitude": 52.136136,
        "longitude": 62.14783
    },
    {
        "name": "Akkol'skiy",
        "country": "Kazakhstan",
        "province": "Abai Region",
        "population": -1,
        "latitude": 50.680731,
        "longitude": 79.834046
    },
    {
        "name": "Qyzylzhetek",
        "country": "Kazakhstan",
        "province": "Abai Region",
        "population": -1,
        "latitude": 49.431272,
        "longitude": 80.464864
    },
    {
        "name": "Akbakay",
        "country": "Kazakhstan",
        "province": "Zhambyl",
        "population": 1804,
        "latitude": 45.1294,
        "longitude": 72.671687
    },
    {
        "name": "Pervomayskoye",
        "country": "Kazakhstan",
        "province": "Aqmola",
        "population": -1,
        "latitude": 52.770496,
        "longitude": 69.685072
    },
    {
        "name": "Shortoba",
        "country": "Kazakhstan",
        "province": "Zhambyl",
        "population": -1,
        "latitude": 42.867778,
        "longitude": 75.240658
    },
    {
        "name": "Ömirzaq",
        "country": "Kazakhstan",
        "province": "Mangghystaū",
        "population": 1885,
        "latitude": 43.597617,
        "longitude": 51.240938
    },
    {
        "name": "Akoba",
        "country": "Kazakhstan",
        "province": "East Kazakhstan",
        "population": -1,
        "latitude": 49.915122,
        "longitude": 52.802904
    },
    {
        "name": "Zolotonosh",
        "country": "Kazakhstan",
        "province": "Aqtöbe",
        "population": -1,
        "latitude": 49.62285,
        "longitude": 57.364539
    },
    {
        "name": "Zhanzapan",
        "country": "Kazakhstan",
        "province": "Atyraū",
        "population": -1,
        "latitude": 48.0982,
        "longitude": 47.361319
    },
    {
        "name": "Shoktybay",
        "country": "Kazakhstan",
        "province": "East Kazakhstan",
        "population": -1,
        "latitude": 51.170839,
        "longitude": 53.937735
    },
    {
        "name": "Zelenoye",
        "country": "Kazakhstan",
        "province": "East Kazakhstan",
        "population": -1,
        "latitude": 51.153234,
        "longitude": 50.684121
    },
    {
        "name": "Zelenoe",
        "country": "Kazakhstan",
        "province": "Atyraū",
        "population": -1,
        "latitude": 48.131976,
        "longitude": 51.534209
    },
    {
        "name": "Egim",
        "country": "Kazakhstan",
        "province": "East Kazakhstan",
        "population": -1,
        "latitude": 49.00431,
        "longitude": 51.89466
    },
    {
        "name": "Yermol'chevo",
        "country": "Kazakhstan",
        "province": "East Kazakhstan",
        "population": -1,
        "latitude": 50.97521,
        "longitude": 49.589672
    },
    {
        "name": "Yerkinkala",
        "country": "Kazakhstan",
        "province": "Atyraū",
        "population": -1,
        "latitude": 47,
        "longitude": 51.8
    },
    {
        "name": "Üshtaghan",
        "country": "Kazakhstan",
        "province": "Mangghystaū",
        "population": -1,
        "latitude": 43.82526,
        "longitude": 52.723442
    },
    {
        "name": "Uletty",
        "country": "Kazakhstan",
        "province": "Aqtöbe",
        "population": -1,
        "latitude": 49.851556,
        "longitude": 58.154403
    },
    {
        "name": "Trëkino",
        "country": "Kazakhstan",
        "province": "East Kazakhstan",
        "population": -1,
        "latitude": 51.283333,
        "longitude": 51.583333
    },
    {
        "name": "Topoli",
        "country": "Kazakhstan",
        "province": "Atyraū",
        "population": -1,
        "latitude": 47.994645,
        "longitude": 51.621896
    },
    {
        "name": "Tonaly",
        "country": "Kazakhstan",
        "province": "Kazakhstan",
        "population": -1,
        "latitude": 50.697684,
        "longitude": 53.05829
    },
    {
        "name": "Temir",
        "country": "Kazakhstan",
        "province": "Aqtöbe",
        "population": 2560,
        "latitude": 49.142836,
        "longitude": 57.127357
    },
    {
        "name": "Taūshyq",
        "country": "Kazakhstan",
        "province": "Mangghystaū",
        "population": 2600,
        "latitude": 44.346778,
        "longitude": 51.349319
    },
    {
        "name": "Tasotkel'",
        "country": "Kazakhstan",
        "province": "Aqtöbe",
        "population": -1,
        "latitude": 50.32268,
        "longitude": 59.620775
    },
    {
        "name": "Taskuduk",
        "country": "Kazakhstan",
        "province": "Kazakhstan",
        "population": -1,
        "latitude": 50.735301,
        "longitude": 52.932862
    },
    {
        "name": "Taschagil",
        "country": "Kazakhstan",
        "province": "Atyraū",
        "population": -1,
        "latitude": 48.875144,
        "longitude": 52.970902
    },
    {
        "name": "Bubenets",
        "country": "Kazakhstan",
        "province": "East Kazakhstan",
        "population": -1,
        "latitude": 50.868332,
        "longitude": 49.471944
    },
    {
        "name": "Süyindik",
        "country": "Kazakhstan",
        "province": "Atyraū",
        "population": -1,
        "latitude": 48.132047,
        "longitude": 47.668481
    },
    {
        "name": "Suttegende",
        "country": "Kazakhstan",
        "province": "East Kazakhstan",
        "population": -1,
        "latitude": 50.825634,
        "longitude": 51.500215
    },
    {
        "name": "Skvorkino",
        "country": "Kazakhstan",
        "province": "East Kazakhstan",
        "population": -1,
        "latitude": 50.784854,
        "longitude": 51.114633
    },
    {
        "name": "Shortanbay",
        "country": "Kazakhstan",
        "province": "Atyraū",
        "population": -1,
        "latitude": 46.6102778,
        "longitude": 48.6552778
    },
    {
        "name": "Shchapov",
        "country": "Kazakhstan",
        "province": "Kazakhstan",
        "population": -1,
        "latitude": 51.016667,
        "longitude": 51.183333
    },
    {
        "name": "Sharakkop",
        "country": "Kazakhstan",
        "province": "East Kazakhstan",
        "population": -1,
        "latitude": 51.371492,
        "longitude": 51.962777
    },
    {
        "name": "Shalqar",
        "country": "Kazakhstan",
        "province": "East Kazakhstan",
        "population": -1,
        "latitude": 50.524996,
        "longitude": 51.797918
    },
    {
        "name": "Semīglavyy Mar",
        "country": "Kazakhstan",
        "province": "East Kazakhstan",
        "population": -1,
        "latitude": 51.197062,
        "longitude": 50.059091
    },
    {
        "name": "Sayötesh",
        "country": "Kazakhstan",
        "province": "Mangghystaū",
        "population": 1571,
        "latitude": 44.32787,
        "longitude": 53.532155
    },
    {
        "name": "Saykhin",
        "country": "Kazakhstan",
        "province": "Batys Qazaqstan",
        "population": 4825,
        "latitude": 48.8561111,
        "longitude": 46.8336111
    },
    {
        "name": "Sarybīe",
        "country": "Kazakhstan",
        "province": "Aqtöbe",
        "population": -1,
        "latitude": 49.265617,
        "longitude": 53.942272
    },
    {
        "name": "Saraychik",
        "country": "Kazakhstan",
        "province": "Atyraū",
        "population": -1,
        "latitude": 47.5,
        "longitude": 51.740043
    },
    {
        "name": "Saralzhyn",
        "country": "Kazakhstan",
        "province": "East Kazakhstan",
        "population": -1,
        "latitude": 49.171431,
        "longitude": 48.907453
    },
    {
        "name": "Saralzhin",
        "country": "Kazakhstan",
        "province": "East Kazakhstan",
        "population": -1,
        "latitude": 49.239121,
        "longitude": 48.329364
    },
    {
        "name": "Sagizmeshit",
        "country": "Kazakhstan",
        "province": "Atyraū",
        "population": -1,
        "latitude": 47.65,
        "longitude": 53.85
    },
    {
        "name": "Redutskiy",
        "country": "Kazakhstan",
        "province": "Atyraū",
        "population": -1,
        "latitude": 47.343726,
        "longitude": 51.877801
    },
    {
        "name": "Pyatīmarskoe",
        "country": "Kazakhstan",
        "province": "East Kazakhstan",
        "population": -1,
        "latitude": 49.496663,
        "longitude": 50.513557
    },
    {
        "name": "Prīrechnoe",
        "country": "Kazakhstan",
        "province": "East Kazakhstan",
        "population": -1,
        "latitude": 51.058141,
        "longitude": 52.420553
    },
    {
        "name": "Pamyat' Il'icha",
        "country": "Kazakhstan",
        "province": "Atyraū",
        "population": -1,
        "latitude": 47.2,
        "longitude": 51.9
    },
    {
        "name": "Novodontsy",
        "country": "Kazakhstan",
        "province": "Aqtöbe",
        "population": -1,
        "latitude": 50.300382,
        "longitude": 56.346927
    },
    {
        "name": "Novoalekseevka",
        "country": "Kazakhstan",
        "province": "Aqtöbe",
        "population": -1,
        "latitude": 50.150023,
        "longitude": 55.672199
    },
    {
        "name": "Zhangaqala",
        "country": "Kazakhstan",
        "province": "East Kazakhstan",
        "population": -1,
        "latitude": 48.935041,
        "longitude": 49.607101
    },
    {
        "name": "Munayshy",
        "country": "Kazakhstan",
        "province": "Mangghystaū",
        "population": 4085,
        "latitude": 43.499882,
        "longitude": 52.097454
    },
    {
        "name": "Mirzagora",
        "country": "Kazakhstan",
        "province": "Kazakhstan",
        "population": -1,
        "latitude": 51.177755,
        "longitude": 53.749578
    },
    {
        "name": "Mortyq",
        "country": "Kazakhstan",
        "province": "Aqtöbe",
        "population": 7756,
        "latitude": 50.747456,
        "longitude": 56.506107
    },
    {
        "name": "Makhambet",
        "country": "Kazakhstan",
        "province": "Atyraū",
        "population": 8905,
        "latitude": 47.670609,
        "longitude": 51.585977
    },
    {
        "name": "Logashkīno",
        "country": "Kazakhstan",
        "province": "East Kazakhstan",
        "population": -1,
        "latitude": 50.996001,
        "longitude": 50.502951
    },
    {
        "name": "Qyzylözen",
        "country": "Kazakhstan",
        "province": "Mangghystaū",
        "population": -1,
        "latitude": 44.298054,
        "longitude": 50.503872
    },
    {
        "name": "Kzyloba",
        "country": "Kazakhstan",
        "province": "Atyraū",
        "population": -1,
        "latitude": 46.6305556,
        "longitude": 48.8861111
    },