[
    {
        "name": "Beirut",
        "country": "Lebanon",
        "province": "Beyrouth",
        "population": 1916100,
        "latitude": 33.89332,
        "longitude": 35.50157
    },
    {
        "name": "Tripoli",
        "country": "Lebanon",
        "province": "Liban-Nord",
        "population": 229398,
        "latitude": 34.43352,
        "longitude": 35.84415
    },
    {
        "name": "Sidon",
        "country": "Lebanon",
        "province": "South Governorate",
        "population": 163554,
        "latitude": 33.55751,
        "longitude": 35.37148
    },
    {
        "name": "Tyre",
        "country": "Lebanon",
        "province": "South Governorate",
        "population": 135204,
        "latitude": 33.273333,
        "longitude": 35.193889
    },
    {
        "name": "Ra’s Bayrūt",
        "country": "Lebanon",
        "province": "Beyrouth",
        "population": 1251739,
        "latitude": 33.9,
        "longitude": 35.483333
    },
    {
        "name": "Zahle",
        "country": "Lebanon",
        "province": "Béqaa",
        "population": 78145,
        "latitude": 33.84675221435487,
        "longitude": 35.90203285217285
    },
    {
        "name": "Nabatîyé et Tahta",
        "country": "Lebanon",
        "province": "Nabatîyé",
        "population": 120000,
        "latitude": 33.3788889,
        "longitude": 35.4838889
    },
    {
        "name": "Jounieh",
        "country": "Lebanon",
        "province": "Mont-Liban",
        "population": 96315,
        "latitude": 33.980833,
        "longitude": 35.617778
    },
    {
        "name": "Habboûch",
        "country": "Lebanon",
        "province": "Nabatîyé",
        "population": 98433,
        "latitude": 33.407288,
        "longitude": 35.481693
    },
    {
        "name": "Baalbek",
        "country": "Lebanon",
        "province": "Baalbek-Hermel",
        "population": 30916,
        "latitude": 34.005833,
        "longitude": 36.218056
    },
    {
        "name": "Ghazieh",
        "country": "Lebanon",
        "province": "South Governorate",
        "population": 50000,
        "latitude": 33.5175,
        "longitude": 35.3688889
    },
    {
        "name": "Byblos",
        "country": "Lebanon",
        "province": "Mont-Liban",
        "population": 20784,
        "latitude": 34.121111,
        "longitude": 35.648056
    },
    {
        "name": "Baabda",
        "country": "Lebanon",
        "province": "Mont-Liban",
        "population": 9000,
        "latitude": 33.8338889,
        "longitude": 35.5441667
    },
    {
        "name": "Halba",
        "country": "Lebanon",
        "province": "Aakkâr",
        "population": -1,
        "latitude": 34.542778,
        "longitude": 36.079722
    },
    {
        "name": "Riyaq",
        "country": "Lebanon",
        "province": "Béqaa",
        "population": -1,
        "latitude": 33.85,
        "longitude": 36
    },
    {
        "name": "Qana",
        "country": "Lebanon",
        "province": "South Governorate",
        "population": -1,
        "latitude": 33.2088889,
        "longitude": 35.2994444
    },
    {
        "name": "Bcharré",
        "country": "Lebanon",
        "province": "Liban-Nord",
        "population": 20000,
        "latitude": 34.250833,
        "longitude": 36.010556
    },
    {
        "name": "En Nâqoûra",
        "country": "Lebanon",
        "province": "South Governorate",
        "population": 24910,
        "latitude": 33.118056,
        "longitude": 35.139722
    },
    {
        "name": "an-Nabī Shayth",
        "country": "Lebanon",
        "province": "Baalbek-Hermel",
        "population": -1,
        "latitude": 33.8730556,
        "longitude": 36.1116667
    },
    {
        "name": "Aanjar",
        "country": "Lebanon",
        "province": "Béqaa",
        "population": 2400,
        "latitude": 33.7277778,
        "longitude": 35.9311111
    },
    {
        "name": "ʿAlmā ash-Shaʿb",
        "country": "Lebanon",
        "province": "South Governorate",
        "population": -1,
        "latitude": 33.1041667,
        "longitude": 35.1819444
    },
    {
        "name": "Al-Ḥaniyya",
        "country": "Lebanon",
        "province": "South Governorate",
        "population": -1,
        "latitude": 33.185695,
        "longitude": 35.223293
    },
    {
        "name": "Haouch el Qinnaabé",
        "country": "Lebanon",
        "province": "Béqaa",
        "population": -1,
        "latitude": 33.47641,
        "longitude": 35.754863
    },
    {
        "name": "Batroûn",
        "country": "Lebanon",
        "province": "Liban-Nord",
        "population": 10852,
        "latitude": 34.255278,
        "longitude": 35.658056
    },
    {
        "name": "Nabatieh",
        "country": "Lebanon",
        "province": "Nabatîyé",
        "population": -1,
        "latitude": 33.377169,
        "longitude": 35.483829
    },
    {
        "name": "Mazraat Kassâb",
        "country": "Lebanon",
        "province": "Liban-Nord",
        "population": -1,
        "latitude": 34.244722,
        "longitude": 35.851111
    },
    {
        "name": "Maïroûba",
        "country": "Lebanon",
        "province": "Mont-Liban",
        "population": -1,
        "latitude": 34.014423,
        "longitude": 35.773069
    },
    {
        "name": "Mathanet ed Delbé",
        "country": "Lebanon",
        "province": "Aakkâr",
        "population": -1,
        "latitude": 34.532222,
        "longitude": 36.035556
    },
    {
        "name": "Mrâh Sghîr",
        "country": "Lebanon",
        "province": "Mont-Liban",
        "population": -1,
        "latitude": 34.125893,
        "longitude": 35.713346
    },
    {
        "name": "Karm Saddé",
        "country": "Lebanon",
        "province": "Liban-Nord",
        "population": -1,
        "latitude": 34.305833,
        "longitude": 35.891111
    },
    {
        "name": "Kamid al lawz",
        "country": "Lebanon",
        "province": "Béqaa",
        "population": -1,
        "latitude": 33.6202778,
        "longitude": 35.8213889
    },
    {
        "name": "Kfar Zaïna",
        "country": "Lebanon",
        "province": "Liban-Nord",
        "population": -1,
        "latitude": 34.367164,
        "longitude": 35.878737
    },
    {
        "name": "Kfar Zabad",
        "country": "Lebanon",
        "province": "Béqaa",
        "population": -1,
        "latitude": 33.7852778,
        "longitude": 35.9930556
    },
    {
        "name": "Kfar Yâchît",
        "country": "Lebanon",
        "province": "Liban-Nord",
        "population": -1,
        "latitude": 34.347139,
        "longitude": 35.895646
    },
    {
        "name": "Kfar Chkhi",
        "country": "Lebanon",
        "province": "Mont-Liban",
        "population": -1,
        "latitude": 34.2058333,
        "longitude": 35.6569444
    },
    {
        "name": "Kfar Qatra",
        "country": "Lebanon",
        "province": "Mont-Liban",
        "population": -1,
        "latitude": 33.7125,
        "longitude": 35.5866667
    },
    {
        "name": "Kfar Hilda",
        "country": "Lebanon",
        "province": "Liban-Nord",
        "population": -1,
        "latitude": 34.2252778,
        "longitude": 35.8405556
    },
    {
        "name": "Kfar Hamâm",
        "country": "Lebanon",
        "province": "Nabatîyé",
        "population": -1,
        "latitude": 33.3438889,
        "longitude": 35.6788889
    },
    {
        "name": "Kafr Dabash",
        "country": "Lebanon",
        "province": "Baalbek-Hermel",
        "population": -1,
        "latitude": 33.9452778,
        "longitude": 36.0344444
    },
    {
        "name": "Jdaïdet ech Choûf",
        "country": "Lebanon",
        "province": "Mont-Liban",
        "population": -1,
        "latitude": 33.663333,
        "longitude": 35.606667
    },
    {
        "name": "Jlaïssi",
        "country": "Lebanon",
        "province": "Mont-Liban",
        "population": -1,
        "latitude": 34.116389,
        "longitude": 35.691111
    },
    {
        "name": "Jdîta",
        "country": "Lebanon",
        "province": "Béqaa",
        "population": -1,
        "latitude": 33.824444,
        "longitude": 35.835556
    },
    {
        "name": "Ez Zayer",
        "country": "Lebanon",
        "province": "Mont-Liban",
        "population": -1,
        "latitude": 34.0711111,
        "longitude": 35.6586111
    },
    {
        "name": "Ernaya",
        "country": "Lebanon",
        "province": "Mont-Liban",
        "population": -1,
        "latitude": 34.1041667,
        "longitude": 35.7097222
    },
    {
        "name": "Ebel es Saqi",
        "country": "Lebanon",
        "province": "Nabatîyé",
        "population": -1,
        "latitude": 33.3566667,
        "longitude": 35.6263889
    },
    {
        "name": "Houla",
        "country": "Lebanon",
        "province": "Nabatîyé",
        "population": -1,
        "latitude": 33.2091667,
        "longitude": 35.515
    },
    {
        "name": "Hbeïchîyé",
        "country": "Lebanon",
        "province": "Mont-Liban",
        "population": -1,
        "latitude": 33.6361111,
        "longitude": 35.4172222
    },
    {
        "name": "Hmaïss",
        "country": "Lebanon",
        "province": "Liban-Nord",
        "population": -1,
        "latitude": 34.328333,
        "longitude": 35.934167
    },
    {
        "name": "El Hdaïnï",
        "country": "Lebanon",
        "province": "Mont-Liban",
        "population": -1,
        "latitude": 34.092276,
        "longitude": 35.870605
    },
    {
        "name": "Hbêlîne",
        "country": "Lebanon",
        "province": "Mont-Liban",
        "population": -1,
        "latitude": 34.159444,
        "longitude": 35.685556
    },
    {
        "name": "Haï Saïdet en Nchîf",
        "country": "Lebanon",
        "province": "Mont-Liban",
        "population": -1,
        "latitude": 34.028889,
        "longitude": 35.682222
    },
    {
        "name": "Hidâb",
        "country": "Lebanon",
        "province": "South Governorate",
        "population": -1,
        "latitude": 33.526944,
        "longitude": 35.528889
    },
    {
        "name": "Haret Hreïk",
        "country": "Lebanon",
        "province": "Mont-Liban",
        "population": -1,
        "latitude": 33.854444,
        "longitude": 35.511667
    },
    {
        "name": "Hrajel",
        "country": "Lebanon",
        "province": "Mont-Liban",
        "population": 8000,
        "latitude": 34.01722,
        "longitude": 35.792443
    },
    {
        "name": "Haql er Rayess",
        "country": "Lebanon",
        "province": "Mont-Liban",
        "population": -1,
        "latitude": 34.058217,
        "longitude": 35.728544
    },
    {
        "name": "Haddatha",
        "country": "Lebanon",
        "province": "Nabatîyé",
        "population": -1,
        "latitude": 33.166011,
        "longitude": 35.390202
    },
    {
        "name": "Hadet ej Jobbé",
        "country": "Lebanon",
        "province": "Liban-Nord",
        "population": -1,
        "latitude": 34.249444,
        "longitude": 35.929444
    },
    {
        "name": "Zaghla",
        "country": "Lebanon",
        "province": "Nabatîyé",
        "population": -1,
        "latitude": 33.4036111,
        "longitude": 35.6872222
    },
    {
        "name": "Tall Dhunub Al Jadida",
        "country": "Lebanon",
        "province": "Béqaa",
        "population": -1,
        "latitude": 33.6727778,
        "longitude": 35.7666667
    },
    {
        "name": "Tall Dhunub",
        "country": "Lebanon",
        "province": "Béqaa",
        "population": -1,
        "latitude": 33.6616667,
        "longitude": 35.7794444
    },
    {
        "name": "Slaïyeb Bchaalé",
        "country": "Lebanon",
        "province": "Liban-Nord",
        "population": -1,
        "latitude": 34.204934,
        "longitude": 35.827704
    },
    {
        "name": "Ṣurayfā",
        "country": "Lebanon",
        "province": "South Governorate",
        "population": -1,
        "latitude": 33.2813889,
        "longitude": 35.3966667
    },
    {
        "name": "Chqaïf",
        "country": "Lebanon",
        "province": "Mont-Liban",
        "population": -1,
        "latitude": 34.071389,
        "longitude": 35.654167
    },
    {
        "name": "Chekka el Atiqa",
        "country": "Lebanon",
        "province": "Liban-Nord",
        "population": -1,
        "latitude": 34.3288889,
        "longitude": 35.7444444
    },
    {
        "name": "Chaabiyet el Faouqa",
        "country": "Lebanon",
        "province": "Mont-Liban",
        "population": -1,
        "latitude": 34.0922222,
        "longitude": 35.6730556
    },
    {
        "name": "Shebaa",
        "country": "Lebanon",
        "province": "Nabatîyé",
        "population": -1,
        "latitude": 33.3475,
        "longitude": 35.749167
    },
    {
        "name": "Chabrîha",
        "country": "Lebanon",
        "province": "South Governorate",
        "population": -1,
        "latitude": 33.2925,
        "longitude": 35.233333
    },
    {
        "name": "Recheknanây",
        "country": "Lebanon",
        "province": "South Governorate",
        "population": -1,
        "latitude": 33.1897222,
        "longitude": 35.3233333
    },
    {
        "name": "Râs Osta",
        "country": "Lebanon",
        "province": "Mont-Liban",
        "population": -1,
        "latitude": 34.1152778,
        "longitude": 35.7227778
    },
    {
        "name": "Raʾs al-Miṣrī",
        "country": "Lebanon",
        "province": "South Governorate",
        "population": -1,
        "latitude": 33.1138889,
        "longitude": 35.1719444
    },
    {
        "name": "Râmîyé",
        "country": "Lebanon",
        "province": "Nabatîyé",
        "population": -1,
        "latitude": 33.1108333,
        "longitude": 35.3102778
    },
    {
        "name": "El Qinnaabé",
        "country": "Lebanon",
        "province": "Béqaa",
        "population": -1,
        "latitude": 33.479188,
        "longitude": 35.772121
    },
    {
        "name": "Qarah Bâch",
        "country": "Lebanon",
        "province": "Liban-Nord",
        "population": -1,
        "latitude": 34.383929,
        "longitude": 35.894535
    },
    {
        "name": "Ghandoûriyé",
        "country": "Lebanon",
        "province": "Nabatîyé",
        "population": -1,
        "latitude": 33.272222,
        "longitude": 35.431111
    },
    {
        "name": "Fdâr et Tahta",
        "country": "Lebanon",
        "province": "Mont-Liban",
        "population": -1,
        "latitude": 34.1336111,
        "longitude": 35.6916667
    },
    {
        "name": "Fdâr el Faouqa",
        "country": "Lebanon",
        "province": "Mont-Liban",
        "population": -1,
        "latitude": 34.132778,
        "longitude": 35.703611
    },
    {
        "name": "Dahr Aïn el Haour",
        "country": "Lebanon",
        "province": "Mont-Liban",
        "population": -1,
        "latitude": 33.662161,
        "longitude": 35.501487
    },
    {
        "name": "Deïr Ntâr",
        "country": "Lebanon",
        "province": "Nabatîyé",
        "population": -1,
        "latitude": 33.218982,
        "longitude": 35.375329
    },
    {
        "name": "Deïr Aâmes",
        "country": "Lebanon",
        "province": "South Governorate",
        "population": -1,
        "latitude": 33.2013889,
        "longitude": 35.3355556
    },
    {
        "name": "Deïr el Aachâyer",
        "country": "Lebanon",
        "province": "Béqaa",
        "population": -1,
        "latitude": 33.557222,
        "longitude": 36.009722
    },
    {
        "name": "Ed Daoura",
        "country": "Lebanon",
        "province": "Mont-Liban",
        "population": -1,
        "latitude": 33.8961111,
        "longitude": 35.5586111
    },
    {
        "name": "Dâr Chmizzîne",
        "country": "Lebanon",
        "province": "Liban-Nord",
        "population": -1,
        "latitude": 34.286024,
        "longitude": 35.784038
    },
    {
        "name": "Dahr es Saouâne",
        "country": "Lebanon",
        "province": "Mont-Liban",
        "population": -1,
        "latitude": 33.901389,
        "longitude": 35.664722
    },
    {
        "name": "Biaqout",
        "country": "Lebanon",
        "province": "Mont-Liban",
        "population": -1,
        "latitude": 33.8933333,
        "longitude": 35.585
    },
    {
        "name": "Biout es Sayed",
        "country": "Lebanon",
        "province": "South Governorate",
        "population": -1,
        "latitude": 33.1680556,
        "longitude": 35.1925
    },
    {
        "name": "Borj Qalaouiyé",
        "country": "Lebanon",
        "province": "Nabatîyé",
        "population": -1,
        "latitude": 33.260753,
        "longitude": 35.419742
    },
    {
        "name": "Borj ech Chémâli",
        "country": "Lebanon",
        "province": "South Governorate",
        "population": -1,
        "latitude": 33.262222,
        "longitude": 35.239167
    },
    {
        "name": "Borj el Qoblé",
        "country": "Lebanon",
        "province": "South Governorate",
        "population": -1,
        "latitude": 33.248849,
        "longitude": 35.234853
    },
    {
        "name": "Borj el Branjé",
        "country": "Lebanon",
        "province": "Mont-Liban",
        "population": -1,
        "latitude": 33.842222,
        "longitude": 35.505278
    },
    {
        "name": "Boqaâta",
        "country": "Lebanon",
        "province": "Mont-Liban",
        "population": -1,
        "latitude": 34.002778,
        "longitude": 35.728056
    },
    {
        "name": "Bteghrîne",
        "country": "Lebanon",
        "province": "Mont-Liban",
        "population": -1,
        "latitude": 33.928889,
        "longitude": 35.745
    },
    {
        "name": "Bteddîne el Liqch",
        "country": "Lebanon",
        "province": "South Governorate",
        "population": -1,
        "latitude": 33.568889,
        "longitude": 35.557778
    },
    {
        "name": "Btaaboûra",
        "country": "Lebanon",
        "province": "Liban-Nord",
        "population": -1,
        "latitude": 34.2741667,
        "longitude": 35.7622222
    },
    {
        "name": "Bchannîne",
        "country": "Lebanon",
        "province": "Liban-Nord",
        "population": -1,
        "latitude": 34.349192,
        "longitude": 35.85908
    },
    {
        "name": "Bchaalé",
        "country": "Lebanon",
        "province": "Liban-Nord",
        "population": -1,
        "latitude": 34.2030556,
        "longitude": 35.825
    },
    {
        "name": "Brîtel",
        "country": "Lebanon",
        "province": "Baalbek-Hermel",
        "population": -1,
        "latitude": 33.934167,
        "longitude": 36.149444
    },
    {
        "name": "Brîssât",
        "country": "Lebanon",
        "province": "Liban-Nord",
        "population": -1,
        "latitude": 34.241111,
        "longitude": 35.940278
    },
    {
        "name": "Braïqaa",
        "country": "Lebanon",
        "province": "Nabatîyé",
        "population": -1,
        "latitude": 33.34122,
        "longitude": 35.382791
    },
    {
        "name": "Baraachît",
        "country": "Lebanon",
        "province": "Nabatîyé",
        "population": -1,
        "latitude": 33.1761111,
        "longitude": 35.4433333
    },
    {
        "name": "Bnechaaï",
        "country": "Lebanon",
        "province": "Liban-Nord",
        "population": -1,
        "latitude": 34.331964,
        "longitude": 35.895047
    },
    {
        "name": "Blaouza",
        "country": "Lebanon",
        "province": "Liban-Nord",
        "population": -1,
        "latitude": 34.2613889,
        "longitude": 35.9525
    },
    {
        "name": "Bkoûna",
        "country": "Lebanon",
        "province": "Mont-Liban",
        "population": -1,
        "latitude": 34.115,
        "longitude": 35.6725
    },
    {
        "name": "Bkourkoz",
        "country": "Lebanon",
        "province": "Mont-Liban",
        "population": -1,
        "latitude": 34.104329,
        "longitude": 35.730282
    },
    {
        "name": "Baaouarta",
        "country": "Lebanon",
        "province": "Mont-Liban",
        "population": -1,
        "latitude": 33.74,
        "longitude": 35.5005556
    },
    {
        "name": "Bir Hassan",
        "country": "Lebanon",
        "province": "Mont-Liban",
        "population": -1,
        "latitude": 33.859957,
        "longitude": 35.493791
    },
    {
        "name": "Boqsmaïya",
        "country": "Lebanon",
        "province": "Liban-Nord",
        "population": -1,
        "latitude": 34.251944,
        "longitude": 35.765
    },
    {
        "name": "Bikfaïya",
        "country": "Lebanon",
        "province": "Mont-Liban",
        "population": -1,
        "latitude": 33.922222,
        "longitude": 35.683056
    },
    {
        "name": "Bhamdoun",
        "country": "Lebanon",
        "province": "Mont-Liban",
        "population": 5000,
        "latitude": 33.8086111,
        "longitude": 35.6597222
    },
    {
        "name": "Berhalioûn",
        "country": "Lebanon",
        "province": "Liban-Nord",
        "population": -1,
        "latitude": 34.25893,
        "longitude": 35.876827
    },
    {
        "name": "Beït Qnâti",
        "country": "Lebanon",
        "province": "Liban-Nord",
        "population": -1,
        "latitude": 34.419414,
        "longitude": 35.941022
    },
    {
        "name": "Beït Aatmâne",
        "country": "Lebanon",
        "province": "Liban-Nord",
        "population": -1,
        "latitude": 34.396944,
        "longitude": 35.982778
    },
    {
        "name": "Beït el Boûmi",
        "country": "Lebanon",
        "province": "Mont-Liban",
        "population": -1,
        "latitude": 34.091111,
        "longitude": 35.655833
    },
    {
        "name": "Aabay",
        "country": "Lebanon",
        "province": "Mont-Liban",
        "population": -1,
        "latitude": 33.7355556,
        "longitude": 35.5272222
    },
    {
        "name": "Bâtoulây",
        "country": "Lebanon",
        "province": "South Governorate",
        "population": -1,
        "latitude": 33.225556,
        "longitude": 35.255833
    },
    {
        "name": "Bechtelîda",
        "country": "Lebanon",
        "province": "Mont-Liban",
        "population": -1,
        "latitude": 34.133476,
        "longitude": 35.723625
    },
    {
        "name": "Baaqlîne",
        "country": "Lebanon",
        "province": "Mont-Liban",
        "population": -1,
        "latitude": 33.676944,
        "longitude": 35.559444
    },
    {
        "name": "Baalchmay",
        "country": "Lebanon",
        "province": "Mont-Liban",
        "population": -1,
        "latitude": 33.8191667,
        "longitude": 35.6452778
    },
    {
        "name": "Blat",
        "country": "Lebanon",
        "province": "Mont-Liban",
        "population": -1,
        "latitude": 34.112778,
        "longitude": 35.665
    },
    {
        "name": "Bakkîfa",
        "country": "Lebanon",
        "province": "Béqaa",
        "population": -1,
        "latitude": 33.493585,
        "longitude": 35.819432
    },
    {
        "name": "Ez Zrârîyé",
        "country": "Lebanon",
        "province": "South Governorate",
        "population": -1,
        "latitude": 33.34338,
        "longitude": 35.333797
    },
    {
        "name": "Aaïtanît",
        "country": "Lebanon",
        "province": "Béqaa",
        "population": -1,
        "latitude": 33.5613889,
        "longitude": 35.6702778
    },
    {
        "name": "Aaïta ez Zott",
        "country": "Lebanon",
        "province": "Nabatîyé",
        "population": -1,
        "latitude": 33.1747222,
        "longitude": 35.4069444
    },
    {
        "name": "Aïn Zhalta",
        "country": "Lebanon",
        "province": "Mont-Liban",
        "population": -1,
        "latitude": 33.741944,
        "longitude": 35.699722
    },
    {
        "name": "Aïntoûra",
        "country": "Lebanon",
        "province": "Mont-Liban",
        "population": -1,
        "latitude": 33.958889,
        "longitude": 35.634722
    },
    {
        "name": "Aïn Trêz",
        "country": "Lebanon",
        "province": "Mont-Liban",
        "population": -1,
        "latitude": 33.7352778,
        "longitude": 35.5811111
    },
    {
        "name": "Aïn Qénia",
        "country": "Lebanon",
        "province": "Nabatîyé",
        "population": -1,
        "latitude": 33.396626,
        "longitude": 35.707964
    },
    {
        "name": "Aïn Aanoub",
        "country": "Lebanon",
        "province": "Mont-Liban",
        "population": -1,
        "latitude": 33.7863889,
        "longitude": 35.5425
    },
    {
        "name": "Aïn Ksoûr",
        "country": "Lebanon",
        "province": "Mont-Liban",
        "population": -1,
        "latitude": 33.748611,
        "longitude": 35.532778
    },
    {
        "name": "Ayn Jarfā",
        "country": "Lebanon",
        "province": "Nabatîyé",
        "population": -1,
        "latitude": 33.383766,
        "longitude": 35.685663
    },
    {
        "name": "Ain Ebel",
        "country": "Lebanon",
        "province": "Nabatîyé",
        "population": 2000,
        "latitude": 33.11022688606188,
        "longitude": 35.40250897407532
    },
    {
        "name": "Aïn Horché",
        "country": "Lebanon",
        "province": "Béqaa",
        "population": -1,
        "latitude": 33.456592,
        "longitude": 35.78353
    },
    {
        "name": "Es Salhîyé",
        "country": "Lebanon",
        "province": "Mont-Liban",
        "population": -1,
        "latitude": 34.076055,
        "longitude": 35.713048
    },
    {
        "name": "Aïn ed Delb",
        "country": "Lebanon",
        "province": "South Governorate",
        "population": -1,
        "latitude": 33.5413889,
        "longitude": 35.4061111
    },
    {
        "name": "‘Ayḩā",
        "country": "Lebanon",
        "province": "Béqaa",
        "population": -1,
        "latitude": 33.500229,
        "longitude": 35.875963
    },
    {
        "name": "Et Tiri",
        "country": "Lebanon",
        "province": "Nabatîyé",
        "population": -1,
        "latitude": 33.141534,
        "longitude": 35.405494
    },
    {
        "name": "Et Taïbé",
        "country": "Lebanon",
        "province": "Nabatîyé",
        "population": -1,
        "latitude": 33.275833,
        "longitude": 35.521389
    },
    {
        "name": "Es Soultânîyé",
        "country": "Lebanon",
        "province": "Nabatîyé",
        "population": -1,
        "latitude": 33.207042,
        "longitude": 35.40343
    },
    {
        "name": "Es Saoûâné",
        "country": "Lebanon",
        "province": "Nabatîyé",
        "population": -1,
        "latitude": 33.234219,
        "longitude": 35.436708
    },
    {
        "name": "Ech Chouaïfât",
        "country": "Lebanon",
        "province": "Mont-Liban",
        "population": -1,
        "latitude": 33.808611,
        "longitude": 35.517778
    },
    {
        "name": "Chiyah",
        "country": "Lebanon",
        "province": "Mont-Liban",
        "population": -1,
        "latitude": 33.8644444,
        "longitude": 35.5186111
    },
    {
        "name": "Ech Chaaïtîyé",
        "country": "Lebanon",
        "province": "South Governorate",
        "population": -1,
        "latitude": 33.1969444,
        "longitude": 35.2652778
    },
    {
        "name": "Ech Chouâya",
        "country": "Lebanon",
        "province": "Mont-Liban",
        "population": -1,
        "latitude": 34.065607,
        "longitude": 35.723744
    },
    {
        "name": "Rîhâne",
        "country": "Lebanon",
        "province": "Mont-Liban",
        "population": -1,
        "latitude": 34.166011,
        "longitude": 35.64093
    },
    {
        "name": "Aaramoûn",
        "country": "Lebanon",
        "province": "Mont-Liban",
        "population": -1,
        "latitude": 34.0197222,
        "longitude": 35.7013889
    },
    {
        "name": "Nabatîyé el Faouqa",
        "country": "Lebanon",
        "province": "Nabatîyé",
        "population": -1,
        "latitude": 33.363889,
        "longitude": 35.4925
    },
    {
        "name": "Nabaât",
        "country": "Lebanon",
        "province": "Béqaa",
        "population": -1,
        "latitude": 33.489344,
        "longitude": 35.75436
    },
    {
        "name": "Enfé",
        "country": "Lebanon",
        "province": "Liban-Nord",
        "population": -1,
        "latitude": 34.3575,
        "longitude": 35.730833
    },
    {
        "name": "Aandqet",
        "country": "Lebanon",
        "province": "Aakkâr",
        "population": -1,
        "latitude": 34.5869444,
        "longitude": 36.3055556
    },
    {
        "name": "Amchît",
        "country": "Lebanon",
        "province": "Mont-Liban",
        "population": -1,
        "latitude": 34.147767,
        "longitude": 35.644345
    },
    {
        "name": "Aammâtour",
        "country": "Lebanon",
        "province": "Mont-Liban",
        "population": -1,
        "latitude": 33.639722,
        "longitude": 35.609167
    },
    {
        "name": "El Ouâdi",
        "country": "Lebanon",
        "province": "Mont-Liban",
        "population": -1,
        "latitude": 34.148333,
        "longitude": 35.775278
    },
    {
        "name": "El Aarbânîyé",
        "country": "Lebanon",
        "province": "Mont-Liban",
        "population": -1,
        "latitude": 33.877222,
        "longitude": 35.678611
    },
    {
        "name": "El Qsaïbé",
        "country": "Lebanon",
        "province": "Nabatîyé",
        "population": -1,
        "latitude": 33.333139,
        "longitude": 35.396611
    },
    {
        "name": "El Qlaïaa",
        "country": "Lebanon",
        "province": "Nabatîyé",
        "population": -1,
        "latitude": 33.3288889,
        "longitude": 35.5666667
    },
    {
        "name": "El Qaraaoun",
        "country": "Lebanon",
        "province": "Béqaa",
        "population": -1,
        "latitude": 33.5627778,
        "longitude": 35.7219444
    },
    {
        "name": "Qaouzah",
        "country": "Lebanon",
        "province": "Nabatîyé",
        "population": -1,
        "latitude": 33.1213889,
        "longitude": 35.3383333
    },
    {
        "name": "Qantara",
        "country": "Lebanon",
        "province": "Nabatîyé",
        "population": -1,
        "latitude": 33.2733333,
        "longitude": 35.4636111
    },
    {
        "name": "El Mogheïri",
        "country": "Lebanon",
        "province": "Mont-Liban",
        "population": -1,
        "latitude": 34.098889,
        "longitude": 35.874167
    },
    {
        "name": "Merdaché",
        "country": "Lebanon",
        "province": "Mont-Liban",
        "population": -1,
        "latitude": 33.8225,
        "longitude": 35.543889
    },
    {
        "name": "Al-Maṭmūra",
        "country": "Lebanon",
        "province": "South Governorate",
        "population": -1,
        "latitude": 33.10734,
        "longitude": 35.217582
    },
    {
        "name": "El Masqa",
        "country": "Lebanon",
        "province": "Mont-Liban",
        "population": -1,
        "latitude": 33.8811111,
        "longitude": 35.6452778
    },
    {
        "name": "Al-Manṣūrī",
        "country": "Lebanon",
        "province": "South Governorate",
        "population": -1,
        "latitude": 33.1786111,
        "longitude": 35.2061111
    },
    {
        "name": "Labbūna",
        "country": "Lebanon",
        "province": "South Governorate",
        "population": -1,
        "latitude": 33.097709,
        "longitude": 35.149521
    },
    {
        "name": "Khaloué",
        "country": "Lebanon",
        "province": "Nabatîyé",
        "population": -1,
        "latitude": 33.418889,
        "longitude": 35.738611
    },
    {
        "name": "Ej Jibbaïn",
        "country": "Lebanon",
        "province": "South Governorate",
        "population": -1,
        "latitude": 33.123056,
        "longitude": 35.235833
    },
    {
        "name": "EJ Jâhlîyé",
        "country": "Lebanon",
        "province": "Mont-Liban",
        "population": -1,
        "latitude": 33.667222,
        "longitude": 35.511111
    },
    {
        "name": "El Izzîyé",
        "country": "Lebanon",
        "province": "South Governorate",
        "population": -1,
        "latitude": 33.177186,
        "longitude": 35.226723
    },
    {
        "name": "El Establ",
        "country": "Lebanon",
        "province": "Béqaa",
        "population": -1,
        "latitude": 33.7480556,
        "longitude": 35.8788889
    },
    {
        "name": "Insârîyé",
        "country": "Lebanon",
        "province": "South Governorate",
        "population": -1,
        "latitude": 33.410901,
        "longitude": 35.279304
    },
    {
        "name": "El Héloué",
        "country": "Lebanon",
        "province": "Mont-Liban",
        "population": -1,
        "latitude": 34.1775,
        "longitude": 35.6325
    },
    {
        "name": "Haloua",
        "country": "Lebanon",
        "province": "Béqaa",
        "population": -1,
        "latitude": 33.6105556,
        "longitude": 35.9988889
    },
    {
        "name": "El Héri",
        "country": "Lebanon",
        "province": "Liban-Nord",
        "population": -1,
        "latitude": 34.306667,
        "longitude": 35.713333
    },
    {
        "name": "Haouqa",
        "country": "Lebanon",
        "province": "Liban-Nord",
        "population": -1,
        "latitude": 34.2722222,
        "longitude": 35.9416667
    },
    {
        "name": "Al Ḩadath",
        "country": "Lebanon",
        "province": "Mont-Liban",
        "population": -1,
        "latitude": 33.833333,
        "longitude": 35.533333
    },
    {
        "name": "Ghobeïré",
        "country": "Lebanon",
        "province": "Mont-Liban",
        "population": -1,
        "latitude": 33.86,
        "longitude": 35.509722
    },
    {
        "name": "El Faouâr",
        "country": "Lebanon",
        "province": "Liban-Nord",
        "population": -1,
        "latitude": 34.4330556,
        "longitude": 35.8886111
    },
    {
        "name": "El Fardîs",
        "country": "Lebanon",
        "province": "Nabatîyé",
        "population": -1,
        "latitude": 33.371667,
        "longitude": 35.668056
    },
    {
        "name": "Fékehé",
        "country": "Lebanon",
        "province": "Baalbek-Hermel",
        "population": -1,
        "latitude": 34.245,
        "longitude": 36.404167
    },
    {
        "name": "El Boqaa",
        "country": "Lebanon",
        "province": "Mont-Liban",
        "population": -1,
        "latitude": 34.1455556,
        "longitude": 35.6702778
    },
    {
        "name": "El Bâzoûrîyé",
        "country": "Lebanon",
        "province": "South Governorate",
        "population": -1,
        "latitude": 33.253611,
        "longitude": 35.271111
    },
    {
        "name": "El Aaïchîyé",
        "country": "Lebanon",
        "province": "South Governorate",
        "population": -1,
        "latitude": 33.408889,
        "longitude": 35.556667
    },
    {
        "name": "Aaley",
        "country": "Lebanon",
        "province": "Mont-Liban",
        "population": -1,
        "latitude": 33.805278,
        "longitude": 35.6
    },
    {
        "name": "El Aaqoûra",
        "country": "Lebanon",
        "province": "Mont-Liban",
        "population": -1,
        "latitude": 34.121389,
        "longitude": 35.903056
    },
    {
        "name": "El Aazra",
        "country": "Lebanon",
        "province": "Mont-Liban",
        "population": -1,
        "latitude": 34.063553,
        "longitude": 35.696309
    },
    {
        "name": "El Aabboûdîyé",
        "country": "Lebanon",
        "province": "Aakkâr",
        "population": -1,
        "latitude": 34.632778,
        "longitude": 36.117222
    },
    {
        "name": "Aajaltoûn",
        "country": "Lebanon",
        "province": "Mont-Liban",
        "population": -1,
        "latitude": 33.965278,
        "longitude": 35.682778
    },
    {
        "name": "Doûq",
        "country": "Lebanon",
        "province": "Liban-Nord",
        "population": -1,
        "latitude": 34.195,
        "longitude": 35.746389
    },
    {
        "name": "Dbaïyé",
        "country": "Lebanon",
        "province": "Mont-Liban",
        "population": -1,
        "latitude": 33.945,
        "longitude": 35.595278
    },
    {
        "name": "Ed Demachqîyé",
        "country": "Lebanon",
        "province": "South Governorate",
        "population": -1,
        "latitude": 33.375,
        "longitude": 35.546944
    },
    {
        "name": "Ed Dîmâne",
        "country": "Lebanon",
        "province": "Liban-Nord",
        "population": -1,
        "latitude": 34.246667,
        "longitude": 35.9525
    },
    {
        "name": "Ed Daïchouniyé",
        "country": "Lebanon",
        "province": "Mont-Liban",
        "population": -1,
        "latitude": 33.8475,
        "longitude": 35.574722
    },
    {
        "name": "Ed Dâmoûr",
        "country": "Lebanon",
        "province": "Mont-Liban",
        "population": -1,
        "latitude": 33.73,
        "longitude": 35.456389
    },
    {
        "name": "Delhamîyé",
        "country": "Lebanon",
        "province": "Béqaa",
        "population": -1,
        "latitude": 33.816944,
        "longitude": 35.958611
    },
    {
        "name": "Abou Chêch",
        "country": "Lebanon",
        "province": "South Governorate",
        "population": -1,
        "latitude": 33.128333,
        "longitude": 35.211389
    },
    {
        "name": "Aabdilli",
        "country": "Lebanon",
        "province": "Liban-Nord",
        "population": -1,
        "latitude": 34.2066667,
        "longitude": 35.7222222
    },
    {
        "name": "Aabbâssîyé",
        "country": "Lebanon",
        "province": "South Governorate",
        "population": -1,
        "latitude": 33.29827,
        "longitude": 35.282124
    },
    {
        "name": "Zouq Mkayel",
        "country": "Lebanon",
        "province": "Mont-Liban",
        "population": -1,
        "latitude": 33.97,
        "longitude": 35.6197222
    },
    {
        "name": "El Bass",
        "country": "Lebanon",
        "province": "South Governorate",
        "population": -1,
        "latitude": 33.2725,
        "longitude": 35.2125
    },
    {
        "name": "El Majidiye",
        "country": "Lebanon",
        "province": "Beyrouth",
        "population": -1,
        "latitude": 33.8991667,
        "longitude": 35.5058333
    },
    {
        "name": "Aïn el Mraïsse",
        "country": "Lebanon",
        "province": "Beyrouth",
        "population": -1,
        "latitude": 33.900278,
        "longitude": 35.4875
    },
    {
        "name": "El Msaïtbé",
        "country": "Lebanon",
        "province": "Beyrouth",
        "population": -1,
        "latitude": 33.884722,
        "longitude": 35.495
    },
    {
        "name": "Btekhnay",
        "country": "Lebanon",
        "province": "Mont-Liban",
        "population": -1,
        "latitude": 33.8411111,
        "longitude": 35.7183333
    },
    {
        "name": "Aïn Abael",
        "country": "Lebanon",
        "province": "Mont-Liban",
        "population": -1,
        "latitude": 34.040845,
        "longitude": 35.71246
    },
    {
        "name": "Namoûret et Tahta",
        "country": "Lebanon",
        "province": "Mont-Liban",
        "population": -1,
        "latitude": 34.052523,
        "longitude": 35.671452
    },
    {
        "name": "Aayoûn el Aalaq",
        "country": "Lebanon",
        "province": "Mont-Liban",
        "population": -1,
        "latitude": 34.139167,
        "longitude": 35.871944
    },
    {
        "name": "Rijkol",
        "country": "Lebanon",
        "province": "Mont-Liban",
        "population": -1,
        "latitude": 34.1522222,
        "longitude": 35.7458333
    },
    {
        "name": "Badbhoûn",
        "country": "Lebanon",
        "province": "Liban-Nord",
        "population": -1,
        "latitude": 34.3363889,
        "longitude": 35.7563889
    },
    {
        "name": "Chekka",
        "country": "Lebanon",
        "province": "Liban-Nord",
        "population": -1,
        "latitude": 34.3286111,
        "longitude": 35.73
    },
    {
        "name": "El Maqsbé",
        "country": "Lebanon",
        "province": "South Governorate",
        "population": -1,
        "latitude": 33.177778,
        "longitude": 35.196667
    },
    {
        "name": "Mazraat el Aïté Nîyé",
        "country": "Lebanon",
        "province": "South Governorate",
        "population": -1,
        "latitude": 33.345278,
        "longitude": 35.248056
    },
    {
        "name": "Rmaïlé",
        "country": "Lebanon",
        "province": "Mont-Liban",
        "population": -1,
        "latitude": 33.831944,
        "longitude": 35.618611
    },
    {
        "name": "Khaldé",
        "country": "Lebanon",
        "province": "Mont-Liban",
        "population": -1,
        "latitude": 33.787151,
        "longitude": 35.48071
    },
    {
        "name": "El Maarad",
        "country": "Lebanon",
        "province": "Beyrouth",
        "population": -1,
        "latitude": 33.8966667,
        "longitude": 35.5055556
    },
    {
        "name": "Yarzé",
        "country": "Lebanon",
        "province": "Mont-Liban",
        "population": -1,
        "latitude": 33.836111,
        "longitude": 35.551944
    },
    {
        "name": "Beït Yahoun",
        "country": "Lebanon",
        "province": "Nabatîyé",
        "population": -1,
        "latitude": 33.1591667,
        "longitude": 35.4225
    },
    {
        "name": "Karm Houâch",
        "country": "Lebanon",
        "province": "South Governorate",
        "population": -1,
        "latitude": 33.555867,
        "longitude": 35.396568
    },
    {
        "name": "Btaïchîyé",
        "country": "Lebanon",
        "province": "South Governorate",
        "population": -1,
        "latitude": 33.107222,
        "longitude": 35.209167
    },
    {
        "name": "Kobayat",
        "country": "Lebanon",
        "province": "Aakkâr",
        "population": -1,
        "latitude": 34.566667,
        "longitude": 36.283333
    },
    {
        "name": "Miniâra",
        "country": "Lebanon",
        "province": "Aakkâr",
        "population": -1,
        "latitude": 34.5319444,
        "longitude": 36.0597222
    },
    {
        "name": "Mdoûkha",
        "country": "Lebanon",
        "province": "Béqaa",
        "population": -1,
        "latitude": 33.6063889,
        "longitude": 35.8769444
    },
    {
        "name": "Mdâmît",
        "country": "Lebanon",
        "province": "Mont-Liban",
        "population": -1,
        "latitude": 34.106667,
        "longitude": 35.685278
    },
    {
        "name": "Mazraat Aaqmâta",
        "country": "Lebanon",
        "province": "South Governorate",
        "population": -1,
        "latitude": 33.456389,
        "longitude": 35.546944
    },
    {
        "name": "Mazraat Oum er Robb",
        "country": "Lebanon",
        "province": "South Governorate",
        "population": -1,
        "latitude": 33.1425,
        "longitude": 35.1730556
    },
    {
        "name": "Mazraat Sarada",
        "country": "Lebanon",
        "province": "Nabatîyé",
        "population": -1,
        "latitude": 33.2922222,
        "longitude": 35.5988889
    },
    {
        "name": "Mazraat Louzîd",
        "country": "Lebanon",
        "province": "South Governorate",
        "population": -1,
        "latitude": 33.417222,
        "longitude": 35.588333
    },
    {
        "name": "Mazraat Kaoutariyet er Rizz",
        "country": "Lebanon",
        "province": "South Governorate",
        "population": -1,
        "latitude": 33.3722222,
        "longitude": 35.3097222
    },
    {
        "name": "Mazraat Kfar Badda",
        "country": "Lebanon",
        "province": "South Governorate",
        "population": -1,
        "latitude": 33.3661111,
        "longitude": 35.2708333
    },
    {
        "name": "Mazraat Jamjîm",
        "country": "Lebanon",
        "province": "South Governorate",
        "population": -1,
        "latitude": 33.361441,
        "longitude": 35.273833
    },
    {
        "name": "Jaafar",
        "country": "Lebanon",
        "province": "Béqaa",
        "population": -1,
        "latitude": 33.470047,
        "longitude": 35.7706
    },
    {
        "name": "Mazraat Hannoûch",
        "country": "Lebanon",
        "province": "Liban-Nord",
        "population": -1,
        "latitude": 34.300833,
        "longitude": 35.676389
    },
    {
        "name": "Mazraat Dmoûl",
        "country": "Lebanon",
        "province": "Nabatîyé",
        "population": -1,
        "latitude": 33.372166,
        "longitude": 35.366121
    },
    {
        "name": "Mazraat Brâk et Tall",
        "country": "Lebanon",
        "province": "South Governorate",
        "population": -1,
        "latitude": 33.481944,
        "longitude": 35.326389
    },
    {
        "name": "Mazraat ez Zaaroûrîyé",
        "country": "Lebanon",
        "province": "Mont-Liban",
        "population": -1,
        "latitude": 33.5880556,
        "longitude": 35.4183333
    },
    {
        "name": "Mazraat ez Zalloûtîyé",
        "country": "Lebanon",
        "province": "South Governorate",
        "population": -1,
        "latitude": 33.112222,
        "longitude": 35.247222
    },
    {
        "name": "Mazraat Aaïyé",
        "country": "Lebanon",
        "province": "South Governorate",
        "population": -1,
        "latitude": 33.181051,
        "longitude": 35.30675
    },
    {
        "name": "Mazraat et Teffâh",
        "country": "Lebanon",
        "province": "Liban-Nord",
        "population": -1,
        "latitude": 34.3227778,
        "longitude": 35.9505556
    },
    {
        "name": "Mazraat es Snaïber",
        "country": "Lebanon",
        "province": "South Governorate",
        "population": -1,
        "latitude": 33.460973,
        "longitude": 35.325437
    },
    {
        "name": "Mazraat es Sîyâd",
        "country": "Lebanon",
        "province": "Mont-Liban",
        "population": -1,
        "latitude": 34.105278,
        "longitude": 35.861389
    },
    {
        "name": "Mazraat en Nahr",
        "country": "Lebanon",
        "province": "Liban-Nord",
        "population": -1,
        "latitude": 34.2847222,
        "longitude": 35.9236111
    },
    {
        "name": "Mazraat el Oussaïta",
        "country": "Lebanon",
        "province": "South Governorate",
        "population": -1,
        "latitude": 33.458115,
        "longitude": 35.339163
    },
    {
        "name": "Mazraat el Aarqoûb",
        "country": "Lebanon",
        "province": "South Governorate",
        "population": -1,
        "latitude": 33.4008333,
        "longitude": 35.535
    },
    {
        "name": "Mazraat el Manhali",
        "country": "Lebanon",
        "province": "South Governorate",
        "population": -1,
        "latitude": 33.400532,
        "longitude": 35.267432
    },
    {
        "name": "Mazraat Khaïzarâne",
        "country": "Lebanon",
        "province": "South Governorate",
        "population": -1,
        "latitude": 33.445351,
        "longitude": 35.278281
    },
    {
        "name": "Mazraat ej Joûdîyé",
        "country": "Lebanon",
        "province": "South Governorate",
        "population": -1,
        "latitude": 33.354054,
        "longitude": 35.258209
    },
    {
        "name": "Mazraat el Hmaïlé",
        "country": "Lebanon",
        "province": "Nabatîyé",
        "population": -1,
        "latitude": 33.448253,
        "longitude": 35.468857
    },
    {
        "name": "Mazraat el Hamra",
        "country": "Lebanon",
        "province": "Nabatîyé",
        "population": -1,
        "latitude": 33.324597,
        "longitude": 35.493486
    },
    {
        "name": "Mazraat el Btadînîyé",
        "country": "Lebanon",
        "province": "South Governorate",
        "population": -1,
        "latitude": 33.487778,
        "longitude": 35.555278
    },
    {
        "name": "Mazraat el Aâqbîyé",
        "country": "Lebanon",
        "province": "South Governorate",
        "population": -1,
        "latitude": 33.467011,
        "longitude": 35.317798
    },
    {
        "name": "Mazraat ed Daoudîyé",
        "country": "Lebanon",
        "province": "South Governorate",
        "population": -1,
        "latitude": 33.461667,
        "longitude": 35.365833
    },
    {
        "name": "Mazraat ed Dâoudîyé",
        "country": "Lebanon",
        "province": "South Governorate",
        "population": -1,
        "latitude": 33.428431,
        "longitude": 35.299043
    },
    {
        "name": "Dehayrjate",
        "country": "Lebanon",
        "province": "Nabatîyé",
        "population": -1,
        "latitude": 33.3094444,
        "longitude": 35.6541667
    },
    {
        "name": "Mazraat ed Dahr",
        "country": "Lebanon",
        "province": "Mont-Liban",
        "population": -1,
        "latitude": 33.5958333,
        "longitude": 35.5152778
    },
    {
        "name": "Meïss ej Jabal",
        "country": "Lebanon",
        "province": "Nabatîyé",
        "population": -1,
        "latitude": 33.169073,
        "longitude": 35.523437
    },
    {
        "name": "Maïfoûq",
        "country": "Lebanon",
        "province": "Mont-Liban",
        "population": -1,
        "latitude": 34.1816667,
        "longitude": 35.7758333
    },
    {
        "name": "Maïfadoûn",
        "country": "Lebanon",
        "province": "Nabatîyé",
        "population": -1,
        "latitude": 33.3472222,
        "longitude": 35.4763889
    },
    {
        "name": "Matarîyet ech Choûmar",
        "country": "Lebanon",
        "province": "South Governorate",
        "population": -1,
        "latitude": 33.339729,
        "longitude": 35.279534
    },
    {
        "name": "Maʿshūq",
        "country": "Lebanon",
        "province": "South Governorate",
        "population": -1,
        "latitude": 33.268454,
        "longitude": 35.224142
    },
    {
        "name": "Machghara",
        "country": "Lebanon",
        "province": "Béqaa",
        "population": -1,
        "latitude": 33.5305556,
        "longitude": 35.6536111
    },
    {
        "name": "Marouâhîne",
        "country": "Lebanon",
        "province": "South Governorate",
        "population": -1,
        "latitude": 33.1088889,
        "longitude": 35.2758333
    },
    {
        "name": "Maroûs el Barranîyé",
        "country": "Lebanon",
        "province": "South Governorate",
        "population": -1,
        "latitude": 33.5519444,
        "longitude": 35.4811111
    },
    {
        "name": "Maroun er Ras",
        "country": "Lebanon",
        "province": "Nabatîyé",
        "population": -1,
        "latitude": 33.103811,
        "longitude": 35.444402
    },
    {
        "name": "Mâr Mkhâyel",
        "country": "Lebanon",
        "province": "Liban-Nord",
        "population": -1,
        "latitude": 34.205307,
        "longitude": 35.915618
    },
    {
        "name": "Mârlayet Haddâra",
        "country": "Lebanon",
        "province": "Aakkâr",
        "population": -1,
        "latitude": 34.540833,
        "longitude": 36.033056
    },
    {
        "name": "Markaba",
        "country": "Lebanon",
        "province": "Nabatîyé",
        "population": -1,
        "latitude": 33.2333333,
        "longitude": 35.5130556
    },
    {
        "name": "Maaraké",
        "country": "Lebanon",
        "province": "South Governorate",
        "population": -1,
        "latitude": 33.2730556,
        "longitude": 35.3086111
    },
    {
        "name": "Mrâh Abou Chdîd",
        "country": "Lebanon",
        "province": "South Governorate",
        "population": -1,
        "latitude": 33.531667,
        "longitude": 35.553056
    },
    {
        "name": "Maqné",
        "country": "Lebanon",
        "province": "Baalbek-Hermel",
        "population": -1,
        "latitude": 34.079722,
        "longitude": 36.206667
    },
    {
        "name": "Mejdelyoûn",
        "country": "Lebanon",
        "province": "South Governorate",
        "population": -1,
        "latitude": 33.5605556,
        "longitude": 35.4105556
    },
    {
        "name": "Majdel Selm",
        "country": "Lebanon",
        "province": "Nabatîyé",
        "population": -1,
        "latitude": 33.2222222,
        "longitude": 35.4647222
    },
    {
        "name": "Majdal Balhîss",
        "country": "Lebanon",
        "province": "Béqaa",
        "population": -1,
        "latitude": 33.5386111,
        "longitude": 35.7461111
    },
    {
        "name": "Majdel Aanjar",
        "country": "Lebanon",
        "province": "Béqaa",
        "population": -1,
        "latitude": 33.7083333,
        "longitude": 35.9025
    },
    {
        "name": "Majd el Méouch",
        "country": "Lebanon",
        "province": "Mont-Liban",
        "population": -1,
        "latitude": 33.7241667,
        "longitude": 35.6238889
    },
    {
        "name": "AITIT",
        "country": "Lebanon",
        "province": "South Governorate",
        "population": -1,
        "latitude": 33.2194444,
        "longitude": 35.3436111
    },
    {
        "name": "Maghdouche",
        "country": "Lebanon",
        "province": "South Governorate",
        "population": -1,
        "latitude": 33.5220591597268,
        "longitude": 35.3860402107239
    },
    {
        "name": "El Loûbié",
        "country": "Lebanon",
        "province": "South Governorate",
        "population": -1,
        "latitude": 33.427953,
        "longitude": 35.288143
    },
    {
        "name": "Lehfed",
        "country": "Lebanon",
        "province": "Mont-Liban",
        "population": -1,
        "latitude": 34.1647222,
        "longitude": 35.7775
    },
    {
        "name": "Libbâya",
        "country": "Lebanon",
        "province": "Béqaa",
        "population": -1,
        "latitude": 33.4822222,
        "longitude": 35.7241667
    },
    {
        "name": "Lebaâ",
        "country": "Lebanon",
        "province": "South Governorate",
        "population": -1,
        "latitude": 33.5488889,
        "longitude": 35.4527778
    },
    {
        "name": "Lâssa",
        "country": "Lebanon",
        "province": "Mont-Liban",
        "population": -1,
        "latitude": 34.075,
        "longitude": 35.8583333
    },
    {
        "name": "Koûsba",
        "country": "Lebanon",
        "province": "Liban-Nord",
        "population": -1,
        "latitude": 34.2997222,
        "longitude": 35.8505556
    },
    {
        "name": "Koûr el Haoua",
        "country": "Lebanon",
        "province": "Mont-Liban",
        "population": -1,
        "latitude": 34.1688889,
        "longitude": 35.6641667
    },
    {
        "name": "Kounine",
        "country": "Lebanon",
        "province": "Nabatîyé",
        "population": -1,
        "latitude": 33.1488889,
        "longitude": 35.4361111
    },
    {
        "name": "Koûkdâne",
        "country": "Lebanon",
        "province": "Mont-Liban",
        "population": -1,
        "latitude": 34.1115,
        "longitude": 35.736733
    },
    {
        "name": "Kfoûr el Aarbé",
        "country": "Lebanon",
        "province": "Liban-Nord",
        "population": -1,
        "latitude": 34.224111,
        "longitude": 35.865541
    },
    {
        "name": "Kfaïr ez Zaït",
        "country": "Lebanon",
        "province": "Nabatîyé",
        "population": -1,
        "latitude": 33.43,
        "longitude": 35.739722
    },
    {
        "name": "Ksâr el Mechrqé",
        "country": "Lebanon",
        "province": "Mont-Liban",
        "population": -1,
        "latitude": 34.101304,
        "longitude": 35.784888
    },
    {
        "name": "Ketermâya",
        "country": "Lebanon",
        "province": "Mont-Liban",
        "population": -1,
        "latitude": 33.6169444,
        "longitude": 35.4480556
    },
    {
        "name": "Kelbâtâ",
        "country": "Lebanon",
        "province": "Liban-Nord",
        "population": -1,
        "latitude": 34.2805556,
        "longitude": 35.7327778
    },
    {
        "name": "Kifraïya",
        "country": "Lebanon",
        "province": "Liban-Nord",
        "population": -1,
        "latitude": 34.2944444,
        "longitude": 35.7213889
    },
    {
        "name": "Khzaïz",
        "country": "Lebanon",
        "province": "South Governorate",
        "population": -1,
        "latitude": 33.466944,
        "longitude": 35.406667
    },
    {
        "name": "Khirbet Selm",
        "country": "Lebanon",
        "province": "Nabatîyé",
        "population": -1,
        "latitude": 33.229307,
        "longitude": 35.424074
    },
    {
        "name": "Khirbet Roûha",
        "country": "Lebanon",
        "province": "Béqaa",
        "population": -1,
        "latitude": 33.5716667,
        "longitude": 35.8525
    },
    {
        "name": "Kfoûn",
        "country": "Lebanon",
        "province": "Mont-Liban",
        "population": -1,
        "latitude": 34.1552778,
        "longitude": 35.7047222
    },
    {
        "name": "Kaoutarîet es Siyâd",
        "country": "Lebanon",
        "province": "South Governorate",
        "population": -1,
        "latitude": 33.417094,
        "longitude": 35.385213
    },
    {
        "name": "El Karak",
        "country": "Lebanon",
        "province": "Béqaa",
        "population": -1,
        "latitude": 33.85,
        "longitude": 35.926389
    },
    {
        "name": "Kaftoûn",
        "country": "Lebanon",
        "province": "Liban-Nord",
        "population": -1,
        "latitude": 34.2661111,
        "longitude": 35.7669444
    },
    {
        "name": "Kfar Yâssîne",
        "country": "Lebanon",
        "province": "Mont-Liban",
        "population": -1,
        "latitude": 34.025,
        "longitude": 35.6352778
    },
    {
        "name": "Kfaroué",
        "country": "Lebanon",
        "province": "Nabatîyé",
        "population": -1,
        "latitude": 33.443625,
        "longitude": 35.426517
    },
    {
        "name": "Kfar Aabîda",
        "country": "Lebanon",
        "province": "Liban-Nord",
        "population": -1,
        "latitude": 34.2275,
        "longitude": 35.6627778
    },
    {
        "name": "Kfar Tibnît",
        "country": "Lebanon",
        "province": "Nabatîyé",
        "population": -1,
        "latitude": 33.3533333,
        "longitude": 35.5127778
    },
    {
        "name": "Kfar Sîr",
        "country": "Lebanon",
        "province": "Nabatîyé",
        "population": -1,
        "latitude": 33.327664,
        "longitude": 35.399183
    },
    {
        "name": "Kfar Shouba",
        "country": "Lebanon",
        "province": "Nabatîyé",
        "population": -1,
        "latitude": 33.3277778,
        "longitude": 35.6925
    },
    {
        "name": "Kfar Chellâl",
        "country": "Lebanon",
        "province": "South Governorate",
        "population": -1,
        "latitude": 33.492986,
        "longitude": 35.468608
    },
    {
        "name": "Kfarchillé",
        "country": "Lebanon",
        "province": "Mont-Liban",
        "population": -1,
        "latitude": 34.1775,
        "longitude": 35.778889
    },
    {
        "name": "Kfar Chakhna",
        "country": "Lebanon",
        "province": "Liban-Nord",
        "population": -1,
        "latitude": 34.3641667,
        "longitude": 35.8647222
    },
    {
        "name": "Kfarsâroûn",
        "country": "Lebanon",
        "province": "Liban-Nord",
        "population": -1,
        "latitude": 34.2436111,
        "longitude": 35.9625
    },
    {
        "name": "Kfar Sâlé",
        "country": "Lebanon",
        "province": "Mont-Liban",
        "population": -1,
        "latitude": 34.1380556,
        "longitude": 35.6513889
    },
    {
        "name": "Kfar Qoûq",
        "country": "Lebanon",
        "province": "Béqaa",
        "population": -1,
        "latitude": 33.5338889,
        "longitude": 35.8925
    },
    {
        "name": "Kfar Qâhel",
        "country": "Lebanon",
        "province": "Liban-Nord",
        "population": -1,
        "latitude": 34.3569444,
        "longitude": 35.8522222
    },
    {
        "name": "Kfar Nabrakh",
        "country": "Lebanon",
        "province": "Mont-Liban",
        "population": -1,
        "latitude": 33.6988889,
        "longitude": 35.6319444
    },
    {
        "name": "Kfar Melké",
        "country": "Lebanon",
        "province": "South Governorate",
        "population": -1,
        "latitude": 33.5016667,
        "longitude": 35.4786111
    },
    {
        "name": "Kfar Matta",
        "country": "Lebanon",
        "province": "Mont-Liban",
        "population": -1,
        "latitude": 33.7261111,
        "longitude": 35.5291667
    },
    {
        "name": "Kfar Kila",
        "country": "Lebanon",
        "province": "Nabatîyé",
        "population": -1,
        "latitude": 33.2772222,
        "longitude": 35.5516667
    },
    {
        "name": "Kfar Kiddé",
        "country": "Lebanon",
        "province": "Mont-Liban",
        "population": -1,
        "latitude": 34.200278,
        "longitude": 35.654444
    },
    {
        "name": "Kfar Kikhlé",
        "country": "Lebanon",
        "province": "Mont-Liban",
        "population": -1,
        "latitude": 34.1422222,
        "longitude": 35.6522222
    },
    {
        "name": "Kfar Hazîr",
        "country": "Lebanon",
        "province": "Liban-Nord",
        "population": -1,
        "latitude": 34.3111111,
        "longitude": 35.7752778
    },
    {
        "name": "Kfar Haï",
        "country": "Lebanon",
        "province": "Liban-Nord",
        "population": -1,
        "latitude": 34.250556,
        "longitude": 35.746667
    },
    {
        "name": "Kfar Hatta",
        "country": "Lebanon",
        "province": "South Governorate",
        "population": -1,
        "latitude": 33.5077778,
        "longitude": 35.4475
    },
    {
        "name": "Kfar Hitta",
        "country": "Lebanon",
        "province": "Mont-Liban",
        "population": -1,
        "latitude": 34.1383333,
        "longitude": 35.6752778
    },
    {
        "name": "Kfar Hâta",
        "country": "Lebanon",
        "province": "Liban-Nord",
        "population": -1,
        "latitude": 34.3827778,
        "longitude": 35.8994444
    },
    {
        "name": "Kfarfou",
        "country": "Lebanon",
        "province": "Liban-Nord",
        "population": -1,
        "latitude": 34.3175,
        "longitude": 35.8816667
    },
    {
        "name": "Kfar Fîla",
        "country": "Lebanon",
        "province": "Nabatîyé",
        "population": -1,
        "latitude": 33.482966,
        "longitude": 35.502572
    },
    {
        "name": "Kfar Fâqoûd",
        "country": "Lebanon",
        "province": "Mont-Liban",
        "population": -1,
        "latitude": 33.7,
        "longitude": 35.5341667
    },
    {
        "name": "Kfar Doûnîne",
        "country": "Lebanon",
        "province": "Nabatîyé",
        "population": -1,
        "latitude": 33.238309,
        "longitude": 35.396174
    },
    {
        "name": "Kfar Dlâqos",
        "country": "Lebanon",
        "province": "Liban-Nord",
        "population": -1,
        "latitude": 34.3933333,
        "longitude": 35.9058333
    },
    {
        "name": "Kfardenîs",
        "country": "Lebanon",
        "province": "Béqaa",
        "population": -1,
        "latitude": 33.5494444,
        "longitude": 35.8530556
    },
    {
        "name": "Kfar Beït",
        "country": "Lebanon",
        "province": "South Governorate",
        "population": -1,
        "latitude": 33.497379,
        "longitude": 35.46184
    },
    {
        "name": "Kfar Baâl",
        "country": "Lebanon",
        "province": "Mont-Liban",
        "population": -1,
        "latitude": 34.10833,
        "longitude": 35.737301
    },
    {
        "name": "Kfar Aammaï",
        "country": "Lebanon",
        "province": "Mont-Liban",
        "population": -1,
        "latitude": 33.7672222,
        "longitude": 35.5925
    },
    {
        "name": "Kafra",
        "country": "Lebanon",
        "province": "Nabatîyé",
        "population": -1,
        "latitude": 33.1747222,
        "longitude": 35.3511111
    },
    {
        "name": "Kâf el Malloûl",
        "country": "Lebanon",
        "province": "Liban-Nord",
        "population": -1,
        "latitude": 34.351452,
        "longitude": 35.956683
    },
    {
        "name": "Jouaïya",
        "country": "Lebanon",
        "province": "South Governorate",
        "population": -1,
        "latitude": 33.237827,
        "longitude": 35.337308
    },
    {
        "name": "Joûret et Termos",
        "country": "Lebanon",
        "province": "Mont-Liban",
        "population": -1,
        "latitude": 34.045,
        "longitude": 35.7208333
    },
    {
        "name": "Joûret Mhâd",
        "country": "Lebanon",
        "province": "Mont-Liban",
        "population": -1,
        "latitude": 34.041592,
        "longitude": 35.735219
    },
    {
        "name": "Joûret el Balloût",
        "country": "Lebanon",
        "province": "Mont-Liban",
        "population": -1,
        "latitude": 33.8913889,
        "longitude": 35.6358333
    },
    {
        "name": "Joûn",
        "country": "Lebanon",
        "province": "Mont-Liban",
        "population": -1,
        "latitude": 33.5813889,
        "longitude": 35.4611111
    },
    {
        "name": "Jamhour",
        "country": "Lebanon",
        "province": "Mont-Liban",
        "population": -1,
        "latitude": 33.8286111,
        "longitude": 35.5744444
    },
    {
        "name": "Jdaïdet el Qaïtaa",
        "country": "Lebanon",
        "province": "Aakkâr",
        "population": -1,
        "latitude": 34.465833,
        "longitude": 36.011667
    },
    {
        "name": "Jiîta",
        "country": "Lebanon",
        "province": "Mont-Liban",
        "population": -1,
        "latitude": 33.953333,
        "longitude": 35.647778
    },
    {
        "name": "Jinsnâya",
        "country": "Lebanon",
        "province": "South Governorate",
        "population": -1,
        "latitude": 33.536944,
        "longitude": 35.431667
    },
    {
        "name": "Jennâta",
        "country": "Lebanon",
        "province": "South Governorate",
        "population": -1,
        "latitude": 33.2863889,
        "longitude": 35.3194444
    },
    {
        "name": "Jibchît",
        "country": "Lebanon",
        "province": "Nabatîyé",
        "population": -1,
        "latitude": 33.3641667,
        "longitude": 35.4322222
    },
    {
        "name": "Jibla",
        "country": "Lebanon",
        "province": "Liban-Nord",
        "population": -1,
        "latitude": 34.2463889,
        "longitude": 35.7775
    },
    {
        "name": "Jbâl el Botm",
        "country": "Lebanon",
        "province": "South Governorate",
        "population": -1,
        "latitude": 33.176667,
        "longitude": 35.291944
    },
    {
        "name": "Jbâa ech Choûf",
        "country": "Lebanon",
        "province": "Mont-Liban",
        "population": -1,
        "latitude": 33.6122222,
        "longitude": 35.6288889
    },
    {
        "name": "Jbâa",
        "country": "Lebanon",
        "province": "Nabatîyé",
        "population": -1,
        "latitude": 33.485833,
        "longitude": 35.518056
    },
    {
        "name": "Jarjoûr",
        "country": "Lebanon",
        "province": "Liban-Nord",
        "population": -1,
        "latitude": 34.351389,
        "longitude": 35.939722
    },
    {
        "name": "Jarjoûaa",
        "country": "Lebanon",
        "province": "Nabatîyé",
        "population": -1,
        "latitude": 33.4466667,
        "longitude": 35.5186111
    },
    {
        "name": "Jall Al Dieb",
        "country": "Lebanon",
        "province": "Mont-Liban",
        "population": -1,
        "latitude": 33.9083333,
        "longitude": 35.5813889
    },
    {
        "name": "Jellab el Faouqa",
        "country": "Lebanon",
        "province": "Mont-Liban",
        "population": -1,
        "latitude": 34.094147,
        "longitude": 35.681727
    },
    {
        "name": "Jâj",
        "country": "Lebanon",
        "province": "Mont-Liban",
        "population": -1,
        "latitude": 34.164711,
        "longitude": 35.804438
    },
    {
        "name": "Jeddâyel",
        "country": "Lebanon",
        "province": "Mont-Liban",
        "population": -1,
        "latitude": 34.164444,
        "longitude": 35.649722
    },
    {
        "name": "Aazzé",
        "country": "Lebanon",
        "province": "Nabatîyé",
        "population": -1,
        "latitude": 33.454924,
        "longitude": 35.431093
    },
    {
        "name": "Izâl",
        "country": "Lebanon",
        "province": "Liban-Nord",
        "population": -1,
        "latitude": 34.381111,
        "longitude": 35.982778
    },
    {
        "name": "Aatrîne",
        "country": "Lebanon",
        "province": "Mont-Liban",
        "population": -1,
        "latitude": 33.6627778,
        "longitude": 35.5683333
    },
    {
        "name": "Iskanndaroûna",
        "country": "Lebanon",
        "province": "South Governorate",
        "population": -1,
        "latitude": 33.155833,
        "longitude": 35.163889
    },
    {
        "name": "Aachâch",
        "country": "Lebanon",
        "province": "Liban-Nord",
        "population": -1,
        "latitude": 34.41524,
        "longitude": 35.936705
    },
    {
        "name": "Aarsâl",
        "country": "Lebanon",
        "province": "Baalbek-Hermel",
        "population": -1,
        "latitude": 34.1794444,
        "longitude": 36.4208333
    },
    {
        "name": "Aarnâba",
        "country": "Lebanon",
        "province": "South Governorate",
        "population": -1,
        "latitude": 33.506046,
        "longitude": 35.402551
    },
    {
        "name": "Erkay",
        "country": "Lebanon",
        "province": "South Governorate",
        "population": -1,
        "latitude": 33.464092,
        "longitude": 35.414371
    },
    {
        "name": "Ijd Aabrîne",
        "country": "Lebanon",
        "province": "Liban-Nord",
        "population": -1,
        "latitude": 34.271944,
        "longitude": 35.744444
    },
    {
        "name": "Ehmej",
        "country": "Lebanon",
        "province": "Mont-Liban",
        "population": -1,
        "latitude": 34.1219444,
        "longitude": 35.7852778
    },
    {
        "name": "Ehden",
        "country": "Lebanon",
        "province": "Liban-Nord",
        "population": -1,
        "latitude": 34.2911111,
        "longitude": 35.965
    },
    {
        "name": "Eddé",
        "country": "Lebanon",
        "province": "Mont-Liban",
        "population": -1,
        "latitude": 34.140311,
        "longitude": 35.66428
    },
    {
        "name": "Aabrîne",
        "country": "Lebanon",
        "province": "Liban-Nord",
        "population": -1,
        "latitude": 34.252222,
        "longitude": 35.704444
    },
    {
        "name": "Îaât",
        "country": "Lebanon",
        "province": "Baalbek-Hermel",
        "population": -1,
        "latitude": 34.0369444,
        "longitude": 36.1713889
    },
    {
        "name": "Iaal",
        "country": "Lebanon",
        "province": "Liban-Nord",
        "population": -1,
        "latitude": 34.3622222,
        "longitude": 35.9113889
    },
    {
        "name": "Hosna",
        "country": "Lebanon",
        "province": "Mont-Liban",
        "population": -1,
        "latitude": 34.1032,
        "longitude": 35.77644
    },
    {
        "name": "Hoshmosh",
        "country": "Lebanon",
        "province": "Béqaa",
        "population": -1,
        "latitude": 33.8241667,
        "longitude": 36.0233333
    },
    {
        "name": "Hnaïder",
        "country": "Lebanon",
        "province": "Aakkâr",
        "population": -1,
        "latitude": 34.615556,
        "longitude": 36.428611
    },
    {
        "name": "Hoûmîne et Tahta",
        "country": "Lebanon",
        "province": "Nabatîyé",
        "population": -1,
        "latitude": 33.476389,
        "longitude": 35.433056
    },
    {
        "name": "Hoûmîne el Faouqa",
        "country": "Lebanon",
        "province": "Nabatîyé",
        "population": -1,
        "latitude": 33.441389,
        "longitude": 35.497778
    },
    {
        "name": "Hmaïrî",
        "country": "Lebanon",
        "province": "South Governorate",
        "population": -1,
        "latitude": 33.295278,
        "longitude": 35.351389
    },
    {
        "name": "Hjoûla",
        "country": "Lebanon",
        "province": "Mont-Liban",
        "population": -1,
        "latitude": 34.1325,
        "longitude": 35.746389
    },
    {
        "name": "Hizzîne",
        "country": "Lebanon",
        "province": "Baalbek-Hermel",
        "population": -1,
        "latitude": 33.969167,
        "longitude": 36.094722
    },
    {
        "name": "Hosrâyel",
        "country": "Lebanon",
        "province": "Mont-Liban",
        "population": -1,
        "latitude": 34.158889,
        "longitude": 35.657222
    },
    {
        "name": "Hsârât",
        "country": "Lebanon",
        "province": "Mont-Liban",
        "population": -1,
        "latitude": 34.169422,
        "longitude": 35.687282
    },
    {
        "name": "Helta",
        "country": "Lebanon",
        "province": "Liban-Nord",
        "population": -1,
        "latitude": 34.2369444,
        "longitude": 35.7808333
    },
    {
        "name": "Hidchêt",
        "country": "Lebanon",
        "province": "Mont-Liban",
        "population": -1,
        "latitude": 34.055213,
        "longitude": 35.737937
    },
    {
        "name": "Hiyâta",
        "country": "Lebanon",
        "province": "Mont-Liban",
        "population": -1,
        "latitude": 34.024722,
        "longitude": 35.716667
    },
    {
        "name": "Haï ech Châmi",
        "country": "Lebanon",
        "province": "Mont-Liban",
        "population": -1,
        "latitude": 34.118333,
        "longitude": 35.658611
    },
    {
        "name": "Haï el Qiddîssé Hanné",
        "country": "Lebanon",
        "province": "Mont-Liban",
        "population": -1,
        "latitude": 34.0583333,
        "longitude": 35.6486111
    },
    {
        "name": "Haï el Faouqa",
        "country": "Lebanon",
        "province": "Mont-Liban",
        "population": -1,
        "latitude": 34.1008333,
        "longitude": 35.78
    },
    {
        "name": "Haï el Baal",
        "country": "Lebanon",
        "province": "Mont-Liban",
        "population": -1,
        "latitude": 33.9655556,
        "longitude": 35.7708333
    },
    {
        "name": "Haïtoûlé",
        "country": "Lebanon",
        "province": "South Governorate",
        "population": -1,
        "latitude": 33.521944,
        "longitude": 35.474444
    },
    {
        "name": "Haïtla",
        "country": "Lebanon",
        "province": "Aakkâr",
        "population": -1,
        "latitude": 34.603056,
        "longitude": 36.133611
    },
    {
        "name": "Hillêne",
        "country": "Lebanon",
        "province": "Mont-Liban",
        "population": -1,
        "latitude": 34.055,
        "longitude": 35.703056
    },
    {
        "name": "Haouch er Râfqa",
        "country": "Lebanon",
        "province": "Baalbek-Hermel",
        "population": -1,
        "latitude": 33.918611,
        "longitude": 36.041944
    },
    {
        "name": "Haouch el Harîmé",
        "country": "Lebanon",
        "province": "Béqaa",
        "population": -1,
        "latitude": 33.72,
        "longitude": 35.855278
    },
    {
        "name": "Hortaala",
        "country": "Lebanon",
        "province": "Baalbek-Hermel",
        "population": -1,
        "latitude": 33.9180556,
        "longitude": 36.1413889
    },
    {
        "name": "Houra",
        "country": "Lebanon",
        "province": "Nabatîyé",
        "population": -1,
        "latitude": 33.2941667,
        "longitude": 35.5541667
    },
    {
        "name": "Hasroûn ej Jdîdé",
        "country": "Lebanon",
        "province": "Liban-Nord",
        "population": -1,
        "latitude": 34.393219,
        "longitude": 35.873221
    },
    {
        "name": "Hasroûn",
        "country": "Lebanon",
        "province": "Liban-Nord",
        "population": -1,
        "latitude": 34.2413889,
        "longitude": 35.9791667
    },
    {
        "name": "Hâroûf",
        "country": "Lebanon",
        "province": "Nabatîyé",
        "population": -1,
        "latitude": 33.3747222,
        "longitude": 35.4419444
    },
    {
        "name": "Harîssa",
        "country": "Lebanon",
        "province": "Liban-Nord",
        "population": -1,
        "latitude": 34.1997222,
        "longitude": 35.9444444
    },
    {
        "name": "Harîssa",
        "country": "Lebanon",
        "province": "Mont-Liban",
        "population": -1,
        "latitude": 33.9822222,
        "longitude": 35.6591667
    },
    {
        "name": "Hâriîs",
        "country": "Lebanon",
        "province": "Nabatîyé",
        "population": -1,
        "latitude": 33.175556,
        "longitude": 35.376667
    },
    {
        "name": "Hrîq el Kfoûr",
        "country": "Lebanon",
        "province": "Mont-Liban",
        "population": -1,
        "latitude": 34.0336111,
        "longitude": 35.6955556
    },
    {
        "name": "Harf Miziâra",
        "country": "Lebanon",
        "province": "Liban-Nord",
        "population": -1,
        "latitude": 34.335,
        "longitude": 35.942222
    },
    {
        "name": "Harboûna",
        "country": "Lebanon",
        "province": "Liban-Nord",
        "population": -1,
        "latitude": 34.240556,
        "longitude": 35.746111
    },
    {
        "name": "Harbata",
        "country": "Lebanon",
        "province": "Baalbek-Hermel",
        "population": -1,
        "latitude": 34.2083333,
        "longitude": 36.2638889
    },
    {
        "name": "Hâret Jandal",
        "country": "Lebanon",
        "province": "Mont-Liban",
        "population": -1,
        "latitude": 33.6288889,
        "longitude": 35.6061111
    },
    {
        "name": "Hâret Sakhr",
        "country": "Lebanon",
        "province": "Mont-Liban",
        "population": -1,
        "latitude": 33.988333,
        "longitude": 35.643333
    },
    {
        "name": "Hâret el Khassé",
        "country": "Lebanon",
        "province": "Liban-Nord",
        "population": -1,
        "latitude": 34.382747,
        "longitude": 35.836767
    },
    {
        "name": "Hâret ej Jdîdé",
        "country": "Lebanon",
        "province": "Liban-Nord",
        "population": -1,
        "latitude": 34.414167,
        "longitude": 35.878611
    },
    {
        "name": "Hâret el Bayâder",
        "country": "Lebanon",
        "province": "South Governorate",
        "population": -1,
        "latitude": 33.537222,
        "longitude": 35.58
    },
    {
        "name": "Haqlet et Tîné",
        "country": "Lebanon",
        "province": "Mont-Liban",
        "population": -1,
        "latitude": 34.097314,
        "longitude": 35.699611
    },
    {
        "name": "Haql el Aïn",
        "country": "Lebanon",
        "province": "Béqaa",
        "population": -1,
        "latitude": 33.823056,
        "longitude": 35.874722
    },
    {
        "name": "Hanâouây",
        "country": "Lebanon",
        "province": "South Governorate",
        "population": -1,
        "latitude": 33.2211111,
        "longitude": 35.2772222
    },
    {
        "name": "Hanïne",
        "country": "Lebanon",
        "province": "Nabatîyé",
        "population": -1,
        "latitude": 33.109722,
        "longitude": 35.381111
    },
    {
        "name": "Hamoul",
        "country": "Lebanon",
        "province": "South Governorate",
        "population": -1,
        "latitude": 33.126093,
        "longitude": 35.166901
    },
    {
        "name": "Hammâna",
        "country": "Lebanon",
        "province": "Mont-Liban",
        "population": -1,
        "latitude": 33.8258333,
        "longitude": 35.7347222
    },
    {
        "name": "Hâmât",
        "country": "Lebanon",
        "province": "Liban-Nord",
        "population": -1,
        "latitude": 34.2861111,
        "longitude": 35.6913889
    },
    {
        "name": "Halioûnet et Tahta",
        "country": "Lebanon",
        "province": "Mont-Liban",
        "population": -1,
        "latitude": 33.6655556,
        "longitude": 35.4719444
    },
    {
        "name": "Halioûnet el Faouqa",
        "country": "Lebanon",
        "province": "Mont-Liban",
        "population": -1,
        "latitude": 33.666944,
        "longitude": 35.47
    },
    {
        "name": "Hilta el Faouqa",
        "country": "Lebanon",
        "province": "Nabatîyé",
        "population": -1,
        "latitude": 33.308828,
        "longitude": 35.666741
    },
    {
        "name": "Halloûssîyet et Tahta",
        "country": "Lebanon",
        "province": "South Governorate",
        "population": -1,
        "latitude": 33.3080556,
        "longitude": 35.3261111
    },
    {
        "name": "Hâlât",
        "country": "Lebanon",
        "province": "Mont-Liban",
        "population": -1,
        "latitude": 34.082768,
        "longitude": 35.654065
    },
    {
        "name": "Haffet el Hajal",
        "country": "Lebanon",
        "province": "Mont-Liban",
        "population": -1,
        "latitude": 33.615018,
        "longitude": 35.49066
    },
    {
        "name": "Hadchît",
        "country": "Lebanon",
        "province": "Liban-Nord",
        "population": -1,
        "latitude": 34.253384,
        "longitude": 35.985331
    },
    {
        "name": "Habramoûn",
        "country": "Lebanon",
        "province": "Mont-Liban",
        "population": -1,
        "latitude": 33.760278,
        "longitude": 35.645278
    },
    {
        "name": "Hboûb",
        "country": "Lebanon",
        "province": "Mont-Liban",
        "population": -1,
        "latitude": 34.131078,
        "longitude": 35.671874
    },
    {
        "name": "Ghosta",
        "country": "Lebanon",
        "province": "Mont-Liban",
        "population": -1,
        "latitude": 33.9891667,
        "longitude": 35.6727778
    },
    {
        "name": "Ghbâlé",
        "country": "Lebanon",
        "province": "Mont-Liban",
        "population": -1,
        "latitude": 34.053889,
        "longitude": 35.720556
    },
    {
        "name": "Zardeq",
        "country": "Lebanon",
        "province": "Mont-Liban",
        "population": -1,
        "latitude": 34.116,
        "longitude": 35.712473
    },
    {
        "name": "Zoummar",
        "country": "Lebanon",
        "province": "Mont-Liban",
        "population": -1,
        "latitude": 34.122961,
        "longitude": 35.720115
    },
    {
        "name": "Zakroûn",
        "country": "Lebanon",
        "province": "Liban-Nord",
        "population": -1,
        "latitude": 34.3519444,
        "longitude": 35.7547222
    },
    {
        "name": "Zâhrîyé",
        "country": "Lebanon",
        "province": "Mont-Liban",
        "population": -1,
        "latitude": 33.885,
        "longitude": 35.7075
    },
    {
        "name": "Yohmor el Beqâa",
        "country": "Lebanon",
        "province": "Béqaa",
        "population": -1,
        "latitude": 33.4852778,
        "longitude": 35.6688889
    },
    {
        "name": "Yâtar",
        "country": "Lebanon",
        "province": "Nabatîyé",
        "population": -1,
        "latitude": 33.1541667,
        "longitude": 35.3302778
    },
    {
        "name": "Yaroun",
        "country": "Lebanon",
        "province": "Nabatîyé",
        "population": -1,
        "latitude": 33.0802778,
        "longitude": 35.4225
    },
    {
        "name": "Yârîne",
        "country": "Lebanon",
        "province": "South Governorate",
        "population": -1,
        "latitude": 33.1066667,
        "longitude": 35.2330556
    },
    {
        "name": "Yânoûh",
        "country": "Lebanon",
        "province": "Mont-Liban",
        "population": -1,
        "latitude": 34.0972222,
        "longitude": 35.8844444
    },
    {
        "name": "Yanta",
        "country": "Lebanon",
        "province": "Béqaa",
        "population": -1,
        "latitude": 33.6041667,
        "longitude": 35.9447222
    },
    {
        "name": "Yahchoûch",
        "country": "Lebanon",
        "province": "Mont-Liban",
        "population": -1,
        "latitude": 34.06691,
        "longitude": 35.737365
    },
    {
        "name": "Ouata Tabriyé",
        "country": "Lebanon",
        "province": "Mont-Liban",
        "population": -1,
        "latitude": 34.0161111,
        "longitude": 35.7366667
    },
    {
        "name": "Ouata Hoûb",
        "country": "Lebanon",
        "province": "Liban-Nord",
        "population": -1,
        "latitude": 34.1908333,
        "longitude": 35.8972222
    },
    {
        "name": "Ouata el Borj",
        "country": "Lebanon",
        "province": "Mont-Liban",
        "population": -1,
        "latitude": 34.1930556,
        "longitude": 35.6347222
    },
    {
        "name": "Ouadi Chahrour",
        "country": "Lebanon",
        "province": "Mont-Liban",
        "population": -1,
        "latitude": 33.8188889,
        "longitude": 35.56
    },
    {
        "name": "Ouâdi Baanqoûdaïn",
        "country": "Lebanon",
        "province": "South Governorate",
        "population": -1,
        "latitude": 33.5455556,
        "longitude": 35.4402778
    },
    {
        "name": "Aayoun Orghoush",
        "country": "Lebanon",
        "province": "Baalbek-Hermel",
        "population": -1,
        "latitude": 34.261944,
        "longitude": 36.129444
    },
    {
        "name": "Oum et Toût",
        "country": "Lebanon",
        "province": "South Governorate",
        "population": -1,
        "latitude": 33.1127778,
        "longitude": 35.2552778
    },
    {
        "name": "Aadaïssé",
        "country": "Lebanon",
        "province": "Nabatîyé",
        "population": -1,
        "latitude": 33.2541667,
        "longitude": 35.5425
    },
    {
        "name": "Aabeïdat",
        "country": "Lebanon",
        "province": "Mont-Liban",
        "population": -1,
        "latitude": 34.165459,
        "longitude": 35.723854
    },
    {
        "name": "Toûra",
        "country": "Lebanon",
        "province": "South Governorate",
        "population": -1,
        "latitude": 33.2938889,
        "longitude": 35.2977778
    },
    {
        "name": "Toûla",
        "country": "Lebanon",
        "province": "Liban-Nord",
        "population": -1,
        "latitude": 34.3175,
        "longitude": 35.964167
    },
    {
        "name": "Teffâhtâ",
        "country": "Lebanon",
        "province": "South Governorate",
        "population": -1,
        "latitude": 33.4380556,
        "longitude": 35.3711111
    },
    {
        "name": "Temnîne el Faouqa",
        "country": "Lebanon",
        "province": "Baalbek-Hermel",
        "population": -1,
        "latitude": 33.902778,
        "longitude": 35.986111
    },
    {
        "name": "Tfaïl",
        "country": "Lebanon",
        "province": "Baalbek-Hermel",
        "population": -1,
        "latitude": 33.85,
        "longitude": 36.366944
    },
    {
        "name": "Taïr Zebna",
        "country": "Lebanon",
        "province": "South Governorate",
        "population": -1,
        "latitude": 33.243056,
        "longitude": 35.381944
    },
    {
        "name": "Taïr Harfa",
        "country": "Lebanon",
        "province": "South Governorate",
        "population": -1,
        "latitude": 33.126503,
        "longitude": 35.216416
    },
    {
        "name": "Taïr Falsay",
        "country": "Lebanon",
        "province": "South Governorate",
        "population": -1,
        "latitude": 33.3088889,
        "longitude": 35.3486111
    },
    {
        "name": "Taïr Debbé",
        "country": "Lebanon",
        "province": "South Governorate",
        "population": -1,
        "latitude": 33.2744444,
        "longitude": 35.2786111
    },
    {
        "name": "Tarouel",
        "country": "Lebanon",
        "province": "Mont-Liban",
        "population": -1,
        "latitude": 34.1522222,
        "longitude": 35.6313889
    },
    {
        "name": "Tartej",
        "country": "Lebanon",
        "province": "Mont-Liban",
        "population": -1,
        "latitude": 34.1827778,
        "longitude": 35.8238889
    },
    {
        "name": "Târayâ",
        "country": "Lebanon",
        "province": "Baalbek-Hermel",
        "population": -1,
        "latitude": 33.9833333,
        "longitude": 36.0222222
    },
    {
        "name": "Talssâ",
        "country": "Lebanon",
        "province": "South Governorate",
        "population": -1,
        "latitude": 33.483271,
        "longitude": 35.347134
    },
    {
        "name": "Talloûssa",
        "country": "Lebanon",
        "province": "Nabatîyé",
        "population": -1,
        "latitude": 33.234508,
        "longitude": 35.485018
    },
    {
        "name": "Mont Mîchel",
        "country": "Lebanon",
        "province": "Liban-Nord",
        "population": -1,
        "latitude": 34.416111,
        "longitude": 35.83
    },
    {
        "name": "Taht el Qalaa",
        "country": "Lebanon",
        "province": "Mont-Liban",
        "population": -1,
        "latitude": 34.1072222,
        "longitude": 35.8936111
    },
    {
        "name": "Tabarja",
        "country": "Lebanon",
        "province": "Mont-Liban",
        "population": -1,
        "latitude": 34.0302778,
        "longitude": 35.6288889
    },
    {
        "name": "Souq el Gharb",
        "country": "Lebanon",
        "province": "Mont-Liban",
        "population": -1,
        "latitude": 33.7938889,
        "longitude": 35.5655556
    },
    {
        "name": "Sohmor",
        "country": "Lebanon",
        "province": "Béqaa",
        "population": -1,
        "latitude": 33.5186111,
        "longitude": 35.6852778
    },
    {
        "name": "Srobbîne",
        "country": "Lebanon",
        "province": "Nabatîyé",
        "population": -1,
        "latitude": 33.155,
        "longitude": 35.3588889
    },
    {
        "name": "Sanâya",
        "country": "Lebanon",
        "province": "South Governorate",
        "population": -1,
        "latitude": 33.518056,
        "longitude": 35.528611
    },
    {
        "name": "Serjbâl",
        "country": "Lebanon",
        "province": "Mont-Liban",
        "population": -1,
        "latitude": 33.6827778,
        "longitude": 35.5141667
    },
    {
        "name": "Seraaïta",
        "country": "Lebanon",
        "province": "Mont-Liban",
        "population": -1,
        "latitude": 34.0819444,
        "longitude": 35.8605556
    },
    {
        "name": "Serraaïn et Tahta",
        "country": "Lebanon",
        "province": "Baalbek-Hermel",
        "population": -1,
        "latitude": 33.8805556,
        "longitude": 36.0794444
    },
    {
        "name": "Sîr el Gharbiyé",
        "country": "Lebanon",
        "province": "Nabatîyé",
        "population": -1,
        "latitude": 33.320441,
        "longitude": 35.363233
    },
    {
        "name": "Silfâya",
        "country": "Lebanon",
        "province": "Mont-Liban",
        "population": -1,
        "latitude": 33.7380556,
        "longitude": 35.5705556
    },
    {
        "name": "Chouaïya",
        "country": "Lebanon",
        "province": "Nabatîyé",
        "population": -1,
        "latitude": 33.395545,
        "longitude": 35.715788
    },
    {
        "name": "Chouâne",
        "country": "Lebanon",
        "province": "Mont-Liban",
        "population": -1,
        "latitude": 34.078004,
        "longitude": 35.772171
    },
    {
        "name": "Chtaura",
        "country": "Lebanon",
        "province": "Béqaa",
        "population": -1,
        "latitude": 33.8166667,
        "longitude": 35.8513889
    },
    {
        "name": "Cherîne",
        "country": "Lebanon",
        "province": "Mont-Liban",
        "population": -1,
        "latitude": 33.932222,
        "longitude": 35.730833
    },
    {
        "name": "Chenan Aaïr",
        "country": "Lebanon",
        "province": "Mont-Liban",
        "population": -1,
        "latitude": 34.0066667,
        "longitude": 35.6686111
    },
    {
        "name": "Chmistâr",
        "country": "Lebanon",
        "province": "Baalbek-Hermel",
        "population": -1,
        "latitude": 33.964722,
        "longitude": 36.0175
    },
    {
        "name": "Chemhaarîne",
        "country": "Lebanon",
        "province": "Mont-Liban",
        "population": -1,
        "latitude": 33.681111,
        "longitude": 35.505278
    },
    {
        "name": "Shīr Humayrīn",
        "country": "Lebanon",
        "province": "Aakkâr",
        "population": -1,
        "latitude": 34.6191667,
        "longitude": 36.1172222
    },
    {
        "name": "Chnâta",
        "country": "Lebanon",
        "province": "Liban-Nord",
        "population": -1,
        "latitude": 34.258056,
        "longitude": 35.8225
    },
    {
        "name": "Chemlâne",
        "country": "Lebanon",
        "province": "Mont-Liban",
        "population": -1,
        "latitude": 33.7802778,
        "longitude": 35.5455556
    },
    {
        "name": "Chîkhâne",
        "country": "Lebanon",
        "province": "Mont-Liban",
        "population": -1,
        "latitude": 34.174167,
        "longitude": 35.657222
    },
    {
        "name": "Chîhîne",
        "country": "Lebanon",
        "province": "South Governorate",
        "population": -1,
        "latitude": 33.126744,
        "longitude": 35.257284
    },
    {
        "name": "Chehoûr",
        "country": "Lebanon",
        "province": "South Governorate",
        "population": -1,
        "latitude": 33.297305,
        "longitude": 35.374373
    },
    {
        "name": "Chhîm",
        "country": "Lebanon",
        "province": "Mont-Liban",
        "population": -1,
        "latitude": 33.621327,
        "longitude": 35.486975
    },
    {
        "name": "Cheïkhlar",
        "country": "Lebanon",
        "province": "Aakkâr",
        "population": 500,
        "latitude": 34.621111,
        "longitude": 36.273056
    },
    {
        "name": "Chouâlîq",
        "country": "Lebanon",
        "province": "South Governorate",
        "population": -1,
        "latitude": 33.555039,
        "longitude": 35.439333
    },
    {
        "name": "Chaat",
        "country": "Lebanon",
        "province": "Baalbek-Hermel",
        "population": -1,
        "latitude": 34.1422222,
        "longitude": 36.2311111
    },
    {
        "name": "Châroûn",
        "country": "Lebanon",
        "province": "Mont-Liban",
        "population": -1,
        "latitude": 33.7716667,
        "longitude": 35.6863889
    },
    {
        "name": "Charbila",
        "country": "Lebanon",
        "province": "Aakkâr",
        "population": -1,
        "latitude": 34.5822222,
        "longitude": 36.1466667
    },
    {
        "name": "Chânaï",
        "country": "Lebanon",
        "province": "Mont-Liban",
        "population": -1,
        "latitude": 33.7877778,
        "longitude": 35.6636111
    },
    {
        "name": "Chmoût",
        "country": "Lebanon",
        "province": "Mont-Liban",
        "population": -1,
        "latitude": 34.1983333,
        "longitude": 35.6711111
    },
    {
        "name": "Chamaa",
        "country": "Lebanon",
        "province": "South Governorate",
        "population": -1,
        "latitude": 33.1455556,
        "longitude": 35.2086111
    },
    {
        "name": "Chahtoûl",
        "country": "Lebanon",
        "province": "Mont-Liban",
        "population": -1,
        "latitude": 34.034444,
        "longitude": 35.725
    },
    {
        "name": "Chadra",
        "country": "Lebanon",
        "province": "Aakkâr",
        "population": -1,
        "latitude": 34.6197222,
        "longitude": 36.3233333
    },
    {
        "name": "Sfenta",
        "country": "Lebanon",
        "province": "South Governorate",
        "population": -1,
        "latitude": 33.505148,
        "longitude": 35.494423
    },
    {
        "name": "Sfâray",
        "country": "Lebanon",
        "province": "South Governorate",
        "population": -1,
        "latitude": 33.5552778,
        "longitude": 35.4938889
    },
    {
        "name": "Saoufar",
        "country": "Lebanon",
        "province": "Mont-Liban",
        "population": -1,
        "latitude": 33.8022222,
        "longitude": 35.6988889
    },
    {
        "name": "Sāqiyyat al-Misk",
        "country": "Lebanon",
        "province": "Mont-Liban",
        "population": -1,
        "latitude": 33.9183333,
        "longitude": 35.6769444
    },
    {
        "name": "Sannoûr",
        "country": "Lebanon",
        "province": "Mont-Liban",
        "population": -1,
        "latitude": 34.079167,
        "longitude": 35.731389
    },
    {
        "name": "Salîma",
        "country": "Lebanon",
        "province": "Mont-Liban",
        "population": -1,
        "latitude": 33.8730556,
        "longitude": 35.6961111
    },
    {
        "name": "Sakhra",
        "country": "Lebanon",
        "province": "Liban-Nord",
        "population": -1,
        "latitude": 34.360433,
        "longitude": 35.920189
    },
    {
        "name": "Sahêl Aalma",
        "country": "Lebanon",
        "province": "Mont-Liban",
        "population": -1,
        "latitude": 33.993056,
        "longitude": 35.655
    },
    {
        "name": "Safra",
        "country": "Lebanon",
        "province": "Baalbek-Hermel",
        "population": -1,
        "latitude": 34.1483333,
        "longitude": 36.1652778
    },
    {
        "name": "Saadnayel",
        "country": "Lebanon",
        "province": "Béqaa",
        "population": -1,
        "latitude": 33.8202778,
        "longitude": 35.8808333
    },
    {
        "name": "Rmaysh",
        "country": "Lebanon",
        "province": "Nabatîyé",
        "population": -1,
        "latitude": 33.0783333,
        "longitude": 35.3661111
    },
    {
        "name": "Rachâf",
        "country": "Lebanon",
        "province": "Nabatîyé",
        "population": -1,
        "latitude": 33.145259,
        "longitude": 35.36468
    },
    {
        "name": "Rayak",
        "country": "Lebanon",
        "province": "Béqaa",
        "population": -1,
        "latitude": 33.8508333,
        "longitude": 36.0116667
    },
    {
        "name": "Raïte",
        "country": "Lebanon",
        "province": "Béqaa",
        "population": -1,
        "latitude": 33.8297222,
        "longitude": 36.0447222
    },
    {
        "name": "Rechmaîya",
        "country": "Lebanon",
        "province": "Mont-Liban",
        "population": -1,
        "latitude": 33.7361111,
        "longitude": 35.5980556
    },
    {
        "name": "Rachaaïne",
        "country": "Lebanon",
        "province": "Liban-Nord",
        "population": -1,
        "latitude": 34.3991667,
        "longitude": 35.9191667
    },