[
    {
        "name": "Rabat",
        "country": "Morocco",
        "province": "Rabat-Salé-Kénitra",
        "population": 1655753,
        "latitude": 34.0132538202818,
        "longitude": -6.83255195617676
    },
    {
        "name": "Casablanca",
        "country": "Morocco",
        "province": "Casablanca-Settat",
        "population": 3144909,
        "latitude": 33.58831134490155,
        "longitude": -7.611379623413086
    },
    {
        "name": "Fes",
        "country": "Morocco",
        "province": "Fès-Meknès",
        "population": 964891,
        "latitude": 34.033126,
        "longitude": -5.000279
    },
    {
        "name": "Agadir",
        "country": "Morocco",
        "province": "Souss-Massa",
        "population": 698310,
        "latitude": 30.4201821280349,
        "longitude": -9.59814548492432
    },
    {
        "name": "Marrakesh",
        "country": "Morocco",
        "province": "Marrakesh-Safi",
        "population": 839296,
        "latitude": 31.63416400859319,
        "longitude": -7.999935150146484
    },
    {
        "name": "Salé",
        "country": "Morocco",
        "province": "Rabat-Salé-Kénitra",
        "population": 903485,
        "latitude": 34.0531,
        "longitude": -6.79846
    },
    {
        "name": "Oujda",
        "country": "Morocco",
        "province": "Oriental",
        "population": 405253,
        "latitude": 34.681391,
        "longitude": -1.908583
    },
    {
        "name": "Tangier",
        "country": "Morocco",
        "province": "Tanger-Tetouan-Al Hoceima",
        "population": 688356,
        "latitude": 35.76726853258894,
        "longitude": -5.799751281738281
    },
    {
        "name": "Meknes",
        "country": "Morocco",
        "province": "Fès-Meknès",
        "population": 545705,
        "latitude": 33.893517,
        "longitude": -5.54727
    },
    {
        "name": "Guelmim",
        "country": "Morocco",
        "province": "Guelmim-Oued Noun",
        "population": 98229,
        "latitude": 28.986959,
        "longitude": -10.057376
    },
    {
        "name": "El Jadida",
        "country": "Morocco",
        "province": "Casablanca-Settat",
        "population": 147549,
        "latitude": 33.256821,
        "longitude": -8.508816
    },
    {
        "name": "Beni Mellal",
        "country": "Morocco",
        "province": "Béni Mellal-Khénifra",
        "population": 166399,
        "latitude": 32.337251,
        "longitude": -6.349835
    },
    {
        "name": "Al Hoceima",
        "country": "Morocco",
        "province": "Tanger-Tetouan-Al Hoceima",
        "population": 395644,
        "latitude": 35.25164718582581,
        "longitude": -3.937225341796875
    },
    {
        "name": "Kenitra",
        "country": "Morocco",
        "province": "Rabat-Salé-Kénitra",
        "population": 366570,
        "latitude": 34.261008,
        "longitude": -6.580203
    },
    {
        "name": "Safi",
        "country": "Morocco",
        "province": "Marrakesh-Safi",
        "population": 288163,
        "latitude": 32.299392,
        "longitude": -9.237181
    },
    {
        "name": "Nador",
        "country": "Morocco",
        "province": "Oriental",
        "population": 129260,
        "latitude": 35.16812526317565,
        "longitude": -2.933521270751953
    },
    {
        "name": "Tétouan",
        "country": "Morocco",
        "province": "Tanger-Tetouan-Al Hoceima",
        "population": 326261,
        "latitude": 35.57845231000084,
        "longitude": -5.368366241455078
    },
    {
        "name": "Mohammedia",
        "country": "Morocco",
        "province": "Casablanca-Settat",
        "population": 187708,
        "latitude": 33.68606772497501,
        "longitude": -7.382984161376953
    },
    {
        "name": "Larache",
        "country": "Morocco",
        "province": "Tanger-Tetouan-Al Hoceima",
        "population": 109294,
        "latitude": 35.193211,
        "longitude": -6.15572
    },
    {
        "name": "Settat",
        "country": "Morocco",
        "province": "Casablanca-Settat",
        "population": 119082,
        "latitude": 33.00103364467716,
        "longitude": -7.616615295410156
    },
    {
        "name": "Taza",
        "country": "Morocco",
        "province": "Fès-Meknès",
        "population": 141890,
        "latitude": 34.21,
        "longitude": -4.01
    },
    {
        "name": "Essaouira",
        "country": "Morocco",
        "province": "Marrakesh-Safi",
        "population": 70634,
        "latitude": 31.512501,
        "longitude": -9.770005
    },
    {
        "name": "Asilah",
        "country": "Morocco",
        "province": "Tanger-Tetouan-Al Hoceima",
        "population": 28861,
        "latitude": 35.465219,
        "longitude": -6.034153
    },
    {
        "name": "Berkane",
        "country": "Morocco",
        "province": "Oriental",
        "population": 80721,
        "latitude": 34.92,
        "longitude": -2.32
    },
    {
        "name": "Ksar El Kebir",
        "country": "Morocco",
        "province": "Tanger-Tetouan-Al Hoceima",
        "population": 108753,
        "latitude": 35.000439,
        "longitude": -5.903784
    },
    {
        "name": "Khouribga",
        "country": "Morocco",
        "province": "Béni Mellal-Khénifra",
        "population": 167673,
        "latitude": 32.881083,
        "longitude": -6.906303
    },
    {
        "name": "Errachidia",
        "country": "Morocco",
        "province": "Drâa-Tafilalet",
        "population": 92374,
        "latitude": 31.9314,
        "longitude": -4.42663
    },
    {
        "name": "Sidi Slimane",
        "country": "Morocco",
        "province": "Rabat-Salé-Kénitra",
        "population": 79437,
        "latitude": 34.264785,
        "longitude": -5.925978
    },
    {
        "name": "Sidi Kacem",
        "country": "Morocco",
        "province": "Rabat-Salé-Kénitra",
        "population": 74755,
        "latitude": 34.221493,
        "longitude": -5.707749
    },
    {
        "name": "Oulad Teïma",
        "country": "Morocco",
        "province": "Souss-Massa",
        "population": 66832,
        "latitude": 30.39467,
        "longitude": -9.208968
    },
    {
        "name": "Oued Zem",
        "country": "Morocco",
        "province": "Béni Mellal-Khénifra",
        "population": 84910,
        "latitude": 32.8627,
        "longitude": -6.57359
    },
    {
        "name": "Ouarzazate",
        "country": "Morocco",
        "province": "Drâa-Tafilalet",
        "population": 57245,
        "latitude": 30.9189410211561,
        "longitude": -6.89340591430664
    },
    {
        "name": "Tiznit",
        "country": "Morocco",
        "province": "Souss-Massa",
        "population": 55092,
        "latitude": 29.697425,
        "longitude": -9.731618
    },
    {
        "name": "Temara",
        "country": "Morocco",
        "province": "Rabat-Salé-Kénitra",
        "population": 313510,
        "latitude": 33.928664,
        "longitude": -6.906563
    },
    {
        "name": "Taroudant",
        "country": "Morocco",
        "province": "Souss-Massa",
        "population": 71133,
        "latitude": 30.4702773039207,
        "longitude": -8.876953125
    },
    {
        "name": "Taourirt",
        "country": "Morocco",
        "province": "Oriental",
        "population": 82518,
        "latitude": 34.407305,
        "longitude": -2.89732
    },
    {
        "name": "Tan-Tan",
        "country": "Morocco",
        "province": "Guelmim-Oued Noun",
        "population": 61924,
        "latitude": 28.437987,
        "longitude": -11.103212
    },
    {
        "name": "Ifrane",
        "country": "Morocco",
        "province": "Fès-Meknès",
        "population": 73782,
        "latitude": 33.5266564302283,
        "longitude": -5.11018753051758
    },
    {
        "name": "Fnidek",
        "country": "Morocco",
        "province": "Tanger-Tetouan-Al Hoceima",
        "population": 53559,
        "latitude": 35.84905675809,
        "longitude": -5.35746574401855
    },
    {
        "name": "Al Fqih Ben Çalah",
        "country": "Morocco",
        "province": "Béni Mellal-Khénifra",
        "population": 84072,
        "latitude": 32.502128,
        "longitude": -6.687708
    },
    {
        "name": "Fès al Bali",
        "country": "Morocco",
        "province": "Fès-Meknès",
        "population": 156000,
        "latitude": 34.070095,
        "longitude": -4.954726
    },
    {
        "name": "Berrechid",
        "country": "Morocco",
        "province": "Casablanca-Settat",
        "population": 93954,
        "latitude": 33.265527,
        "longitude": -7.587537
    },
    {
        "name": "Khemisset",
        "country": "Morocco",
        "province": "Rabat-Salé-Kénitra",
        "population": 106991,
        "latitude": 33.824035,
        "longitude": -6.066268
    },
    {
        "name": "Chefchaouen",
        "country": "Morocco",
        "province": "Tanger-Tetouan-Al Hoceima",
        "population": 36280,
        "latitude": 35.168777,
        "longitude": -5.263596
    },
    {
        "name": "Khenifra",
        "country": "Morocco",
        "province": "Béni Mellal-Khénifra",
        "population": 73906,
        "latitude": 32.93492,
        "longitude": -5.66167
    },
    {
        "name": "Smara",
        "country": "Morocco",
        "province": "MA,EH",
        "population": 42056,
        "latitude": 26.73840524596216,
        "longitude": -11.671943664550781
    },
    {
        "name": "Boujniba",
        "country": "Morocco",
        "province": "Béni Mellal-Khénifra",
        "population": 15041,
        "latitude": 32.9004632998915,
        "longitude": -6.77463536677541
    },
    {
        "name": "Souq Larb’a al Gharb",
        "country": "Morocco",
        "province": "Rabat-Salé-Kénitra",
        "population": 44059,
        "latitude": 34.686636,
        "longitude": -6.002725
    },
    {
        "name": "Sidi Yahia El Gharb",
        "country": "Morocco",
        "province": "Rabat-Salé-Kénitra",
        "population": 32202,
        "latitude": 34.304943,
        "longitude": -6.304044
    },
    {
        "name": "Sidi Ifni",
        "country": "Morocco",
        "province": "Souss-Massa",
        "population": 20000,
        "latitude": 29.379748,
        "longitude": -10.172994
    },
    {
        "name": "Sidi Bennour",
        "country": "Morocco",
        "province": "Casablanca-Settat",
        "population": 40044,
        "latitude": 32.652357,
        "longitude": -8.427692
    },
    {
        "name": "Sefrou",
        "country": "Morocco",
        "province": "Fès-Meknès",
        "population": 65150,
        "latitude": 33.831861,
        "longitude": -4.827996
    },
    {
        "name": "Reçani",
        "country": "Morocco",
        "province": "Drâa-Tafilalet",
        "population": 20469,
        "latitude": 31.283184,
        "longitude": -4.26565
    },
    {
        "name": "Ouezzane",
        "country": "Morocco",
        "province": "Tanger-Tetouan-Al Hoceima",
        "population": 58684,
        "latitude": 34.795839,
        "longitude": -5.578487
    },
    {
        "name": "Oualidia",
        "country": "Morocco",
        "province": "Casablanca-Settat",
        "population": 5826,
        "latitude": 32.73371812051663,
        "longitude": -9.030590057373047
    },
    {
        "name": "Tleta Taghramt",
        "country": "Morocco",
        "province": "Tanger-Tetouan-Al Hoceima",
        "population": -1,
        "latitude": 35.787688,
        "longitude": -5.470904
    },
    {
        "name": "Tinghir",
        "country": "Morocco",
        "province": "Drâa-Tafilalet",
        "population": 36795,
        "latitude": 31.514722,
        "longitude": -5.532778
    },
    {
        "name": "Tiflet",
        "country": "Morocco",
        "province": "Rabat-Salé-Kénitra",
        "population": 70010,
        "latitude": 33.894686,
        "longitude": -6.306495
    },
    {
        "name": "Tarfaya",
        "country": "Morocco",
        "province": "Laâyoune-Sakia El Hamra",
        "population": 5615,
        "latitude": 27.9392,
        "longitude": -12.92604
    },
    {
        "name": "Taounate",
        "country": "Morocco",
        "province": "Fès-Meknès",
        "population": 32802,
        "latitude": 34.536611345675276,
        "longitude": -4.640092849731445
    },
    {
        "name": "Guercif",
        "country": "Morocco",
        "province": "Fès-Meknès",
        "population": 57544,
        "latitude": 34.225676,
        "longitude": -3.353608
    },
    {
        "name": "Et Tlêta Sboûya",
        "country": "Morocco",
        "province": "Guelmim-Oued Noun",
        "population": -1,
        "latitude": 29.151764,
        "longitude": -10.202385
    },
    {
        "name": "Arfoud",
        "country": "Morocco",
        "province": "Drâa-Tafilalet",
        "population": 23637,
        "latitude": 31.435303,
        "longitude": -4.232576
    },
    {
        "name": "Kelaat Mgouna",
        "country": "Morocco",
        "province": "Drâa-Tafilalet",
        "population": 14190,
        "latitude": 31.24573080064304,
        "longitude": -6.132602691650391
    },
    {
        "name": "El Hajeb",
        "country": "Morocco",
        "province": "Fès-Meknès",
        "population": 28126,
        "latitude": 33.68786,
        "longitude": -5.370996
    },
    {
        "name": "Aousserd",
        "country": "Morocco",
        "province": "Dakhla-Oued Ed-Dahab",
        "population": 5832,
        "latitude": 22.554,
        "longitude": -14.33
    },
    {
        "name": "Aïn Beni Mathar",
        "country": "Morocco",
        "province": "Oriental",
        "population": 16289,
        "latitude": 34.00969645770158,
        "longitude": -2.0323848724365234
    },
    {
        "name": "Skhirate",
        "country": "Morocco",
        "province": "Rabat-Salé-Kénitra",
        "population": 44850,
        "latitude": 33.852698,
        "longitude": -7.031709
    },
    {
        "name": "Azrou",
        "country": "Morocco",
        "province": "Fès-Meknès",
        "population": 48249,
        "latitude": 33.434428,
        "longitude": -5.221259
    },
    {
        "name": "Azemmour",
        "country": "Morocco",
        "province": "Casablanca-Settat",
        "population": 37140,
        "latitude": 33.289518,
        "longitude": -8.342498
    },
    {
        "name": "El Aïoun",
        "country": "Morocco",
        "province": "Oriental",
        "population": 35196,
        "latitude": 34.58319,
        "longitude": -2.506125
    },
    {
        "name": "Imzouren",
        "country": "Morocco",
        "province": "Tanger-Tetouan-Al Hoceima",
        "population": 40000,
        "latitude": 35.146365,
        "longitude": -3.85063
    },
    {
        "name": "Bouznika",
        "country": "Morocco",
        "province": "Casablanca-Settat",
        "population": 27283,
        "latitude": 33.789417,
        "longitude": -7.159676
    },
    {
        "name": "Bouarfa",
        "country": "Morocco",
        "province": "Oriental",
        "population": 28846,
        "latitude": 32.53379,
        "longitude": -1.96209
    },
    {
        "name": "Al Aaroui",
        "country": "Morocco",
        "province": "Oriental",
        "population": 36021,
        "latitude": 35.010896,
        "longitude": -3.009382
    },
    {
        "name": "Midelt",
        "country": "Morocco",
        "province": "Béni Mellal-Khénifra",
        "population": 45159,
        "latitude": 32.685195,
        "longitude": -4.74512
    },
    {
        "name": "Mehdya",
        "country": "Morocco",
        "province": "Rabat-Salé-Kénitra",
        "population": -1,
        "latitude": 34.255955,
        "longitude": -6.673449
    },
    {
        "name": "Mechraa Bel Ksiri",
        "country": "Morocco",
        "province": "Rabat-Salé-Kénitra",
        "population": 27802,
        "latitude": 34.573728,
        "longitude": -5.955846
    },
    {
        "name": "Martil",
        "country": "Morocco",
        "province": "Tanger-Tetouan-Al Hoceima",
        "population": 39738,
        "latitude": 35.616617,
        "longitude": -5.275219
    },
    {
        "name": "Kasba Tadla",
        "country": "Morocco",
        "province": "Béni Mellal-Khénifra",
        "population": 41199,
        "latitude": 32.5977,
        "longitude": -6.268435
    },
    {
        "name": "Jerada",
        "country": "Morocco",
        "province": "Oriental",
        "population": 43696,
        "latitude": 34.31,
        "longitude": -2.16
    },
    {
        "name": "Setti Fatma",
        "country": "Morocco",
        "province": "Marrakesh-Safi",
        "population": 22283,
        "latitude": 31.22508,
        "longitude": -7.677514
    },
    {
        "name": "Zaïo",
        "country": "Morocco",
        "province": "Oriental",
        "population": 30008,
        "latitude": 34.942823,
        "longitude": -2.732897
    },
    {
        "name": "Zagora",
        "country": "Morocco",
        "province": "Drâa-Tafilalet",
        "population": 35154,
        "latitude": 30.332407,
        "longitude": -5.838403
    },
    {
        "name": "Youssoufia",
        "country": "Morocco",
        "province": "Marrakesh-Safi",
        "population": 64910,
        "latitude": 32.246342,
        "longitude": -8.529407
    },
    {
        "name": "Dakhla",
        "country": "Morocco",
        "province": "Souss-Massa",
        "population": 55618,
        "latitude": 30.411445,
        "longitude": -9.553444
    },
    {
        "name": "Salé Al Jadida",
        "country": "Morocco",
        "province": "Rabat-Salé-Kénitra",
        "population": 200000,
        "latitude": 33.997223,
        "longitude": -6.740473
    },
    {
        "name": "Talat-n-Ya’qoub",
        "country": "Morocco",
        "province": "Marrakesh-Safi",
        "population": -1,
        "latitude": 30.988929,
        "longitude": -8.189273
    },
    {
        "name": "Tahannout",
        "country": "Morocco",
        "province": "Marrakesh-Safi",
        "population": -1,
        "latitude": 31.35236,
        "longitude": -7.950121
    },
    {
        "name": "Tahla",
        "country": "Morocco",
        "province": "Fès-Meknès",
        "population": 25761,
        "latitude": 34.04965,
        "longitude": -4.421615
    },
    {
        "name": "Sidi Amer El Hadi",
        "country": "Morocco",
        "province": "Rabat-Salé-Kénitra",
        "population": -1,
        "latitude": 34.794339,
        "longitude": -5.886726
    },
    {
        "name": "Souk Khmis Bni Arouss",
        "country": "Morocco",
        "province": "Tanger-Tetouan-Al Hoceima",
        "population": -1,
        "latitude": 35.307068,
        "longitude": -5.629387
    },
    {
        "name": "Jem’at Oulad ’Abbou",
        "country": "Morocco",
        "province": "Casablanca-Settat",
        "population": -1,
        "latitude": 33.114799,
        "longitude": -7.933597
    },
    {
        "name": "Sidi Yahya Zaer",
        "country": "Morocco",
        "province": "Rabat-Salé-Kénitra",
        "population": -1,
        "latitude": 33.829765,
        "longitude": -6.912617
    },
    {
        "name": "Sidi Smai’il",
        "country": "Morocco",
        "province": "Casablanca-Settat",
        "population": 4279,
        "latitude": 32.824611,
        "longitude": -8.511216
    },
    {
        "name": "Sebt Bni Garfett",
        "country": "Morocco",
        "province": "Tanger-Tetouan-Al Hoceima",
        "population": -1,
        "latitude": 35.257958,
        "longitude": -5.833339
    },
    {
        "name": "Sebt des Beni Hellal",
        "country": "Morocco",
        "province": "Casablanca-Settat",
        "population": -1,
        "latitude": 32.797905,
        "longitude": -8.401722
    },
    {
        "name": "Saidia",
        "country": "Morocco",
        "province": "Oriental",
        "population": 3871,
        "latitude": 35.081949,
        "longitude": -2.228972
    },
    {
        "name": "Oulmes",
        "country": "Morocco",
        "province": "Rabat-Salé-Kénitra",
        "population": 19014,
        "latitude": 33.4258540447262,
        "longitude": -6.00136756896973
    },
    {
        "name": "Douar Lamrabih",
        "country": "Morocco",
        "province": "Rabat-Salé-Kénitra",
        "population": -1,
        "latitude": 34.809865,
        "longitude": -5.8165
    },
    {
        "name": "Oulad El Ghoumari",
        "country": "Morocco",
        "province": "Tanger-Tetouan-Al Hoceima",
        "population": -1,
        "latitude": 35.041236,
        "longitude": -6.170552
    },
    {
        "name": "Oukaïmedene",
        "country": "Morocco",
        "province": "Marrakesh-Safi",
        "population": 4440,
        "latitude": 31.206034,
        "longitude": -7.860888
    },
    {
        "name": "Zawyat an Nwaçer",
        "country": "Morocco",
        "province": "Casablanca-Settat",
        "population": 12696,
        "latitude": 33.379807,
        "longitude": -7.619316
    },
    {
        "name": "Tmourghout",
        "country": "Morocco",
        "province": "Fès-Meknès",
        "population": 1250,
        "latitude": 33.9065,
        "longitude": -4.02696
    },
    {
        "name": "Tlet Sidi Bouguedra",
        "country": "Morocco",
        "province": "Marrakesh-Safi",
        "population": -1,
        "latitude": 32.255073,
        "longitude": -8.980665
    },
    {
        "name": "Tizgui Remz",
        "country": "Morocco",
        "province": "Guelmim-Oued Noun",
        "population": -1,
        "latitude": 28.411231,
        "longitude": -9.21025
    },
    {
        "name": "Tighramt-n-Igrane",
        "country": "Morocco",
        "province": "Drâa-Tafilalet",
        "population": -1,
        "latitude": 31.898427,
        "longitude": -4.95232
    },
    {
        "name": "Tirhanimîne",
        "country": "Morocco",
        "province": "Tanger-Tetouan-Al Hoceima",
        "population": 55827,
        "latitude": 35.236187,
        "longitude": -3.954527
    },
    {
        "name": "Tilemsoun",
        "country": "Morocco",
        "province": "Guelmim-Oued Noun",
        "population": -1,
        "latitude": 28.275283,
        "longitude": -10.899832
    },
    {
        "name": "Targuist",
        "country": "Morocco",
        "province": "Tanger-Tetouan-Al Hoceima",
        "population": 11560,
        "latitude": 34.937686,
        "longitude": -4.31856
    },
    {
        "name": "Tamallalt",
        "country": "Morocco",
        "province": "Marrakesh-Safi",
        "population": -1,
        "latitude": 31.818968,
        "longitude": -7.51446
    },
    {
        "name": "Figuig (Centre)",
        "country": "Morocco",
        "province": "Oriental",
        "population": 12516,
        "latitude": 32.1089146423493,
        "longitude": -1.22854828834534
    },
    {
        "name": "Douar Fandeq El Ain Jdida",
        "country": "Morocco",
        "province": "Tanger-Tetouan-Al Hoceima",
        "population": -1,
        "latitude": 35.56661,
        "longitude": -5.585432
    },
    {
        "name": "Bni Hadifa",
        "country": "Morocco",
        "province": "Tanger-Tetouan-Al Hoceima",
        "population": -1,
        "latitude": 35.02251,
        "longitude": -4.140087
    },
    {
        "name": "Ej Jem’a Ghemat",
        "country": "Morocco",
        "province": "Marrakesh-Safi",
        "population": -1,
        "latitude": 31.420943,
        "longitude": -7.802831
    },
    {
        "name": "Jebha",
        "country": "Morocco",
        "province": "Tanger-Tetouan-Al Hoceima",
        "population": -1,
        "latitude": 35.205487,
        "longitude": -4.665242
    },
    {
        "name": "Lafrayta",
        "country": "Morocco",
        "province": "Marrakesh-Safi",
        "population": -1,
        "latitude": 31.932591,
        "longitude": -7.259299
    },
    {
        "name": "Douar Trougout",
        "country": "Morocco",
        "province": "Oriental",
        "population": -1,
        "latitude": 35.180605,
        "longitude": -3.772532
    },
    {
        "name": "Arbaa Laaounate",
        "country": "Morocco",
        "province": "Casablanca-Settat",
        "population": -1,
        "latitude": 32.743396,
        "longitude": -8.195009
    },
    {
        "name": "Ait Benhaddou",
        "country": "Morocco",
        "province": "Drâa-Tafilalet",
        "population": 50,
        "latitude": 31.046926,
        "longitude": -7.129128
    },
    {
        "name": "Aïn Leuh",
        "country": "Morocco",
        "province": "Fès-Meknès",
        "population": 5278,
        "latitude": 33.289838,
        "longitude": -5.338625
    },
    {
        "name": "Ahfir",
        "country": "Morocco",
        "province": "Oriental",
        "population": 19611,
        "latitude": 34.953678,
        "longitude": -2.100269
    },
    {
        "name": "Mhamid",
        "country": "Morocco",
        "province": "Drâa-Tafilalet",
        "population": 10000,
        "latitude": 29.82,
        "longitude": -5.72
    },
    {
        "name": "Benslimane",
        "country": "Morocco",
        "province": "Casablanca-Settat",
        "population": -1,
        "latitude": 33.616007,
        "longitude": -7.121526
    },
    {
        "name": "Arbaa Ayacha",
        "country": "Morocco",
        "province": "Tanger-Tetouan-Al Hoceima",
        "population": -1,
        "latitude": 35.386801,
        "longitude": -5.888324
    },
    {
        "name": "El Mansouria",
        "country": "Morocco",
        "province": "Casablanca-Settat",
        "population": -1,
        "latitude": 33.746428,
        "longitude": -7.301945
    },
    {
        "name": "Douar el Caïd el Gueddari",
        "country": "Morocco",
        "province": "Rabat-Salé-Kénitra",
        "population": -1,
        "latitude": 34.421212,
        "longitude": -6.090993
    },
    {
        "name": "Douar Lghaba",
        "country": "Morocco",
        "province": "Marrakesh-Safi",
        "population": -1,
        "latitude": 32.467553,
        "longitude": -8.150887
    },
    {
        "name": "Dar al Haj Ben Bou’azza",
        "country": "Morocco",
        "province": "Casablanca-Settat",
        "population": -1,
        "latitude": 33.326878,
        "longitude": -7.57896
    },
    {
        "name": "Bir Jdid",
        "country": "Morocco",
        "province": "Casablanca-Settat",
        "population": -1,
        "latitude": 33.373618,
        "longitude": -7.994623
    },
    {
        "name": "Midar",
        "country": "Morocco",
        "province": "Oriental",
        "population": 10229,
        "latitude": 34.940246,
        "longitude": -3.533113
    },
    {
        "name": "Messeïed",
        "country": "Morocco",
        "province": "Guelmim-Oued Noun",
        "population": -1,
        "latitude": 28.015061,
        "longitude": -10.81399
    },
    {
        "name": "Melqa el Ouidane",
        "country": "Morocco",
        "province": "Oriental",
        "population": -1,
        "latitude": 34.559643,
        "longitude": -3.023206
    },
    {
        "name": "Mdiq",
        "country": "Morocco",
        "province": "Tanger-Tetouan-Al Hoceima",
        "population": -1,
        "latitude": 35.683126,
        "longitude": -5.328705
    },
    {
        "name": "Ifrane",
        "country": "Morocco",
        "province": "Béni Mellal-Khénifra",
        "population": 13000,
        "latitude": 31.702172,
        "longitude": -6.349401
    },
    {
        "name": "Ksar Sghir",
        "country": "Morocco",
        "province": "Tanger-Tetouan-Al Hoceima",
        "population": -1,
        "latitude": 35.842144,
        "longitude": -5.554269
    },
    {
        "name": "Khemis Sahel",
        "country": "Morocco",
        "province": "Tanger-Tetouan-Al Hoceima",
        "population": -1,
        "latitude": 35.253443,
        "longitude": -6.079596
    },
    {
        "name": "Kariat Arkmane",
        "country": "Morocco",
        "province": "Oriental",
        "population": -1,
        "latitude": 35.107098,
        "longitude": -2.746927
    },
    {
        "name": "Jamaat Shaim",
        "country": "Morocco",
        "province": "Marrakesh-Safi",
        "population": -1,
        "latitude": 32.346943,
        "longitude": -8.842492
    },
    {
        "name": "Mrirt",
        "country": "Morocco",
        "province": "Béni Mellal-Khénifra",
        "population": -1,
        "latitude": 33.164267,
        "longitude": -5.567224
    },
    {
        "name": "Zaouïa Aït Ishak",
        "country": "Morocco",
        "province": "Béni Mellal-Khénifra",
        "population": -1,
        "latitude": 32.761807,
        "longitude": -5.725349
    },
    {
        "name": "Zag",
        "country": "Morocco",
        "province": "Guelmim-Oued Noun",
        "population": 7751,
        "latitude": 28.022103,
        "longitude": -9.29397
    },
    {
        "name": "Gueltat Zemmour",
        "country": "Morocco",
        "province": "Laâyoune-Sakia El Hamra",
        "population": 6740,
        "latitude": 25.14276,
        "longitude": -12.37168
    },
    {
        "name": "Talat Wamane",
        "country": "Morocco",
        "province": "Souss-Massa",
        "population": -1,
        "latitude": 30.115634,
        "longitude": -8.370253
    },
    {
        "name": "Takad Sahel",
        "country": "Morocco",
        "province": "Souss-Massa",
        "population": -1,
        "latitude": 30.259245,
        "longitude": -9.556916
    },
    {
        "name": "Tachgagalt",
        "country": "Morocco",
        "province": "Béni Mellal-Khénifra",
        "population": -1,
        "latitude": 31.949612,
        "longitude": -7.016268
    },
    {
        "name": "Douar Tahayyant",
        "country": "Morocco",
        "province": "Fès-Meknès",
        "population": -1,
        "latitude": 33.847483,
        "longitude": -4.390179
    },
    {
        "name": "Tabelkoukt",
        "country": "Morocco",
        "province": "Guelmim-Oued Noun",
        "population": -1,
        "latitude": 29.556234,
        "longitude": -10.041642
    },
    {
        "name": "Tagangout",
        "country": "Morocco",
        "province": "Drâa-Tafilalet",
        "population": -1,
        "latitude": 30.67185,
        "longitude": -7.069289
    },
    {
        "name": "Touguenfel",
        "country": "Morocco",
        "province": "Guelmim-Oued Noun",
        "population": -1,
        "latitude": 29.150268,
        "longitude": -10.009111
    },
    {
        "name": "Houmat Oulad Taghzout",
        "country": "Morocco",
        "province": "Tanger-Tetouan-Al Hoceima",
        "population": -1,
        "latitude": 35.061909,
        "longitude": -4.811934
    },
    {
        "name": "Taghzout",
        "country": "Morocco",
        "province": "Tanger-Tetouan-Al Hoceima",
        "population": -1,
        "latitude": 35.151711,
        "longitude": -4.42768
    },
    {
        "name": "Tagadirt n’Bour",
        "country": "Morocco",
        "province": "Marrakesh-Safi",
        "population": -1,
        "latitude": 31.155869,
        "longitude": -8.100506
    },
    {
        "name": "Tafrawt Imgrad",
        "country": "Morocco",
        "province": "Souss-Massa",
        "population": -1,
        "latitude": 29.493415,
        "longitude": -9.893403
    },
    {
        "name": "Tafraint",
        "country": "Morocco",
        "province": "Béni Mellal-Khénifra",
        "population": -1,
        "latitude": 31.60572,
        "longitude": -7.18755
    },
    {
        "name": "Douar Tafraout",
        "country": "Morocco",
        "province": "Fès-Meknès",
        "population": -1,
        "latitude": 33.524657,
        "longitude": -4.67923
    },
    {
        "name": "Tafraout",
        "country": "Morocco",
        "province": "Souss-Massa",
        "population": 4924,
        "latitude": 29.724489,
        "longitude": -8.974703
    },
    {
        "name": "Tafrant",
        "country": "Morocco",
        "province": "Fès-Meknès",
        "population": -1,
        "latitude": 34.624871,
        "longitude": -5.124849
    },
    {
        "name": "Tafoughalt",
        "country": "Morocco",
        "province": "Oriental",
        "population": -1,
        "latitude": 34.807812,
        "longitude": -2.410889
    },
    {
        "name": "Tafersit",
        "country": "Morocco",
        "province": "Oriental",
        "population": -1,
        "latitude": 35.008572,
        "longitude": -3.540876
    },
    {
        "name": "Tadiaght",
        "country": "Morocco",
        "province": "Drâa-Tafilalet",
        "population": -1,
        "latitude": 31.160833,
        "longitude": -7.514045
    },
    {
        "name": "Taddart N-Oumira",
        "country": "Morocco",
        "province": "Drâa-Tafilalet",
        "population": -1,
        "latitude": 31.592471,
        "longitude": -5.061136
    },
    {
        "name": "Tacheddirt",
        "country": "Morocco",
        "province": "Marrakesh-Safi",
        "population": -1,
        "latitude": 31.15608,
        "longitude": -7.844686
    },
    {
        "name": "Tachoukacht",
        "country": "Morocco",
        "province": "Drâa-Tafilalet",
        "population": -1,
        "latitude": 30.802588,
        "longitude": -7.52633
    },
    {
        "name": "Tabou’abdellit",
        "country": "Morocco",
        "province": "Marrakesh-Safi",
        "population": -1,
        "latitude": 31.255767,
        "longitude": -8.325138
    },
    {
        "name": "Taberrant",
        "country": "Morocco",
        "province": "Tanger-Tetouan-Al Hoceima",
        "population": -1,
        "latitude": 34.71348,
        "longitude": -4.518655
    },
    {
        "name": "Douar Tabaayat",
        "country": "Morocco",
        "province": "Marrakesh-Safi",
        "population": -1,
        "latitude": 30.995447,
        "longitude": -9.799105
    },
    {
        "name": "Çroub",
        "country": "Morocco",
        "province": "Drâa-Tafilalet",
        "population": -1,
        "latitude": 30.925508,
        "longitude": -7.262754
    },
    {
        "name": "Douar Esseraghna",
        "country": "Morocco",
        "province": "Fès-Meknès",
        "population": -1,
        "latitude": 33.853177,
        "longitude": -4.585373
    },
    {
        "name": "Souq at Tlata des Loulad",
        "country": "Morocco",
        "province": "Casablanca-Settat",
        "population": -1,
        "latitude": 32.994711,
        "longitude": -7.119817
    },
    {
        "name": "Et Tleta Des Beni Zranntel",
        "country": "Morocco",
        "province": "Béni Mellal-Khénifra",
        "population": -1,
        "latitude": 32.739487,
        "longitude": -6.241896
    },
    {
        "name": "Tafetachte",
        "country": "Morocco",
        "province": "Marrakesh-Safi",
        "population": -1,
        "latitude": 31.583409,
        "longitude": -9.256105
    },
    {
        "name": "Souk Jema el Haouafa",
        "country": "Morocco",
        "province": "Rabat-Salé-Kénitra",
        "population": -1,
        "latitude": 34.470038,
        "longitude": -5.920932
    },
    {
        "name": "Souk et Tnine Jorf el Mellah",
        "country": "Morocco",
        "province": "Rabat-Salé-Kénitra",
        "population": -1,
        "latitude": 34.491624,
        "longitude": -5.508463
    },
    {
        "name": "Souk et Tnine des Chtouka",
        "country": "Morocco",
        "province": "Casablanca-Settat",
        "population": -1,
        "latitude": 33.314878,
        "longitude": -8.160357
    },
    {
        "name": "Souk Tlet El Gharb",
        "country": "Morocco",
        "province": "Rabat-Salé-Kénitra",
        "population": -1,
        "latitude": 34.621054,
        "longitude": -6.13426
    },
    {
        "name": "Souq Tlat Chougrane",
        "country": "Morocco",
        "province": "Béni Mellal-Khénifra",
        "population": -1,
        "latitude": 33.012716,
        "longitude": -6.280601
    },
    {
        "name": "Sidi Dahbi",
        "country": "Morocco",
        "province": "Casablanca-Settat",
        "population": -1,
        "latitude": 33.057928,
        "longitude": -7.181282
    },
    {
        "name": "Had Dra",
        "country": "Morocco",
        "province": "Marrakesh-Safi",
        "population": -1,
        "latitude": 31.578456,
        "longitude": -9.537646
    },
    {
        "name": "Swira Laqdima",
        "country": "Morocco",
        "province": "Marrakesh-Safi",
        "population": -1,
        "latitude": 32.04211,
        "longitude": -9.338478
    },
    {
        "name": "Souakene",
        "country": "Morocco",
        "province": "Tanger-Tetouan-Al Hoceima",
        "population": -1,
        "latitude": 35.120823,
        "longitude": -5.953383
    },
    {
        "name": "Skhour Rehamna",
        "country": "Morocco",
        "province": "Marrakesh-Safi",
        "population": -1,
        "latitude": 32.482436,
        "longitude": -7.915335
    },
    {
        "name": "Douar Zaouiat Sidi Said",
        "country": "Morocco",
        "province": "Marrakesh-Safi",
        "population": -1,
        "latitude": 32.119227,
        "longitude": -9.165576
    },
    {
        "name": "Sidi Lmokhtar",
        "country": "Morocco",
        "province": "Marrakesh-Safi",
        "population": -1,
        "latitude": 31.577391,
        "longitude": -9.015753
    },
    {
        "name": "Id Mohamed",
        "country": "Morocco",
        "province": "Guelmim-Oued Noun",
        "population": -1,
        "latitude": 29.298052,
        "longitude": -9.9614
    },
    {
        "name": "Sidi Ma’rouf",
        "country": "Morocco",
        "province": "Casablanca-Settat",
        "population": -1,
        "latitude": 33.514015,
        "longitude": -7.653845
    },
    {
        "name": "Sidi Lahsene",
        "country": "Morocco",
        "province": "Oriental",
        "population": -1,
        "latitude": 34.091125,
        "longitude": -2.613207
    },
    {
        "name": "Douar Hammadi",
        "country": "Morocco",
        "province": "Marrakesh-Safi",
        "population": -1,
        "latitude": 31.608992,
        "longitude": -8.460399
    },
    {
        "name": "Sidi Hajjaj",
        "country": "Morocco",
        "province": "Casablanca-Settat",
        "population": -1,
        "latitude": 32.913144,
        "longitude": -7.266091
    },
    {
        "name": "Sidi El Hattab",
        "country": "Morocco",
        "province": "Marrakesh-Safi",
        "population": -1,
        "latitude": 32.267208,
        "longitude": -7.290156
    },
    {
        "name": "Azib El Mettougui Lfougani",
        "country": "Morocco",
        "province": "Marrakesh-Safi",
        "population": -1,
        "latitude": 31.627854,
        "longitude": -8.42481
    },
    {
        "name": "Bouknadel",
        "country": "Morocco",
        "province": "Rabat-Salé-Kénitra",
        "population": -1,
        "latitude": 34.118487,
        "longitude": -6.738896
    },
    {
        "name": "Douar Zaouiat Sidi Ben Aissa",
        "country": "Morocco",
        "province": "Fès-Meknès",
        "population": -1,
        "latitude": 33.893181,
        "longitude": -4.638076
    },
    {
        "name": "Sidi Azzouz",
        "country": "Morocco",
        "province": "Marrakesh-Safi",
        "population": -1,
        "latitude": 31.76,
        "longitude": -7.66
    },
    {
        "name": "Sidi Allal Tazi",
        "country": "Morocco",
        "province": "Rabat-Salé-Kénitra",
        "population": -1,
        "latitude": 34.522573,
        "longitude": -6.321967
    },
    {
        "name": "Sidi Allal el Bahraoui",
        "country": "Morocco",
        "province": "Rabat-Salé-Kénitra",
        "population": -1,
        "latitude": 34.001661,
        "longitude": -6.40878
    },
    {
        "name": "Douar Sidi Abdellah",
        "country": "Morocco",
        "province": "Fès-Meknès",
        "population": -1,
        "latitude": 34.165337,
        "longitude": -4.323394
    },
    {
        "name": "Gueznaia",
        "country": "Morocco",
        "province": "Tanger-Tetouan-Al Hoceima",
        "population": -1,
        "latitude": 35.702105,
        "longitude": -5.89044
    },
    {
        "name": "Sgad",
        "country": "Morocco",
        "province": "Béni Mellal-Khénifra",
        "population": -1,
        "latitude": 31.812553,
        "longitude": -6.681818
    },
    {
        "name": "Serhine",
        "country": "Morocco",
        "province": "Fès-Meknès",
        "population": -1,
        "latitude": 34.806544,
        "longitude": -4.81856
    },
    {
        "name": "Zeghanghane",
        "country": "Morocco",
        "province": "Oriental",
        "population": -1,
        "latitude": 35.155607,
        "longitude": -3.002362
    },
    {
        "name": "Souq Sebt Says",
        "country": "Morocco",
        "province": "Casablanca-Settat",
        "population": -1,
        "latitude": 32.778258,
        "longitude": -8.64299
    },
    {
        "name": "Sebt Gzoula",
        "country": "Morocco",
        "province": "Marrakesh-Safi",
        "population": -1,
        "latitude": 32.10779,
        "longitude": -9.083665
    },
    {
        "name": "Douar Essobbab",
        "country": "Morocco",
        "province": "Tanger-Tetouan-Al Hoceima",
        "population": -1,
        "latitude": 34.938703,
        "longitude": -5.761146
    },
    {
        "name": "Sammar",
        "country": "Morocco",
        "province": "Oriental",
        "population": -1,
        "latitude": 35.22045,
        "longitude": -3.165961
    },
    {
        "name": "Salasi",
        "country": "Morocco",
        "province": "Marrakesh-Safi",
        "population": -1,
        "latitude": 31.823509,
        "longitude": -7.98802
    },
    {
        "name": "Saka",
        "country": "Morocco",
        "province": "Oriental",
        "population": -1,
        "latitude": 34.619328,
        "longitude": -3.414317
    },
    {
        "name": "Douar Essaidat",
        "country": "Morocco",
        "province": "Marrakesh-Safi",
        "population": -1,
        "latitude": 31.70585,
        "longitude": -8.483032
    },
    {
        "name": "Nzalat Khirat",
        "country": "Morocco",
        "province": "Marrakesh-Safi",
        "population": -1,
        "latitude": 32.061922,
        "longitude": -7.961762
    },
    {
        "name": "Douar Rguibat Hmiri",
        "country": "Morocco",
        "province": "Marrakesh-Safi",
        "population": -1,
        "latitude": 32.353469,
        "longitude": -8.327547
    },
    {
        "name": "Rmel Marj Elloua",
        "country": "Morocco",
        "province": "Tanger-Tetouan-Al Hoceima",
        "population": -1,
        "latitude": 35.655415,
        "longitude": -5.596311
    },
    {
        "name": "Douar Rguibat Lqoddami",
        "country": "Morocco",
        "province": "Marrakesh-Safi",
        "population": -1,
        "latitude": 32.184675,
        "longitude": -7.9655
    },
    {
        "name": "Reggada",
        "country": "Morocco",
        "province": "Souss-Massa",
        "population": -1,
        "latitude": 29.580162,
        "longitude": -9.700856
    },
    {
        "name": "Refaif",
        "country": "Morocco",
        "province": "Tanger-Tetouan-Al Hoceima",
        "population": -1,
        "latitude": 35.455655,
        "longitude": -5.908881
    },
    {
        "name": "Ras Kebdana",
        "country": "Morocco",
        "province": "Oriental",
        "population": -1,
        "latitude": 35.14068665962406,
        "longitude": -2.4245452880859375
    },
    {
        "name": "Ras el Oued",
        "country": "Morocco",
        "province": "Fès-Meknès",
        "population": -1,
        "latitude": 34.15,
        "longitude": -4
    },
    {
        "name": "Kasbat Ben Yazgha",
        "country": "Morocco",
        "province": "Fès-Meknès",
        "population": -1,
        "latitude": 33.82414,
        "longitude": -4.591609
    },
    {
        "name": "Ouzoud",
        "country": "Morocco",
        "province": "Béni Mellal-Khénifra",
        "population": -1,
        "latitude": 32.03,
        "longitude": -6.78
    },
    {
        "name": "Outat Oulad Al Haj",
        "country": "Morocco",
        "province": "Fès-Meknès",
        "population": -1,
        "latitude": 33.344992,
        "longitude": -3.70387
    },
    {
        "name": "Outta ’Wi",
        "country": "Morocco",
        "province": "Drâa-Tafilalet",
        "population": -1,
        "latitude": 31.21074,
        "longitude": -5.632185
    },
    {
        "name": "Ounagha",
        "country": "Morocco",
        "province": "Marrakesh-Safi",
        "population": -1,
        "latitude": 31.532028,
        "longitude": -9.549437
    },
    {
        "name": "Douar Oumnas",
        "country": "Morocco",
        "province": "Marrakesh-Safi",
        "population": -1,
        "latitude": 31.420059,
        "longitude": -8.073472
    },
    {
        "name": "Oulad Feddoul",
        "country": "Morocco",
        "province": "Marrakesh-Safi",
        "population": -1,
        "latitude": 32.236247,
        "longitude": -8.784263
    },
    {
        "name": "Douar Oulad Rahou",
        "country": "Morocco",
        "province": "Marrakesh-Safi",
        "population": -1,
        "latitude": 32.254462,
        "longitude": -8.637776
    },
    {
        "name": "Ouled Moumene",
        "country": "Morocco",
        "province": "Marrakesh-Safi",
        "population": -1,
        "latitude": 31.427349,
        "longitude": -9.083862
    },
    {
        "name": "Oulad Mansour",
        "country": "Morocco",
        "province": "Marrakesh-Safi",
        "population": -1,
        "latitude": 32.444932,
        "longitude": -8.848277
    },
    {
        "name": "Douar Oulad El Haj",
        "country": "Morocco",
        "province": "Fès-Meknès",
        "population": -1,
        "latitude": 34.15505,
        "longitude": -5.35028
    },
    {
        "name": "Douar El Haj Oulad Iaich",
        "country": "Morocco",
        "province": "Marrakesh-Safi",
        "population": -1,
        "latitude": 32.031946,
        "longitude": -8.357426
    },
    {
        "name": "Tiydrine",
        "country": "Morocco",
        "province": "Drâa-Tafilalet",
        "population": -1,
        "latitude": 31.769354,
        "longitude": -4.214658
    },
    {
        "name": "Oulad Zbaïr",
        "country": "Morocco",
        "province": "Souss-Massa",
        "population": -1,
        "latitude": 30.5137,
        "longitude": -8.576352
    },
    {
        "name": "Oulad Lahbil",
        "country": "Morocco",
        "province": "Marrakesh-Safi",
        "population": -1,
        "latitude": 32.28369,
        "longitude": -9.015021
    },
    {
        "name": "Dourar Oulad Sidi Moussa",
        "country": "Morocco",
        "province": "Casablanca-Settat",
        "population": -1,
        "latitude": 32.516819,
        "longitude": -7.381752
    },
    {
        "name": "Douar Oulad Sidi Allal Mansour",
        "country": "Morocco",
        "province": "Marrakesh-Safi",
        "population": -1,
        "latitude": 32.000506,
        "longitude": -8.562891
    },
    {
        "name": "Douar Oulad Sbih",
        "country": "Morocco",
        "province": "Marrakesh-Safi",
        "population": -1,
        "latitude": 32.366833,
        "longitude": -7.534092
    },
    {
        "name": "Oulad Saïd",
        "country": "Morocco",
        "province": "Marrakesh-Safi",
        "population": -1,
        "latitude": 31.584631,
        "longitude": -8.10794
    },
    {
        "name": "Oulad Essayh",
        "country": "Morocco",
        "province": "Rabat-Salé-Kénitra",
        "population": -1,
        "latitude": 34.767634,
        "longitude": -5.947917
    },
    {
        "name": "Douar Oulad Erriyahi",
        "country": "Morocco",
        "province": "Rabat-Salé-Kénitra",
        "population": -1,
        "latitude": 34.809147,
        "longitude": -5.949802
    },
    {
        "name": "Douar Ouaggad Briouiga",
        "country": "Morocco",
        "province": "Marrakesh-Safi",
        "population": -1,
        "latitude": 32.352723,
        "longitude": -7.615178
    },
    {
        "name": "Al Qaçba",
        "country": "Morocco",
        "province": "Drâa-Tafilalet",
        "population": -1,
        "latitude": 31.416554,
        "longitude": -4.279909
    },
    {
        "name": "Douar Oulad Nouil",
        "country": "Morocco",
        "province": "Rabat-Salé-Kénitra",
        "population": -1,
        "latitude": 34.583612,
        "longitude": -5.496396
    },
    {
        "name": "Douar Oulad Nader",
        "country": "Morocco",
        "province": "Béni Mellal-Khénifra",
        "population": -1,
        "latitude": 32.351407,
        "longitude": -6.510704
    },
    {
        "name": "Oulad Msallem",
        "country": "Morocco",
        "province": "Rabat-Salé-Kénitra",
        "population": -1,
        "latitude": 34.463724,
        "longitude": -5.67111
    },
    {
        "name": "Oulad Maçbah",
        "country": "Morocco",
        "province": "Marrakesh-Safi",
        "population": -1,
        "latitude": 31.772684,
        "longitude": -7.351082
    },
    {
        "name": "Douar Oulad Mansour",
        "country": "Morocco",
        "province": "Fès-Meknès",
        "population": -1,
        "latitude": 34.389411,
        "longitude": -4.743208
    },
    {
        "name": "Douar Oulad Makhlouf",
        "country": "Morocco",
        "province": "Marrakesh-Safi",
        "population": -1,
        "latitude": 31.495642,
        "longitude": -8.953995
    },
    {
        "name": "Douar Oulad Lahsen",
        "country": "Morocco",
        "province": "Marrakesh-Safi",
        "population": -1,
        "latitude": 32.486066,
        "longitude": -7.866462
    },
    {
        "name": "Oulad Khallouf",
        "country": "Morocco",
        "province": "Oriental",
        "population": -1,
        "latitude": 34.71,
        "longitude": -2.58
    },
    {
        "name": "Douar Oulad Jmil",
        "country": "Morocco",
        "province": "Rabat-Salé-Kénitra",
        "population": -1,
        "latitude": 34.922539,
        "longitude": -5.960462
    },
    {
        "name": "Oulad Imloul",
        "country": "Morocco",
        "province": "Marrakesh-Safi",
        "population": -1,
        "latitude": 32.025194,
        "longitude": -7.716041
    },
    {
        "name": "Oulad Hammou Sakhsoukh",
        "country": "Morocco",
        "province": "Tanger-Tetouan-Al Hoceima",
        "population": -1,
        "latitude": 35.110193,
        "longitude": -6.13311
    },
    {
        "name": "Oulad Hamdane",
        "country": "Morocco",
        "province": "Béni Mellal-Khénifra",
        "population": -1,
        "latitude": 32.34121,
        "longitude": -6.37249
    },
    {
        "name": "Douar El Haj Ghalem",
        "country": "Morocco",
        "province": "Marrakesh-Safi",
        "population": -1,
        "latitude": 31.60976,
        "longitude": -8.644482
    },
    {
        "name": "Oulad Hajj Bachir",
        "country": "Morocco",
        "province": "Marrakesh-Safi",
        "population": -1,
        "latitude": 31.96128,
        "longitude": -9.159553
    },
    {
        "name": "Oled ez Zir",
        "country": "Morocco",
        "province": "Marrakesh-Safi",
        "population": -1,
        "latitude": 31.348022,
        "longitude": -8.740968
    },
    {
        "name": "Douar Oulad Ettouijer Eddechira",
        "country": "Morocco",
        "province": "Rabat-Salé-Kénitra",
        "population": -1,
        "latitude": 34.782119,
        "longitude": -5.788035
    },
    {
        "name": "Oulad Embarek",
        "country": "Morocco",
        "province": "Béni Mellal-Khénifra",
        "population": -1,
        "latitude": 32.271623,
        "longitude": -6.449668
    },
    {
        "name": "Douar Oulad Jaber Tehata",
        "country": "Morocco",
        "province": "Oriental",
        "population": -1,
        "latitude": 34.788238,
        "longitude": -2.12583
    },
    {
        "name": "Douar Oulad Hmidi",
        "country": "Morocco",
        "province": "Rabat-Salé-Kénitra",
        "population": -1,
        "latitude": 34.789182,
        "longitude": -5.899094
    },
    {
        "name": "Douar Oulad El Haj Abdellah",
        "country": "Morocco",
        "province": "Fès-Meknès",
        "population": -1,
        "latitude": 34.152358,
        "longitude": -5.185436
    },
    {
        "name": "Douar Oulad Lgarn",
        "country": "Morocco",
        "province": "Marrakesh-Safi",
        "population": -1,
        "latitude": 31.68194,
        "longitude": -7.599818
    },
    {
        "name": "Douar Oulad Dyim",
        "country": "Morocco",
        "province": "Marrakesh-Safi",
        "population": -1,
        "latitude": 31.721166,
        "longitude": -7.699317
    },
    {
        "name": "Oulad Chebene",
        "country": "Morocco",
        "province": "Casablanca-Settat",
        "population": -1,
        "latitude": 32.336117,
        "longitude": -8.526774
    },
    {
        "name": "Douar Lahlahla",
        "country": "Morocco",
        "province": "Rabat-Salé-Kénitra",
        "population": -1,
        "latitude": 34.50131,
        "longitude": -5.881822
    },
    {
        "name": "Douar Oulad Boukhliq",
        "country": "Morocco",
        "province": "Marrakesh-Safi",
        "population": -1,
        "latitude": 32.159193,
        "longitude": -7.655792
    },
    {
        "name": "Douar Oulad Bou Anga",
        "country": "Morocco",
        "province": "Marrakesh-Safi",
        "population": -1,
        "latitude": 31.550683,
        "longitude": -9.030609
    },
    {
        "name": "Douar Oulad Bou el Hsaïne",
        "country": "Morocco",
        "province": "Rabat-Salé-Kénitra",
        "population": -1,
        "latitude": 34.417227,
        "longitude": -5.647781
    },
    {
        "name": "Oulad Boudene",
        "country": "Morocco",
        "province": "Marrakesh-Safi",
        "population": -1,
        "latitude": 31.735667,
        "longitude": -7.907491
    },
    {
        "name": "Douar Oulad Bou Ouaouis",
        "country": "Morocco",
        "province": "Marrakesh-Safi",
        "population": -1,
        "latitude": 32.373431,
        "longitude": -8.929827
    },
    {
        "name": "Douar Oulad Ben Said",
        "country": "Morocco",
        "province": "Rabat-Salé-Kénitra",
        "population": -1,
        "latitude": 34.754897,
        "longitude": -5.878926
    },
    {
        "name": "Lakhtout",
        "country": "Morocco",
        "province": "Tanger-Tetouan-Al Hoceima",
        "population": -1,
        "latitude": 35.317095,
        "longitude": -5.836941
    },
    {
        "name": "Douar Oulad Ben Jalloul",
        "country": "Morocco",
        "province": "Marrakesh-Safi",
        "population": -1,
        "latitude": 32.460818,
        "longitude": -9.094978
    },
    {
        "name": "Douar Oulad Ben Haj",
        "country": "Morocco",
        "province": "Marrakesh-Safi",
        "population": -1,
        "latitude": 31.997579,
        "longitude": -8.532099
    },
    {
        "name": "Oulad Barhil",
        "country": "Morocco",
        "province": "Souss-Massa",
        "population": -1,
        "latitude": 30.64042,
        "longitude": -8.46875
    },
    {
        "name": "Oulad Ayyad",
        "country": "Morocco",
        "province": "Béni Mellal-Khénifra",
        "population": -1,
        "latitude": 32.33031,
        "longitude": -6.38084
    },
    {
        "name": "Oulad Amrane el Mekki",
        "country": "Morocco",
        "province": "Tanger-Tetouan-Al Hoceima",
        "population": -1,
        "latitude": 35.222261,
        "longitude": -5.955511
    },
    {
        "name": "Oulad Amer",
        "country": "Morocco",
        "province": "Rabat-Salé-Kénitra",
        "population": -1,
        "latitude": 34.799966,
        "longitude": -5.835193
    },
    {
        "name": "Douar Oulad Amer",
        "country": "Morocco",
        "province": "Oriental",
        "population": -1,
        "latitude": 34.784555,
        "longitude": -2.495371
    },
    {
        "name": "Oulad Amar",
        "country": "Morocco",
        "province": "Marrakesh-Safi",
        "population": -1,
        "latitude": 31.877416,
        "longitude": -7.88826
    },
    {
        "name": "Douar Oulad Ali Ben Nacer",
        "country": "Morocco",
        "province": "Marrakesh-Safi",
        "population": -1,
        "latitude": 31.985441,
        "longitude": -7.68214
    },
    {
        "name": "Douar Oulad El Mehdi",
        "country": "Morocco",
        "province": "Fès-Meknès",
        "population": -1,
        "latitude": 34.002158,
        "longitude": -5.614263
    },
    {
        "name": "Oulad ’ali",
        "country": "Morocco",
        "province": "Marrakesh-Safi",
        "population": -1,
        "latitude": 31.969005,
        "longitude": -7.137223
    },
    {
        "name": "Oulad Aïssa",
        "country": "Morocco",
        "province": "Marrakesh-Safi",
        "population": -1,
        "latitude": 31.58678,
        "longitude": -9.247019
    },
    {
        "name": "Oulad Abdellah",
        "country": "Morocco",
        "province": "Marrakesh-Safi",
        "population": -1,
        "latitude": 31.642653,
        "longitude": -8.574448
    },
    {
        "name": "Oughrane",
        "country": "Morocco",
        "province": "Guelmim-Oued Noun",
        "population": -1,
        "latitude": 29.148617,
        "longitude": -10.1273
    },
    {
        "name": "Oued el Himer",
        "country": "Morocco",
        "province": "Oriental",
        "population": -1,
        "latitude": 34.448966,
        "longitude": -1.900603
    },
    {
        "name": "Ouchehane",
        "country": "Morocco",
        "province": "Souss-Massa",
        "population": -1,
        "latitude": 29.616561,
        "longitude": -9.333156
    },
    {
        "name": "Ouarmout",
        "country": "Morocco",
        "province": "Tanger-Tetouan-Al Hoceima",
        "population": -1,
        "latitude": 35.210352,
        "longitude": -5.773977
    },
    {
        "name": "Waramdaz",
        "country": "Morocco",
        "province": "Souss-Massa",
        "population": -1,
        "latitude": 30.040019,
        "longitude": -8.446494
    },
    {
        "name": "Ourika Wawrmas",
        "country": "Morocco",
        "province": "Drâa-Tafilalet",
        "population": -1,
        "latitude": 30.718419,
        "longitude": -6.537385
    },
    {
        "name": "Wawizaght",
        "country": "Morocco",
        "province": "Béni Mellal-Khénifra",
        "population": -1,
        "latitude": 32.158566,
        "longitude": -6.353369
    },
    {
        "name": "Ouaklim Oukider",
        "country": "Morocco",
        "province": "Drâa-Tafilalet",
        "population": -1,
        "latitude": 31.445375,
        "longitude": -5.54954
    },
    {
        "name": "Nzalat Sidi Bouhya",
        "country": "Morocco",
        "province": "Marrakesh-Safi",
        "population": -1,
        "latitude": 32.275722,
        "longitude": -7.648944
    },
    {
        "name": "Nzalat Laadam",
        "country": "Morocco",
        "province": "Marrakesh-Safi",
        "population": -1,
        "latitude": 32.103908,
        "longitude": -7.947335
    },
    {
        "name": "Nzalat Bni Amar",
        "country": "Morocco",
        "province": "Fès-Meknès",
        "population": -1,
        "latitude": 34.122377,
        "longitude": -5.429029
    },
    {
        "name": "Douar Njara",
        "country": "Morocco",
        "province": "Marrakesh-Safi",
        "population": -1,
        "latitude": 32.407905,
        "longitude": -9.018335
    },
    {
        "name": "Nouasser Ben Nacer",
        "country": "Morocco",
        "province": "Rabat-Salé-Kénitra",
        "population": -1,
        "latitude": 34.621212,
        "longitude": -6.221959
    },
    {
        "name": "Nwaji",
        "country": "Morocco",
        "province": "Marrakesh-Safi",
        "population": -1,
        "latitude": 31.965987,
        "longitude": -7.099884
    },
    {
        "name": "Nehirat",
        "country": "Morocco",
        "province": "Marrakesh-Safi",
        "population": -1,
        "latitude": 32.586809,
        "longitude": -9.029744
    },
    {
        "name": "Mzerguiya",
        "country": "Morocco",
        "province": "Souss-Massa",
        "population": -1,
        "latitude": 30.478331,
        "longitude": -9.256533
    },
    {
        "name": "Mzefroune",
        "country": "Morocco",
        "province": "Tanger-Tetouan-Al Hoceima",
        "population": -1,
        "latitude": 34.833404,
        "longitude": -5.753164
    },
    {
        "name": "Douar Mghaytene Oulad Abdellah",
        "country": "Morocco",
        "province": "Rabat-Salé-Kénitra",
        "population": -1,
        "latitude": 34.62147,
        "longitude": -5.91579
    },
    {
        "name": "Moulay Driss Zerhoun",
        "country": "Morocco",
        "province": "Fès-Meknès",
        "population": -1,
        "latitude": 34.055553,
        "longitude": -5.521316
    },
    {
        "name": "Douar Etteriyat",
        "country": "Morocco",
        "province": "Marrakesh-Safi",
        "population": -1,
        "latitude": 31.863076,
        "longitude": -9.162282
    },
    {
        "name": "Touzdiyine",
        "country": "Morocco",
        "province": "Souss-Massa",
        "population": -1,
        "latitude": 30.610993,
        "longitude": -7.87194
    },
    {
        "name": "Douar Toujgane",
        "country": "Morocco",
        "province": "Tanger-Tetouan-Al Hoceima",
        "population": -1,
        "latitude": 35.20243,
        "longitude": -4.899095
    },
    {
        "name": "Tounfit",
        "country": "Morocco",
        "province": "Drâa-Tafilalet",
        "population": -1,
        "latitude": 32.469454,
        "longitude": -5.245116
    },
    {
        "name": "Touktiyr",
        "country": "Morocco",
        "province": "Drâa-Tafilalet",
        "population": -1,
        "latitude": 31.899842,
        "longitude": -4.919786
    },
    {
        "name": "Touissite",
        "country": "Morocco",
        "province": "Oriental",
        "population": -1,
        "latitude": 34.478574,
        "longitude": -1.768504
    },
    {
        "name": "Touggana",
        "country": "Morocco",
        "province": "Marrakesh-Safi",
        "population": -1,
        "latitude": 31.55241,
        "longitude": -7.972638
    },
    {
        "name": "Douar Touansa",
        "country": "Morocco",
        "province": "Fès-Meknès",
        "population": -1,
        "latitude": 34.432048,
        "longitude": -4.708243
    },
    {
        "name": "Tnine Ida ou Zemzene",
        "country": "Morocco",
        "province": "Marrakesh-Safi",
        "population": -1,
        "latitude": 31.283595,
        "longitude": -9.333496
    },
    {
        "name": "Et-Tnine",
        "country": "Morocco",
        "province": "Casablanca-Settat",
        "population": -1,
        "latitude": 32.777453,
        "longitude": -7.66641
    },
    {
        "name": "Tnine Sidi Lyamani",
        "country": "Morocco",
        "province": "Tanger-Tetouan-Al Hoceima",
        "population": -1,
        "latitude": 35.369286,
        "longitude": -5.972424
    },
    {
        "name": "Tleta Rissana",
        "country": "Morocco",
        "province": "Tanger-Tetouan-Al Hoceima",
        "population": -1,
        "latitude": 35.22015,
        "longitude": -5.943326
    },
    {
        "name": "Tlet Ighoud",
        "country": "Morocco",
        "province": "Marrakesh-Safi",
        "population": -1,
        "latitude": 31.860106,
        "longitude": -8.882136
    },
    {
        "name": "Tlata Al Akhçaç",
        "country": "Morocco",
        "province": "Guelmim-Oued Noun",
        "population": -1,
        "latitude": 29.357684,
        "longitude": -9.754331
    },
    {
        "name": "Tlata Ouanas",
        "country": "Morocco",
        "province": "Souss-Massa",
        "population": -1,
        "latitude": 30.060397,
        "longitude": -9.120516
    },
    {
        "name": "Tizi Nisly",
        "country": "Morocco",
        "province": "Béni Mellal-Khénifra",
        "population": -1,
        "latitude": 32.468474,
        "longitude": -5.772445
    },
    {
        "name": "Azrar",
        "country": "Morocco",
        "province": "Souss-Massa",
        "population": -1,
        "latitude": 30.170787,
        "longitude": -7.993805
    },
    {
        "name": "Tizguiy",
        "country": "Morocco",
        "province": "Souss-Massa",
        "population": -1,
        "latitude": 30.902833,
        "longitude": -7.808973
    },
    {
        "name": "Tizaght",
        "country": "Morocco",
        "province": "Drâa-Tafilalet",
        "population": -1,
        "latitude": 31.813712,
        "longitude": -5.028955
    },
    {
        "name": "Tizagzawine",
        "country": "Morocco",
        "province": "Drâa-Tafilalet",
        "population": -1,
        "latitude": 30.99937,
        "longitude": -7.15347
    },
    {
        "name": "Tit Ourmas",
        "country": "Morocco",
        "province": "Drâa-Tafilalet",
        "population": -1,
        "latitude": 32.688506,
        "longitude": -4.508415
    },
    {
        "name": "Tissint",
        "country": "Morocco",
        "province": "Souss-Massa",
        "population": -1,
        "latitude": 29.898262,
        "longitude": -7.31619
    },
    {
        "name": "Tissaf",
        "country": "Morocco",
        "province": "Fès-Meknès",
        "population": -1,
        "latitude": 33.401142,
        "longitude": -3.589019
    },
    {
        "name": "Tizguine",
        "country": "Morocco",
        "province": "Drâa-Tafilalet",
        "population": -1,
        "latitude": 30.530307,
        "longitude": -6.0818
    },
    {
        "name": "Tizgharine",
        "country": "Morocco",
        "province": "Tanger-Tetouan-Al Hoceima",
        "population": -1,
        "latitude": 35.395538,
        "longitude": -5.153793
    },
    {
        "name": "Tissaguanane",
        "country": "Morocco",
        "province": "Guelmim-Oued Noun",
        "population": -1,
        "latitude": 29.004118,
        "longitude": -10.180977
    },
    {
        "name": "Al Khattart -n-Oughroud",
        "country": "Morocco",
        "province": "Drâa-Tafilalet",
        "population": -1,
        "latitude": 31.61941,
        "longitude": -4.908583
    },
    {
        "name": "Tiyghmi",
        "country": "Morocco",
        "province": "Souss-Massa",
        "population": -1,
        "latitude": 29.582934,
        "longitude": -9.42439
    },
    {
        "name": "Tighiwine",
        "country": "Morocco",
        "province": "Drâa-Tafilalet",
        "population": -1,
        "latitude": 31.978005,
        "longitude": -4.455186
    },
    {
        "name": "Tirhissit",
        "country": "Morocco",
        "province": "Guelmim-Oued Noun",
        "population": -1,
        "latitude": 29.330562,
        "longitude": -9.910736
    },
    {
        "name": "Tikhfart",
        "country": "Morocco",
        "province": "Marrakesh-Safi",
        "population": -1,
        "latitude": 31.2621,
        "longitude": -7.689396
    },
    {
        "name": "Tagmout",
        "country": "Morocco",
        "province": "Drâa-Tafilalet",
        "population": -1,
        "latitude": 31.013714,
        "longitude": -6.119323
    },
    {
        "name": "Tirhassaline",
        "country": "Morocco",
        "province": "Béni Mellal-Khénifra",
        "population": -1,
        "latitude": 32.782204,
        "longitude": -5.652817
    },
    {
        "name": "Tighalimine",
        "country": "Morocco",
        "province": "Marrakesh-Safi",
        "population": -1,
        "latitude": 31.370364,
        "longitude": -9.779817
    },
    {
        "name": "Tiouli Ou Baki",
        "country": "Morocco",
        "province": "Marrakesh-Safi",
        "population": -1,
        "latitude": 31.281,
        "longitude": -7.995685
    },
    {
        "name": "Tiwiyyine",
        "country": "Morocco",
        "province": "Drâa-Tafilalet",
        "population": -1,
        "latitude": 30.932102,
        "longitude": -7.214094
    },
    {
        "name": "Tizouat",
        "country": "Morocco",
        "province": "Drâa-Tafilalet",
        "population": -1,
        "latitude": 30.736229,
        "longitude": -7.469442
    },
    {
        "name": "Timghaghrine",
        "country": "Morocco",
        "province": "Drâa-Tafilalet",
        "population": -1,
        "latitude": 30.3369,
        "longitude": -7.292855
    },
    {
        "name": "Imi-n-Tinbal",
        "country": "Morocco",
        "province": "Souss-Massa",
        "population": -1,
        "latitude": 30.196469,
        "longitude": -8.847314
    },
    {
        "name": "Tinouar",
        "country": "Morocco",
        "province": "Drâa-Tafilalet",
        "population": -1,
        "latitude": 31.007138,
        "longitude": -6.607138
    },
    {
        "name": "Tinajdad",
        "country": "Morocco",
        "province": "Drâa-Tafilalet",
        "population": -1,
        "latitude": 31.507644,
        "longitude": -5.032934
    },
    {
        "name": "Tine Abiya",
        "country": "Morocco",
        "province": "Souss-Massa",
        "population": -1,
        "latitude": 30.149317,
        "longitude": -9.363563
    },
    {
        "name": "Timtig",
        "country": "Morocco",
        "province": "Drâa-Tafilalet",
        "population": -1,
        "latitude": 30.28,
        "longitude": -5.73
    },
    {
        "name": "Timqit",
        "country": "Morocco",
        "province": "Souss-Massa",
        "population": -1,
        "latitude": 29.896972,
        "longitude": -8.533208
    },
    {
        "name": "Douar Timzzoujin",
        "country": "Morocco",
        "province": "Oriental",
        "population": -1,
        "latitude": 35.023099,
        "longitude": -2.733176
    },
    {
        "name": "Tinoumroutine",
        "country": "Morocco",
        "province": "Marrakesh-Safi",
        "population": -1,
        "latitude": 30.961237,
        "longitude": -8.906908
    },
    {
        "name": "Timellourhit",
        "country": "Morocco",
        "province": "Drâa-Tafilalet",
        "population": -1,
        "latitude": 31.190168,
        "longitude": -7.468606
    },
    {
        "name": "Tilmezdight",
        "country": "Morocco",
        "province": "Souss-Massa",
        "population": -1,
        "latitude": 30.412428,
        "longitude": -8.441184
    },
    {
        "name": "Tilougguit",
        "country": "Morocco",
        "province": "Béni Mellal-Khénifra",
        "population": -1,
        "latitude": 32.030025,
        "longitude": -6.203137
    },
    {
        "name": "Douar Tiktene",
        "country": "Morocco",
        "province": "Marrakesh-Safi",
        "population": -1,
        "latitude": 31.695337,
        "longitude": -9.115446
    },
    {
        "name": "Tijdine",
        "country": "Morocco",
        "province": "Marrakesh-Safi",
        "population": -1,
        "latitude": 31.039511,
        "longitude": -8.875931
    },
    {
        "name": "Tihouna Aït Widir",
        "country": "Morocco",
        "province": "Béni Mellal-Khénifra",
        "population": -1,
        "latitude": 32.551377,
        "longitude": -5.664985
    },
    {
        "name": "Douar Tighalline",
        "country": "Morocco",
        "province": "Tanger-Tetouan-Al Hoceima",
        "population": -1,
        "latitude": 35.060785,
        "longitude": -4.210918
    },
    {
        "name": "Tifirt -n- Aït Hamza",
        "country": "Morocco",
        "province": "Béni Mellal-Khénifra",
        "population": -1,
        "latitude": 32.318542,
        "longitude": -5.96454
    },
    {
        "name": "Tifghlal",
        "country": "Morocco",
        "province": "Souss-Massa",
        "population": -1,
        "latitude": 30.067784,
        "longitude": -9.554475
    },
    {
        "name": "Tidghist",
        "country": "Morocco",
        "province": "Drâa-Tafilalet",
        "population": -1,
        "latitude": 31.04007,
        "longitude": -6.813092
    },
    {
        "name": "Tarselt",
        "country": "Morocco",
        "province": "Marrakesh-Safi",
        "population": -1,
        "latitude": 31.260762,
        "longitude": -9.027772
    },
    {
        "name": "Tendrara",
        "country": "Morocco",
        "province": "Oriental",
        "population": -1,
        "latitude": 33.049635,
        "longitude": -2.000182
    },
    {
        "name": "Tegrega",
        "country": "Morocco",
        "province": "Tanger-Tetouan-Al Hoceima",
        "population": -1,
        "latitude": 35.147502,
        "longitude": -4.186335
    },
    {
        "name": "Douar Teffahat",
        "country": "Morocco",
        "province": "Fès-Meknès",
        "population": -1,
        "latitude": 33.67254,
        "longitude": -4.684521
    },
    {
        "name": "Tbab’a Dra’ Twil",
        "country": "Morocco",
        "province": "Marrakesh-Safi",
        "population": -1,
        "latitude": 31.918257,
        "longitude": -7.433959
    },
    {
        "name": "Douar Tazrout",
        "country": "Morocco",
        "province": "Tanger-Tetouan-Al Hoceima",
        "population": -1,
        "latitude": 35.263605,
        "longitude": -5.545201
    },
    {
        "name": "Tazouggart",
        "country": "Morocco",
        "province": "Souss-Massa",
        "population": -1,
        "latitude": 30.850153,
        "longitude": -7.983374
    },
    {
        "name": "Taznakht",
        "country": "Morocco",
        "province": "Drâa-Tafilalet",
        "population": -1,
        "latitude": 31.879047,
        "longitude": -4.311361
    },
    {
        "name": "Tassila",
        "country": "Morocco",
        "province": "Souss-Massa",
        "population": -1,
        "latitude": 30.693714,
        "longitude": -9.597629
    },
    {
        "name": "Douar Touzouighine",
        "country": "Morocco",
        "province": "Tanger-Tetouan-Al Hoceima",
        "population": -1,
        "latitude": 35.120378,
        "longitude": -4.059958
    },
    {
        "name": "Tartemat",
        "country": "Morocco",
        "province": "Béni Mellal-Khénifra",
        "population": -1,
        "latitude": 32.481772,
        "longitude": -6.301951
    },
    {
        "name": "Tarourt Lalla Soueka",
        "country": "Morocco",
        "province": "Oriental",
        "population": -1,
        "latitude": 35.141896,
        "longitude": -2.425122
    },
    {
        "name": "Taghoucht",
        "country": "Morocco",
        "province": "Drâa-Tafilalet",
        "population": -1,
        "latitude": 31.38345,
        "longitude": -5.017614
    },
    {
        "name": "Aït Mohammed Taghzout",
        "country": "Morocco",
        "province": "Drâa-Tafilalet",
        "population": -1,
        "latitude": 31.733456,
        "longitude": -5.800119
    },
    {
        "name": "Tarhzirt",
        "country": "Morocco",
        "province": "Béni Mellal-Khénifra",
        "population": -1,
        "latitude": 32.435723,
        "longitude": -6.189649
    },
    {
        "name": "Tagherat",
        "country": "Morocco",
        "province": "Drâa-Tafilalet",
        "population": -1,
        "latitude": 31.231085,
        "longitude": -4.876982
    },
    {
        "name": "Taghouzirt",
        "country": "Morocco",
        "province": "Souss-Massa",
        "population": -1,
        "latitude": 30.170279,
        "longitude": -8.18463
    },
    {
        "name": "Taghouggalt",
        "country": "Morocco",
        "province": "Souss-Massa",
        "population": -1,
        "latitude": 30.889666,
        "longitude": -7.996405
    },
    {
        "name": "Tarhjicht",
        "country": "Morocco",
        "province": "Guelmim-Oued Noun",
        "population": -1,
        "latitude": 29.058273,
        "longitude": -9.428775
    },
    {
        "name": "Tarhat Ou Annkerim",
        "country": "Morocco",
        "province": "Souss-Massa",
        "population": -1,
        "latitude": 30.593642,
        "longitude": -9.518165
    },
    {
        "name": "Taghawt",
        "country": "Morocco",
        "province": "Souss-Massa",
        "population": -1,
        "latitude": 30.22968,
        "longitude": -8.575646
    },
    {
        "name": "Douar Tardane",
        "country": "Morocco",
        "province": "Tanger-Tetouan-Al Hoceima",
        "population": -1,
        "latitude": 35.370688,
        "longitude": -5.620491
    },
    {
        "name": "Taourart",
        "country": "Morocco",
        "province": "Tanger-Tetouan-Al Hoceima",
        "population": -1,
        "latitude": 35.205348,
        "longitude": -5.125712
    },
    {
        "name": "Tawlawalt",
        "country": "Morocco",
        "province": "Drâa-Tafilalet",
        "population": -1,
        "latitude": 31.020722,
        "longitude": -5.646711
    },
    {
        "name": "Tannghift",
        "country": "Morocco",
        "province": "Drâa-Tafilalet",
        "population": -1,
        "latitude": 32.404283,
        "longitude": -4.818328
    },
    {
        "name": "Tanammart",
        "country": "Morocco",
        "province": "Marrakesh-Safi",
        "population": -1,
        "latitude": 30.913717,
        "longitude": -8.401221
    },
    {
        "name": "Tanakoub",
        "country": "Morocco",
        "province": "Tanger-Tetouan-Al Hoceima",
        "population": -1,
        "latitude": 35.104529,
        "longitude": -5.460787
    },
    {
        "name": "Tamzayt",
        "country": "Morocco",
        "province": "Souss-Massa",
        "population": -1,
        "latitude": 30.343333,
        "longitude": -8.1105
    },
    {
        "name": "Tamsaout",
        "country": "Morocco",
        "province": "Souss-Massa",
        "population": -1,
        "latitude": 29.537426,
        "longitude": -8.858432
    },
    {
        "name": "Tamgart",
        "country": "Morocco",
        "province": "Souss-Massa",
        "population": -1,
        "latitude": 29.838821,
        "longitude": -8.686447
    },
    {
        "name": "Tameslouht",
        "country": "Morocco",
        "province": "Marrakesh-Safi",
        "population": -1,
        "latitude": 31.494719,
        "longitude": -8.09772
    },
    {
        "name": "Douar Tamellalt",
        "country": "Morocco",
        "province": "Oriental",
        "population": -1,
        "latitude": 34.842935,
        "longitude": -2.424325
    },
    {
        "name": "Toumazzaghart",
        "country": "Morocco",
        "province": "Marrakesh-Safi",
        "population": -1,
        "latitude": 31.461741,
        "longitude": -7.72357
    },
    {
        "name": "Tamassint",
        "country": "Morocco",
        "province": "Tanger-Tetouan-Al Hoceima",
        "population": -1,
        "latitude": 35.072033,
        "longitude": -3.961181
    },
    {
        "name": "Douar Tamaylte",
        "country": "Morocco",
        "province": "Tanger-Tetouan-Al Hoceima",
        "population": -1,
        "latitude": 35.178135,
        "longitude": -4.818297
    },
    {
        "name": "Tamagourt",
        "country": "Morocco",
        "province": "Drâa-Tafilalet",
        "population": -1,
        "latitude": 32.250056,
        "longitude": -4.735624
    },
    {
        "name": "Taletnout",
        "country": "Morocco",
        "province": "Marrakesh-Safi",
        "population": -1,
        "latitude": 31.511343,
        "longitude": -7.680242
    },
    {
        "name": "Talsint",
        "country": "Morocco",
        "province": "Oriental",
        "population": -1,
        "latitude": 32.535994,
        "longitude": -3.441425
    },
    {
        "name": "Talambote",
        "country": "Morocco",
        "province": "Tanger-Tetouan-Al Hoceima",
        "population": -1,
        "latitude": 35.251572,
        "longitude": -5.182478
    },
    {
        "name": "Talat-n-Ou ’Arab",
        "country": "Morocco",
        "province": "Drâa-Tafilalet",
        "population": -1,
        "latitude": 32.37648,
        "longitude": -5.475177
    },
    {
        "name": "Talat n’Yissi",
        "country": "Morocco",
        "province": "Souss-Massa",
        "population": -1,
        "latitude": 29.494111,
        "longitude": -8.822076
    },
    {
        "name": "Talat-n-Ziki",
        "country": "Morocco",
        "province": "Souss-Massa",
        "population": -1,
        "latitude": 29.472042,
        "longitude": -9.888413
    },
    {
        "name": "Talat-n-Talaghmine",
        "country": "Morocco",
        "province": "Souss-Massa",
        "population": -1,
        "latitude": 30.42118,
        "longitude": -8.187361
    },
    {
        "name": "Talat Azougarn",
        "country": "Morocco",
        "province": "Souss-Massa",
        "population": -1,
        "latitude": 29.686428,
        "longitude": -8.752881
    },
    {
        "name": "Talamrhecht",
        "country": "Morocco",
        "province": "Oriental",
        "population": -1,
        "latitude": 34.892421,
        "longitude": -3.745337
    },
    {
        "name": "Douar Imdaouchene",
        "country": "Morocco",
        "province": "Tanger-Tetouan-Al Hoceima",
        "population": -1,
        "latitude": 35.130058,
        "longitude": -4.314826
    },
    {
        "name": "Imaaroufene",
        "country": "Morocco",
        "province": "Oriental",
        "population": -1,
        "latitude": 35.126516,
        "longitude": -3.149049
    },
    {
        "name": "Imarighn",
        "country": "Morocco",
        "province": "Drâa-Tafilalet",
        "population": -1,
        "latitude": 30.314283,
        "longitude": -7.349762
    },
    {
        "name": "Almoudene",
        "country": "Morocco",
        "province": "Tanger-Tetouan-Al Hoceima",
        "population": -1,
        "latitude": 34.979023,
        "longitude": -5.029414
    },
    {
        "name": "Ilmarharh",
        "country": "Morocco",
        "province": "Marrakesh-Safi",
        "population": -1,
        "latitude": 30.856536,
        "longitude": -9.672109
    },
    {
        "name": "Ilamdane",
        "country": "Morocco",
        "province": "Souss-Massa",
        "population": -1,
        "latitude": 29.999791,
        "longitude": -8.378818
    },
    {
        "name": "Ikkiss",
        "country": "Morocco",
        "province": "Marrakesh-Safi",
        "population": -1,
        "latitude": 31.166473,
        "longitude": -7.889007
    },
    {
        "name": "Douar Igueddourene",
        "country": "Morocco",
        "province": "Tanger-Tetouan-Al Hoceima",
        "population": -1,
        "latitude": 35.005273,
        "longitude": -4.30015
    },
    {
        "name": "Ikaouene",
        "country": "Morocco",
        "province": "Tanger-Tetouan-Al Hoceima",
        "population": -1,
        "latitude": 34.749167,
        "longitude": -4.657502
    },
    {
        "name": "Douar Ikherfane",
        "country": "Morocco",
        "province": "Tanger-Tetouan-Al Hoceima",
        "population": -1,
        "latitude": 35.140706,
        "longitude": -4.969311
    },
    {
        "name": "Ikherbachyene",
        "country": "Morocco",
        "province": "Oriental",
        "population": -1,
        "latitude": 35.117032,
        "longitude": -2.984615
    },
    {
        "name": "Ihadjama",
        "country": "Morocco",
        "province": "Béni Mellal-Khénifra",
        "population": -1,
        "latitude": 31.96408,
        "longitude": -6.9872
    },
    {
        "name": "Igourar n’ Sidi Abd er Rahmane",
        "country": "Morocco",
        "province": "Souss-Massa",
        "population": -1,
        "latitude": 29.717958,
        "longitude": -9.830939
    },
    {
        "name": "Iygli",
        "country": "Morocco",
        "province": "Souss-Massa",
        "population": -1,
        "latitude": 29.508252,
        "longitude": -9.079776
    },
    {
        "name": "Adouz",
        "country": "Morocco",
        "province": "Souss-Massa",
        "population": -1,
        "latitude": 30.151285,
        "longitude": -9.113326
    },
    {
        "name": "Douar Ighaffene",
        "country": "Morocco",
        "province": "Souss-Massa",
        "population": -1,
        "latitude": 29.550959,
        "longitude": -9.883372
    },
    {
        "name": "Ifsfas",
        "country": "Morocco",
        "province": "Souss-Massa",
        "population": -1,
        "latitude": 29.773082,
        "longitude": -8.745079
    },
    {
        "name": "Ifarkhes",
        "country": "Morocco",
        "province": "Souss-Massa",
        "population": -1,
        "latitude": 30.490449,
        "longitude": -9.534228
    },
    {
        "name": "Douar Ifergane",
        "country": "Morocco",
        "province": "Tanger-Tetouan-Al Hoceima",
        "population": -1,
        "latitude": 35.324786,
        "longitude": -4.948158
    },
    {
        "name": "Ida Ou Gaïlal",
        "country": "Morocco",
        "province": "Souss-Massa",
        "population": -1,
        "latitude": 30.637659,
        "longitude": -8.631522
    },
    {
        "name": "Idghirene",
        "country": "Morocco",
        "province": "Tanger-Tetouan-Al Hoceima",
        "population": -1,
        "latitude": 35.057153,
        "longitude": -4.284687
    },
    {
        "name": "Ich Afoudene",
        "country": "Morocco",
        "province": "Souss-Massa",
        "population": -1,
        "latitude": 29.652191,
        "longitude": -9.957474
    },
    {
        "name": "Douar Iberranene",
        "country": "Morocco",
        "province": "Tanger-Tetouan-Al Hoceima",
        "population": -1,
        "latitude": 35.032721,
        "longitude": -4.383699
    },
    {
        "name": "Id Biydoukane",
        "country": "Morocco",
        "province": "Souss-Massa",
        "population": -1,
        "latitude": 29.66363,
        "longitude": -9.467672
    },
    {
        "name": "Ihdoumene",
        "country": "Morocco",
        "province": "Oriental",
        "population": -1,
        "latitude": 35.087587,
        "longitude": -3.065632
    },
    {
        "name": "Douar Iabboutene",
        "country": "Morocco",
        "province": "Oriental",
        "population": -1,
        "latitude": 35.238186,
        "longitude": -3.687494
    },
    {
        "name": "Douar Lehrakna",
        "country": "Morocco",
        "province": "Marrakesh-Safi",
        "population": -1,
        "latitude": 32.45947,
        "longitude": -7.939199
    },
    {
        "name": "Douar Hammiouach",
        "country": "Morocco",
        "province": "Tanger-Tetouan-Al Hoceima",
        "population": -1,
        "latitude": 35.538304,
        "longitude": -5.856643
    },
    {
        "name": "Halougt",
        "country": "Morocco",
        "province": "Drâa-Tafilalet",
        "population": -1,
        "latitude": 30.705158,
        "longitude": -7.315945
    },
    {
        "name": "Douar Hjar Abbas",
        "country": "Morocco",
        "province": "Tanger-Tetouan-Al Hoceima",
        "population": -1,
        "latitude": 34.578645,
        "longitude": -5.194543
    },
    {
        "name": "Had Brachoua",
        "country": "Morocco",
        "province": "Rabat-Salé-Kénitra",
        "population": -1,
        "latitude": 33.693728,
        "longitude": -6.632261
    },
    {
        "name": "El Mohor Jid",
        "country": "Morocco",
        "province": "Drâa-Tafilalet",
        "population": -1,
        "latitude": 32.707191,
        "longitude": -5.248651
    },
    {
        "name": "Had Abdallah Rhiat",
        "country": "Morocco",
        "province": "Marrakesh-Safi",
        "population": -1,
        "latitude": 31.519136,
        "longitude": -7.836914
    },
    {
        "name": "Habbou",
        "country": "Morocco",
        "province": "Marrakesh-Safi",
        "population": -1,
        "latitude": 31.177549,
        "longitude": -8.991622
    },
    {
        "name": "Gourrama",
        "country": "Morocco",
        "province": "Drâa-Tafilalet",
        "population": -1,
        "latitude": 32.340165,
        "longitude": -4.07349
    },
    {
        "name": "Legrinat",
        "country": "Morocco",
        "province": "Marrakesh-Safi",
        "population": -1,
        "latitude": 32.105063,
        "longitude": -7.99175
    },
    {
        "name": "Goumarat",
        "country": "Morocco",
        "province": "Marrakesh-Safi",
        "population": -1,
        "latitude": 32.062545,
        "longitude": -8.199746
    },
    {
        "name": "Fritissa",
        "country": "Morocco",
        "province": "Fès-Meknès",
        "population": -1,
        "latitude": 33.618996,
        "longitude": -3.549077
    },
    {
        "name": "Frahiyyne",
        "country": "Morocco",
        "province": "Rabat-Salé-Kénitra",
        "population": -1,
        "latitude": 34.990932,
        "longitude": -6.0062
    },
    {
        "name": "Fragna m’ta el Outa",
        "country": "Morocco",
        "province": "Fès-Meknès",
        "population": -1,
        "latitude": 34.390819,
        "longitude": -5.296492
    },
    {
        "name": "Foum Zguid",
        "country": "Morocco",
        "province": "Souss-Massa",
        "population": -1,
        "latitude": 30.087918,
        "longitude": -6.87119
    },
    {
        "name": "Al Ghafafra",
        "country": "Morocco",
        "province": "Béni Mellal-Khénifra",
        "population": -1,
        "latitude": 32.69235,
        "longitude": -6.953842
    },
    {
        "name": "Fes Jdid",
        "country": "Morocco",
        "province": "Fès-Meknès",
        "population": -1,
        "latitude": 34.054661,
        "longitude": -5.007246
    },
    {
        "name": "Douar Fes El Bali",
        "country": "Morocco",
        "province": "Fès-Meknès",
        "population": -1,
        "latitude": 34.550674,
        "longitude": -5.124402
    },
    {
        "name": "Fej Hannoune",
        "country": "Morocco",
        "province": "Tanger-Tetouan-Al Hoceima",
        "population": -1,
        "latitude": 35.451753,
        "longitude": -5.602964
    },
    {
        "name": "Fej Errih",
        "country": "Morocco",
        "province": "Tanger-Tetouan-Al Hoceima",
        "population": -1,
        "latitude": 35.434464,
        "longitude": -5.621997
    },
    {
        "name": "Fadragoum Itkhissane",
        "country": "Morocco",
        "province": "Drâa-Tafilalet",
        "population": -1,
        "latitude": 30.936125,
        "longitude": -6.951079
    },
    {
        "name": "Farsioua",
        "country": "Morocco",
        "province": "Tanger-Tetouan-Al Hoceima",
        "population": -1,
        "latitude": 35.826443,
        "longitude": -5.569947
    },
    {
        "name": "Farkhâna",
        "country": "Morocco",
        "province": "Oriental",
        "population": -1,
        "latitude": 35.28776,
        "longitude": -2.985331
    },
    {
        "name": "Douar Lferha",
        "country": "Morocco",
        "province": "Tanger-Tetouan-Al Hoceima",
        "population": -1,
        "latitude": 34.897138,
        "longitude": -5.560185
    },
    {
        "name": "Douar Ezzouaoiuyine",
        "country": "Morocco",
        "province": "Tanger-Tetouan-Al Hoceima",
        "population": -1,
        "latitude": 34.65834,
        "longitude": -5.44731
    },
    {
        "name": "Zawit Aït Haroun",
        "country": "Morocco",
        "province": "Souss-Massa",
        "population": -1,
        "latitude": 29.779984,
        "longitude": -8.523197
    },
    {
        "name": "El Ghiate",
        "country": "Morocco",
        "province": "Marrakesh-Safi",
        "population": -1,
        "latitude": 32.036642,
        "longitude": -9.164049
    },
    {
        "name": "Tnine Lgharbia",
        "country": "Morocco",
        "province": "Casablanca-Settat",
        "population": -1,
        "latitude": 32.570486,
        "longitude": -8.854642
    },
    {
        "name": "Souk Tnine Bouchane",
        "country": "Morocco",
        "province": "Marrakesh-Safi",
        "population": -1,
        "latitude": 32.28714,
        "longitude": -8.315973
    },
    {
        "name": "Douar Tnine",
        "country": "Morocco",
        "province": "Tanger-Tetouan-Al Hoceima",
        "population": -1,
        "latitude": 35.397238,
        "longitude": -5.728208
    },
    {
        "name": "Tlet El Hanchane",
        "country": "Morocco",
        "province": "Marrakesh-Safi",
        "population": -1,
        "latitude": 31.522067,
        "longitude": -9.435939
    },
    {
        "name": "Souk Et-Tleta des Oulad Hamdane",
        "country": "Morocco",
        "province": "Casablanca-Settat",
        "population": -1,
        "latitude": 33.104437,
        "longitude": -8.250184
    },
    {
        "name": "’Tlat Bni Oukil",
        "country": "Morocco",
        "province": "Béni Mellal-Khénifra",
        "population": -1,
        "latitude": 32.576514,
        "longitude": -6.837394
    },
    {
        "name": "Et Tleta Bou Beker",
        "country": "Morocco",
        "province": "Oriental",
        "population": -1,
        "latitude": 34.826125,
        "longitude": -3.40646
    },
    {
        "name": "Douar Esselahma",
        "country": "Morocco",
        "province": "Rabat-Salé-Kénitra",
        "population": -1,
        "latitude": 34.593932,
        "longitude": -5.6822
    },
    {
        "name": "Souk Sebt Oulad Douib",
        "country": "Morocco",
        "province": "Casablanca-Settat",
        "population": -1,
        "latitude": 33.065412,
        "longitude": -8.509678
    },
    {
        "name": "Sebt Labrikiyne",
        "country": "Morocco",
        "province": "Marrakesh-Safi",
        "population": -1,
        "latitude": 32.294664,
        "longitude": -8.072646
    },
    {
        "name": "Douar Tassila Imassouane",
        "country": "Morocco",
        "province": "Marrakesh-Safi",
        "population": -1,
        "latitude": 31.107586,
        "longitude": -9.663976
    },
    {
        "name": "Errouis",
        "country": "Morocco",
        "province": "Souss-Massa",
        "population": -1,
        "latitude": 29.525387,
        "longitude": -9.56577
    },
    {
        "name": "Rouiyef",
        "country": "Morocco",
        "province": "Tanger-Tetouan-Al Hoceima",
        "population": -1,
        "latitude": 35.618735,
        "longitude": -5.78961
    },
    {
        "name": "Rihana",
        "country": "Morocco",
        "province": "Tanger-Tetouan-Al Hoceima",
        "population": -1,
        "latitude": 35.443011,
        "longitude": -5.77022
    },
    {
        "name": "Anjil Aït Lahsene",
        "country": "Morocco",
        "province": "Fès-Meknès",
        "population": -1,
        "latitude": 33.18553,
        "longitude": -4.551414
    },
    {
        "name": "Douar Zrahna",
        "country": "Morocco",
        "province": "Tanger-Tetouan-Al Hoceima",
        "population": -1,
        "latitude": 34.826943,
        "longitude": -5.752832
    },
    {
        "name": "Douar Ghdira",
        "country": "Morocco",
        "province": "Tanger-Tetouan-Al Hoceima",
        "population": -1,
        "latitude": 35.147769,
        "longitude": -6.175011
    },
    {
        "name": "Douar Leghechaouat",
        "country": "Morocco",
        "province": "Marrakesh-Safi",
        "population": -1,
        "latitude": 32.594372,
        "longitude": -7.975418
    },
    {
        "name": "Douar Ellouar",
        "country": "Morocco",
        "province": "Tanger-Tetouan-Al Hoceima",
        "population": -1,
        "latitude": 34.917669,
        "longitude": -5.630917
    },
    {
        "name": "Al Orjane",
        "country": "Morocco",
        "province": "Fès-Meknès",
        "population": -1,
        "latitude": 33.397968,
        "longitude": -3.727675
    },
    {
        "name": "El Meghassine",
        "country": "Morocco",
        "province": "Fès-Meknès",
        "population": -1,
        "latitude": 34.017844,
        "longitude": -5.489607
    },
    {
        "name": "Al Mramda",
        "country": "Morocco",
        "province": "Marrakesh-Safi",
        "population": -1,
        "latitude": 31.343626,
        "longitude": -8.381455
    },
    {
        "name": "El Mraj",
        "country": "Morocco",
        "province": "Tanger-Tetouan-Al Hoceima",
        "population": -1,
        "latitude": 34.841706,
        "longitude": -5.289734
    },
    {
        "name": "Mograne",
        "country": "Morocco",
        "province": "Rabat-Salé-Kénitra",
        "population": -1,
        "latitude": 34.40299,
        "longitude": -6.439492
    },
    {
        "name": "Lamhadi",
        "country": "Morocco",
        "province": "Marrakesh-Safi",
        "population": -1,
        "latitude": 32.297247,
        "longitude": -9.013444
    },
    {
        "name": "Douar Lemnaqra Smamra",
        "country": "Morocco",
        "province": "Casablanca-Settat",
        "population": -1,
        "latitude": 32.583624,
        "longitude": -8.71202
    },
    {
        "name": "Lkhaloua",
        "country": "Morocco",
        "province": "Tanger-Tetouan-Al Hoceima",
        "population": -1,
        "latitude": 35.531047,
        "longitude": -5.928176
    },
    {
        "name": "El Menzel",
        "country": "Morocco",
        "province": "Fès-Meknès",
        "population": -1,
        "latitude": 33.837575,
        "longitude": -4.544718
    },
    {
        "name": "Lemjibha",
        "country": "Morocco",
        "province": "Tanger-Tetouan-Al Hoceima",
        "population": -1,
        "latitude": 35.629241,
        "longitude": -5.629685
    },
    {
        "name": "Douar Lmarja",
        "country": "Morocco",
        "province": "Rabat-Salé-Kénitra",
        "population": -1,
        "latitude": 34.791049,
        "longitude": -5.911329
    },
    {
        "name": "Lmansoura",
        "country": "Morocco",
        "province": "Tanger-Tetouan-Al Hoceima",
        "population": -1,
        "latitude": 35.820851,
        "longitude": -5.521657
    },
    {
        "name": "Douar El Mellaliyine",
        "country": "Morocco",
        "province": "Tanger-Tetouan-Al Hoceima",
        "population": -1,
        "latitude": 35.626051,
        "longitude": -5.340604
    },
    {
        "name": "Douar Lamaiziyyine",
        "country": "Morocco",
        "province": "Rabat-Salé-Kénitra",
        "population": -1,
        "latitude": 34.818939,
        "longitude": -5.828437
    },
    {
        "name": "Lemaayzat",
        "country": "Morocco",
        "province": "Marrakesh-Safi",
        "population": -1,
        "latitude": 32.255594,
        "longitude": -8.789089
    },
    {
        "name": "Douar Lemhadi",
        "country": "Morocco",
        "province": "Marrakesh-Safi",
        "population": -1,
        "latitude": 31.686407,
        "longitude": -9.217546
    },