[
    {
        "name": "Podgorica",
        "country": "Montenegro",
        "province": "Podgorica",
        "population": 236852,
        "latitude": 42.4411111,
        "longitude": 19.2636111
    },
    {
        "name": "Herceg Novi",
        "country": "Montenegro",
        "province": "Herceg Novi",
        "population": 19536,
        "latitude": 42.453056,
        "longitude": 18.5375
    },
    {
        "name": "Nikšić",
        "country": "Montenegro",
        "province": "Opština Nikšić",
        "population": 58212,
        "latitude": 42.7731012847861,
        "longitude": 18.9444637298584
    },
    {
        "name": "Budva",
        "country": "Montenegro",
        "province": "Budva",
        "population": 18000,
        "latitude": 42.2863889,
        "longitude": 18.84
    },
    {
        "name": "Bar",
        "country": "Montenegro",
        "province": "Bar",
        "population": 17727,
        "latitude": 42.0937,
        "longitude": 19.09841
    },
    {
        "name": "Cetinje",
        "country": "Montenegro",
        "province": "Cetinje",
        "population": 15137,
        "latitude": 42.3906282607811,
        "longitude": 18.9141654968262
    },
    {
        "name": "Pljevlja",
        "country": "Montenegro",
        "province": "Pljevlja",
        "population": 19489,
        "latitude": 43.3567013750142,
        "longitude": 19.3584251403809
    },
    {
        "name": "Bijelo Polje",
        "country": "Montenegro",
        "province": "Bijelo Polje",
        "population": 15400,
        "latitude": 43.0383442127338,
        "longitude": 19.7475814819336
    },
    {
        "name": "Berane",
        "country": "Montenegro",
        "province": "Berane",
        "population": 11073,
        "latitude": 42.8425,
        "longitude": 19.8733333
    },
    {
        "name": "Ulcinj",
        "country": "Montenegro",
        "province": "Ulcinj",
        "population": 10828,
        "latitude": 41.9293574733799,
        "longitude": 19.2243576049805
    },
    {
        "name": "Andrijevica",
        "country": "Montenegro",
        "province": "Andrijevica",
        "population": 1073,
        "latitude": 42.7338889,
        "longitude": 19.7919444
    },
    {
        "name": "Kotor",
        "country": "Montenegro",
        "province": "Kotor",
        "population": 5345,
        "latitude": 42.4206686849951,
        "longitude": 18.768253326416
    },
    {
        "name": "Kolašin",
        "country": "Montenegro",
        "province": "Opština Kolašin",
        "population": 2989,
        "latitude": 42.8222877905939,
        "longitude": 19.5165252685547
    },
    {
        "name": "Danilovgrad",
        "country": "Montenegro",
        "province": "Danilovgrad",
        "population": 5208,
        "latitude": 42.5538390116343,
        "longitude": 19.1460800170898
    },
    {
        "name": "Zabljak",
        "country": "Montenegro",
        "province": "Opština Žabljak",
        "population": 1937,
        "latitude": 43.1542286281948,
        "longitude": 19.1232490539551
    },
    {
        "name": "Tivat",
        "country": "Montenegro",
        "province": "Tivat",
        "population": 6280,
        "latitude": 42.43623,
        "longitude": 18.69361
    },
    {
        "name": "Pluzine",
        "country": "Montenegro",
        "province": "Opština Plužine",
        "population": 1494,
        "latitude": 43.1527778,
        "longitude": 18.8394444
    },
    {
        "name": "Plav",
        "country": "Montenegro",
        "province": "Opština Plav",
        "population": 3615,
        "latitude": 42.596944,
        "longitude": 19.945556
    },
    {
        "name": "Rožaje",
        "country": "Montenegro",
        "province": "Rožaje Municipality",
        "population": 9121,
        "latitude": 42.8329890187418,
        "longitude": 20.1665210723877
    },
    {
        "name": "Gusinje",
        "country": "Montenegro",
        "province": "Gusinje",
        "population": 4,
        "latitude": 42.561944,
        "longitude": 19.833889
    },
    {
        "name": "Tuzi",
        "country": "Montenegro",
        "province": "Tuzi",
        "population": 3789,
        "latitude": 42.365556,
        "longitude": 19.331389
    },
    {
        "name": "Šavnik",
        "country": "Montenegro",
        "province": "Opština Šavnik",
        "population": 633,
        "latitude": 42.9563889,
        "longitude": 19.0966667
    },
    {
        "name": "Risan",
        "country": "Montenegro",
        "province": "Kotor",
        "population": 2083,
        "latitude": 42.515,
        "longitude": 18.6955556
    },
    {
        "name": "Mojkovac",
        "country": "Montenegro",
        "province": "Mojkovac",
        "population": 4120,
        "latitude": 42.9604426738014,
        "longitude": 19.5833015441895
    },
    {
        "name": "Šušanj",
        "country": "Montenegro",
        "province": "Bar",
        "population": 2521,
        "latitude": 42.115556,
        "longitude": 19.088333
    },
    {
        "name": "Petnjica",
        "country": "Montenegro",
        "province": "Petnjica",
        "population": -1,
        "latitude": 42.908889,
        "longitude": 19.964444
    },
    {
        "name": "Bijela",
        "country": "Montenegro",
        "province": "Herceg Novi",
        "population": 2395,
        "latitude": 42.453333,
        "longitude": 18.655556
    },
    {
        "name": "Igalo",
        "country": "Montenegro",
        "province": "Herceg Novi",
        "population": 3754,
        "latitude": 42.460066995185365,
        "longitude": 18.5064697265625
    },
    {
        "name": "Goričani",
        "country": "Montenegro",
        "province": "Podgorica",
        "population": 1205,
        "latitude": 42.3322222,
        "longitude": 19.2119444
    },
    {
        "name": "Sutomore",
        "country": "Montenegro",
        "province": "Bar",
        "population": 1827,
        "latitude": 42.1427778,
        "longitude": 19.0466667
    },
    {
        "name": "Stari Bar",
        "country": "Montenegro",
        "province": "Bar",
        "population": 1514,
        "latitude": 42.097,
        "longitude": 19.136
    },
    {
        "name": "Spuž",
        "country": "Montenegro",
        "province": "Danilovgrad",
        "population": 1241,
        "latitude": 42.515,
        "longitude": 19.195
    },
    {
        "name": "Prčanj",
        "country": "Montenegro",
        "province": "Kotor",
        "population": 1244,
        "latitude": 42.4575,
        "longitude": 18.742222
    },
    {
        "name": "Petrovac na Moru",
        "country": "Montenegro",
        "province": "Budva",
        "population": 1485,
        "latitude": 42.2055556,
        "longitude": 18.9425
    },
    {
        "name": "Perast",
        "country": "Montenegro",
        "province": "Kotor",
        "population": 551,
        "latitude": 42.4869444,
        "longitude": 18.6991667
    },
    {
        "name": "Mojanovići",
        "country": "Montenegro",
        "province": "Podgorica",
        "population": 1800,
        "latitude": 42.3416667,
        "longitude": 19.2213889
    },
    {
        "name": "Mataguži",
        "country": "Montenegro",
        "province": "Podgorica",
        "population": 1132,
        "latitude": 42.3236111,
        "longitude": 19.2727778
    },
    {
        "name": "Prisoje",
        "country": "Montenegro",
        "province": "Pljevlja",
        "population": -1,
        "latitude": 43.521667,
        "longitude": 19.170556
    },
    {
        "name": "Močevići",
        "country": "Montenegro",
        "province": "Pljevlja",
        "population": -1,
        "latitude": 43.5452778,
        "longitude": 18.9936111
    },
    {
        "name": "Geuši",
        "country": "Montenegro",
        "province": "Pljevlja",
        "population": -1,
        "latitude": 43.5027778,
        "longitude": 18.9241667
    },
    {
        "name": "Zaselje",
        "country": "Montenegro",
        "province": "Pljevlja",
        "population": -1,
        "latitude": 43.4466667,
        "longitude": 19.1922222
    },
    {
        "name": "Mironići",
        "country": "Montenegro",
        "province": "Pljevlja",
        "population": -1,
        "latitude": 43.459167,
        "longitude": 19.169722
    },
    {
        "name": "Čardak",
        "country": "Montenegro",
        "province": "Pljevlja",
        "population": -1,
        "latitude": 43.4472222,
        "longitude": 19.1797222
    },
    {
        "name": "Kotorac",
        "country": "Montenegro",
        "province": "Pljevlja",
        "population": -1,
        "latitude": 43.43,
        "longitude": 19.1880556
    },
    {
        "name": "Crno Brdo",
        "country": "Montenegro",
        "province": "Pljevlja",
        "population": -1,
        "latitude": 43.4133333,
        "longitude": 19.17
    },
    {
        "name": "Kukavice",
        "country": "Montenegro",
        "province": "Pljevlja",
        "population": 159,
        "latitude": 43.5,
        "longitude": 19.081944
    },
    {
        "name": "Vijenac",
        "country": "Montenegro",
        "province": "Pljevlja",
        "population": -1,
        "latitude": 43.3886111,
        "longitude": 19.0955556
    },
    {
        "name": "Bjeloševina",
        "country": "Montenegro",
        "province": "Pljevlja",
        "population": 31,
        "latitude": 43.4411111,
        "longitude": 19.1330556
    },
    {
        "name": "Plakali",
        "country": "Montenegro",
        "province": "Pljevlja",
        "population": 16,
        "latitude": 43.456667,
        "longitude": 19.088056
    },
    {
        "name": "Tvrdakovići",
        "country": "Montenegro",
        "province": "Pljevlja",
        "population": -1,
        "latitude": 43.4591667,
        "longitude": 19.0497222
    },
    {
        "name": "Jahovići",
        "country": "Montenegro",
        "province": "Pljevlja",
        "population": 68,
        "latitude": 43.45,
        "longitude": 19.0591667
    },
    {
        "name": "Sirčići",
        "country": "Montenegro",
        "province": "Pljevlja",
        "population": -1,
        "latitude": 43.4575,
        "longitude": 19.0594444
    },
    {
        "name": "Romač",
        "country": "Montenegro",
        "province": "Pljevlja",
        "population": -1,
        "latitude": 43.4463889,
        "longitude": 19.0433333
    },
    {
        "name": "Pižuri",
        "country": "Montenegro",
        "province": "Pljevlja",
        "population": 34,
        "latitude": 43.436111,
        "longitude": 19.201389
    },
    {
        "name": "Borišići",
        "country": "Montenegro",
        "province": "Pljevlja",
        "population": -1,
        "latitude": 43.4883333,
        "longitude": 19.02
    },
    {
        "name": "Kržava",
        "country": "Montenegro",
        "province": "Pljevlja",
        "population": -1,
        "latitude": 43.4738889,
        "longitude": 18.9963889
    },
    {
        "name": "Kruševo",
        "country": "Montenegro",
        "province": "Pljevlja",
        "population": -1,
        "latitude": 43.406111,
        "longitude": 19.029167
    },
    {
        "name": "Šćepan-Polje",
        "country": "Montenegro",
        "province": "Opština Plužine",
        "population": -1,
        "latitude": 43.3475,
        "longitude": 18.8458333
    },
    {
        "name": "Prehari",
        "country": "Montenegro",
        "province": "Pljevlja",
        "population": -1,
        "latitude": 43.4697222,
        "longitude": 19.0844444
    },
    {
        "name": "Laholo",
        "country": "Montenegro",
        "province": "Bijelo Polje",
        "population": -1,
        "latitude": 42.9802778,
        "longitude": 19.8252778
    },
    {
        "name": "Žurena",
        "country": "Montenegro",
        "province": "Bijelo Polje",
        "population": -1,
        "latitude": 42.9730556,
        "longitude": 19.8238889
    },
    {
        "name": "Kaludra",
        "country": "Montenegro",
        "province": "Bijelo Polje",
        "population": -1,
        "latitude": 42.9322222,
        "longitude": 19.8111111
    },
    {
        "name": "Živkovići",
        "country": "Montenegro",
        "province": "Podgorica",
        "population": -1,
        "latitude": 42.501389,
        "longitude": 19.392778
    },
    {
        "name": "Smailagića Polje",
        "country": "Montenegro",
        "province": "Opština Kolašin",
        "population": -1,
        "latitude": 42.8244444,
        "longitude": 19.5433333
    },
    {
        "name": "Rudnica",
        "country": "Montenegro",
        "province": "Mojkovac",
        "population": -1,
        "latitude": 42.9597222,
        "longitude": 19.5986111
    },
    {
        "name": "Njivice",
        "country": "Montenegro",
        "province": "Herceg Novi",
        "population": -1,
        "latitude": 42.4355556,
        "longitude": 18.5136111
    },
    {
        "name": "Vodno",
        "country": "Montenegro",
        "province": "Pljevlja",
        "population": -1,
        "latitude": 43.1786111,
        "longitude": 19.5105556
    },
    {
        "name": "Barice",
        "country": "Montenegro",
        "province": "Bijelo Polje",
        "population": -1,
        "latitude": 43.0163889,
        "longitude": 19.7269444
    },
    {
        "name": "Femića Krš",
        "country": "Montenegro",
        "province": "Bijelo Polje",
        "population": -1,
        "latitude": 42.9741667,
        "longitude": 19.7902778
    },
    {
        "name": "Kosanica",
        "country": "Montenegro",
        "province": "Pljevlja",
        "population": -1,
        "latitude": 43.1930556,
        "longitude": 19.3216667
    },
    {
        "name": "Vrba",
        "country": "Montenegro",
        "province": "Pljevlja",
        "population": -1,
        "latitude": 43.345,
        "longitude": 19.1330556
    },
    {
        "name": "Prošče",
        "country": "Montenegro",
        "province": "Pljevlja",
        "population": -1,
        "latitude": 43.4433333,
        "longitude": 19.0927778
    },
    {
        "name": "Zagrađe",
        "country": "Montenegro",
        "province": "Podgorica",
        "population": -1,
        "latitude": 42.5194444,
        "longitude": 19.3416667
    },
    {
        "name": "Valdanos",
        "country": "Montenegro",
        "province": "Ulcinj",
        "population": -1,
        "latitude": 41.9491667,
        "longitude": 19.1658333
    },
    {
        "name": "Velika Plaža",
        "country": "Montenegro",
        "province": "Ulcinj",
        "population": -1,
        "latitude": 41.9122222,
        "longitude": 19.2477778
    },
    {
        "name": "Donja Klezna",
        "country": "Montenegro",
        "province": "Ulcinj",
        "population": -1,
        "latitude": 41.9866667,
        "longitude": 19.2786111
    },
    {
        "name": "Lugovi",
        "country": "Montenegro",
        "province": "Pljevlja",
        "population": -1,
        "latitude": 43.3725,
        "longitude": 19.2222222
    },
    {
        "name": "Odžak",
        "country": "Montenegro",
        "province": "Pljevlja",
        "population": -1,
        "latitude": 43.3669444,
        "longitude": 19.2408333
    },
    {
        "name": "Kovačevići",
        "country": "Montenegro",
        "province": "Pljevlja",
        "population": -1,
        "latitude": 43.4152778,
        "longitude": 19.2013889
    },
    {
        "name": "Dubrava",
        "country": "Montenegro",
        "province": "Pljevlja",
        "population": -1,
        "latitude": 43.4936111,
        "longitude": 19.2155556
    },
    {
        "name": "Gradina",
        "country": "Montenegro",
        "province": "Pljevlja",
        "population": -1,
        "latitude": 43.3913889,
        "longitude": 19.2788889
    },
    {
        "name": "Rujevica",
        "country": "Montenegro",
        "province": "Pljevlja",
        "population": -1,
        "latitude": 43.3386111,
        "longitude": 19.2461111
    },
    {
        "name": "Konik",
        "country": "Montenegro",
        "province": "Podgorica",
        "population": -1,
        "latitude": 42.4369444,
        "longitude": 19.2833333
    },
    {
        "name": "Loznica",
        "country": "Montenegro",
        "province": "Bijelo Polje",
        "population": -1,
        "latitude": 43.037222,
        "longitude": 19.764444
    },
    {
        "name": "Zaton",
        "country": "Montenegro",
        "province": "Bijelo Polje",
        "population": -1,
        "latitude": 43.0030556,
        "longitude": 19.7861111
    },
    {
        "name": "Njegnjevo",
        "country": "Montenegro",
        "province": "Bijelo Polje",
        "population": -1,
        "latitude": 43.083611,
        "longitude": 19.784722
    },
    {
        "name": "Gubavač",
        "country": "Montenegro",
        "province": "Bijelo Polje",
        "population": -1,
        "latitude": 43.096667,
        "longitude": 19.781944
    },
    {
        "name": "Voljavac",
        "country": "Montenegro",
        "province": "Bijelo Polje",
        "population": -1,
        "latitude": 43.1136111,
        "longitude": 19.7866667
    },
    {
        "name": "Gornje Selo",
        "country": "Montenegro",
        "province": "Bijelo Polje",
        "population": -1,
        "latitude": 43.145,
        "longitude": 19.7722222
    },
    {
        "name": "Dubovo",
        "country": "Montenegro",
        "province": "Cetinje",
        "population": 10,
        "latitude": 42.329722,
        "longitude": 19.014722
    },
    {
        "name": "Zaselje",
        "country": "Montenegro",
        "province": "Cetinje",
        "population": -1,
        "latitude": 42.5625,
        "longitude": 18.8358333
    },
    {
        "name": "Malov Do",
        "country": "Montenegro",
        "province": "Kotor",
        "population": -1,
        "latitude": 42.5738889,
        "longitude": 18.6347222
    },
    {
        "name": "Žiljak",
        "country": "Montenegro",
        "province": "Bijelo Polje",
        "population": -1,
        "latitude": 43.0802778,
        "longitude": 19.8252778
    },
    {
        "name": "Rodijelja",
        "country": "Montenegro",
        "province": "Bijelo Polje",
        "population": -1,
        "latitude": 43.098889,
        "longitude": 19.800278
    },
    {
        "name": "Burtaiši",
        "country": "Montenegro",
        "province": "Bar",
        "population": 4,
        "latitude": 42.095,
        "longitude": 19.1136111
    },
    {
        "name": "Orahovo",
        "country": "Montenegro",
        "province": "Bar",
        "population": 5,
        "latitude": 42.2436111,
        "longitude": 19.0644444
    },
    {
        "name": "Brda",
        "country": "Montenegro",
        "province": "Cetinje",
        "population": 5,
        "latitude": 42.4427778,
        "longitude": 18.8738889
    },
    {
        "name": "Opatovo",
        "country": "Montenegro",
        "province": "Tivat",
        "population": 5,
        "latitude": 42.4566667,
        "longitude": 18.6825
    },
    {
        "name": "Škaljari",
        "country": "Montenegro",
        "province": "Kotor",
        "population": 543,
        "latitude": 42.4186111,
        "longitude": 18.7663889
    },
    {
        "name": "Franciskovići",
        "country": "Montenegro",
        "province": "Tivat",
        "population": -1,
        "latitude": 42.4080556,
        "longitude": 18.6547222
    },
    {
        "name": "Ravna Rijeka",
        "country": "Montenegro",
        "province": "Bijelo Polje",
        "population": -1,
        "latitude": 43.0097222,
        "longitude": 19.6480556
    },
    {
        "name": "Vitalac",
        "country": "Montenegro",
        "province": "Opština Nikšić",
        "population": -1,
        "latitude": 42.7769444,
        "longitude": 18.8994444
    },
    {
        "name": "Petrovac",
        "country": "Montenegro",
        "province": "Danilovgrad",
        "population": -1,
        "latitude": 42.5041667,
        "longitude": 19.0902778
    },
    {
        "name": "Dovolja",
        "country": "Montenegro",
        "province": "Pljevlja",
        "population": -1,
        "latitude": 43.1222222,
        "longitude": 19.3444444
    },
    {
        "name": "Beljkovići",
        "country": "Montenegro",
        "province": "Pljevlja",
        "population": 37,
        "latitude": 43.1716667,
        "longitude": 19.4158333
    },
    {
        "name": "Stančani",
        "country": "Montenegro",
        "province": "Pljevlja",
        "population": -1,
        "latitude": 43.1988889,
        "longitude": 19.3691667
    },
    {
        "name": "Potkrajci",
        "country": "Montenegro",
        "province": "Pljevlja",
        "population": -1,
        "latitude": 43.224444,
        "longitude": 19.438611
    },
    {
        "name": "Lijeska",
        "country": "Montenegro",
        "province": "Pljevlja",
        "population": 143,
        "latitude": 43.2211111,
        "longitude": 19.4116667
    },
    {
        "name": "Uremovići",
        "country": "Montenegro",
        "province": "Pljevlja",
        "population": -1,
        "latitude": 43.259167,
        "longitude": 19.330833
    },
    {
        "name": "Alići",
        "country": "Montenegro",
        "province": "Pljevlja",
        "population": -1,
        "latitude": 43.2558333,
        "longitude": 19.3563889
    },
    {
        "name": "Vilići",
        "country": "Montenegro",
        "province": "Pljevlja",
        "population": -1,
        "latitude": 43.2555556,
        "longitude": 19.3725
    },
    {
        "name": "Zabrđe",
        "country": "Montenegro",
        "province": "Pljevlja",
        "population": -1,
        "latitude": 43.3177778,
        "longitude": 19.3302778
    },
    {
        "name": "Meljak",
        "country": "Montenegro",
        "province": "Pljevlja",
        "population": -1,
        "latitude": 43.3197222,
        "longitude": 19.3238889
    },
    {
        "name": "Komine",
        "country": "Montenegro",
        "province": "Pljevlja",
        "population": -1,
        "latitude": 43.3366667,
        "longitude": 19.3111111
    },
    {
        "name": "Zbljevo",
        "country": "Montenegro",
        "province": "Pljevlja",
        "population": -1,
        "latitude": 43.3272222,
        "longitude": 19.3066667
    },
    {
        "name": "Slatina",
        "country": "Montenegro",
        "province": "Pljevlja",
        "population": -1,
        "latitude": 43.3588889,
        "longitude": 19.4444444
    },
    {
        "name": "Pliješi",
        "country": "Montenegro",
        "province": "Pljevlja",
        "population": -1,
        "latitude": 43.476667,
        "longitude": 19.211389
    },
    {
        "name": "Čokrlije",
        "country": "Montenegro",
        "province": "Bijelo Polje",
        "population": -1,
        "latitude": 43.100833,
        "longitude": 19.628056
    },
    {
        "name": "Sadići",
        "country": "Montenegro",
        "province": "Bijelo Polje",
        "population": -1,
        "latitude": 43.1736111,
        "longitude": 19.6005556
    },
    {
        "name": "Selišta",
        "country": "Montenegro",
        "province": "Bijelo Polje",
        "population": -1,
        "latitude": 43.151389,
        "longitude": 19.665833
    },
    {
        "name": "Džafića Brdo",
        "country": "Montenegro",
        "province": "Bijelo Polje",
        "population": -1,
        "latitude": 43.043889,
        "longitude": 19.755556
    },
    {
        "name": "Mirac",
        "country": "Montenegro",
        "province": "Kotor",
        "population": -1,
        "latitude": 42.3838889,
        "longitude": 18.7819444
    },
    {
        "name": "Jasen",
        "country": "Montenegro",
        "province": "Bar",
        "population": -1,
        "latitude": 42.1972222,
        "longitude": 19.0402778
    },
    {
        "name": "Dušići",
        "country": "Montenegro",
        "province": "Tuzi",
        "population": -1,
        "latitude": 42.3458333,
        "longitude": 19.3075
    },
    {
        "name": "Orahovo",
        "country": "Montenegro",
        "province": "Podgorica",
        "population": -1,
        "latitude": 42.4869444,
        "longitude": 19.4394444
    },
    {
        "name": "Gornje Stravče",
        "country": "Montenegro",
        "province": "Podgorica",
        "population": -1,
        "latitude": 42.563889,
        "longitude": 19.464167
    },
    {
        "name": "Lugovi",
        "country": "Montenegro",
        "province": "Opština Kolašin",
        "population": -1,
        "latitude": 42.7969444,
        "longitude": 19.5111111
    },
    {
        "name": "Barice",
        "country": "Montenegro",
        "province": "Opština Kolašin",
        "population": -1,
        "latitude": 42.7686111,
        "longitude": 19.4147222
    },
    {
        "name": "Čavanj",
        "country": "Montenegro",
        "province": "Pljevlja",
        "population": -1,
        "latitude": 43.1525,
        "longitude": 19.3613889
    },
    {
        "name": "Buče",
        "country": "Montenegro",
        "province": "Berane",
        "population": -1,
        "latitude": 42.8219444,
        "longitude": 19.8547222
    },
    {
        "name": "Brajše",
        "country": "Montenegro",
        "province": "Ulcinj",
        "population": -1,
        "latitude": 42.023333,
        "longitude": 19.313889
    },
    {
        "name": "Buturiće",
        "country": "Montenegro",
        "province": "Bijelo Polje",
        "population": -1,
        "latitude": 43.069722,
        "longitude": 19.821389
    },
    {
        "name": "Boreti",
        "country": "Montenegro",
        "province": "Budva",
        "population": -1,
        "latitude": 42.283333,
        "longitude": 18.862222
    },
    {
        "name": "Boljanina",
        "country": "Montenegro",
        "province": "Bijelo Polje",
        "population": -1,
        "latitude": 43.0377778,
        "longitude": 19.7991667
    },
    {
        "name": "Boljanići",
        "country": "Montenegro",
        "province": "Pljevlja",
        "population": -1,
        "latitude": 43.455556,
        "longitude": 19.213333
    },
    {
        "name": "Bobovište",
        "country": "Montenegro",
        "province": "Bar",
        "population": -1,
        "latitude": 42.115278,
        "longitude": 19.271389
    },
    {
        "name": "Bioče",
        "country": "Montenegro",
        "province": "Podgorica",
        "population": 255,
        "latitude": 42.513056,
        "longitude": 19.351389
    },
    {
        "name": "Bijedići",
        "country": "Montenegro",
        "province": "Bijelo Polje",
        "population": -1,
        "latitude": 42.9333333,
        "longitude": 19.8333333
    },
    {
        "name": "Bečići",
        "country": "Montenegro",
        "province": "Montenegro",
        "population": 850,
        "latitude": 42.2838889,
        "longitude": 18.8691667
    },
    {
        "name": "Beran Selo",
        "country": "Montenegro",
        "province": "Berane",
        "population": -1,
        "latitude": 42.855278,
        "longitude": 19.863889
    },
    {
        "name": "Bajovo Polje",
        "country": "Montenegro",
        "province": "Opština Plužine",
        "population": -1,
        "latitude": 43.0127778,
        "longitude": 18.8783333
    },
    {
        "name": "Andželati",
        "country": "Montenegro",
        "province": "Andrijevica",
        "population": -1,
        "latitude": 42.718056,
        "longitude": 19.794167
    },
    {
        "name": "Ambula",
        "country": "Montenegro",
        "province": "Ulcinj",
        "population": -1,
        "latitude": 41.9802778,
        "longitude": 19.3525
    },
    {
        "name": "Lozna",
        "country": "Montenegro",
        "province": "Bijelo Polje",
        "population": -1,
        "latitude": 42.955,
        "longitude": 19.8758333
    },
    {
        "name": "Lipci",
        "country": "Montenegro",
        "province": "Montenegro",
        "population": 1200,
        "latitude": 42.4972222,
        "longitude": 18.6580556
    },
    {
        "name": "Leovo Brdo",
        "country": "Montenegro",
        "province": "Pljevlja",
        "population": 68,
        "latitude": 43.383333,
        "longitude": 19.108611
    },
    {
        "name": "Lazovići",
        "country": "Montenegro",
        "province": "Bijelo Polje",
        "population": -1,
        "latitude": 43.0227778,
        "longitude": 19.9986111
    },
    {
        "name": "Laz",
        "country": "Montenegro",
        "province": "Opština Nikšić",
        "population": -1,
        "latitude": 42.7561111,
        "longitude": 19.0377778
    },
    {
        "name": "Krćevina",
        "country": "Montenegro",
        "province": "Pljevlja",
        "population": -1,
        "latitude": 43.4166667,
        "longitude": 19.25
    },
    {
        "name": "Krasići",
        "country": "Montenegro",
        "province": "Tivat",
        "population": -1,
        "latitude": 42.4058333,
        "longitude": 18.6405556
    },
    {
        "name": "Kovren",
        "country": "Montenegro",
        "province": "Bijelo Polje",
        "population": -1,
        "latitude": 43.1708333,
        "longitude": 19.5625
    },
    {
        "name": "Kotlajići",
        "country": "Montenegro",
        "province": "Pljevlja",
        "population": -1,
        "latitude": 43.133611,
        "longitude": 19.385
    },
    {
        "name": "Kostići",
        "country": "Montenegro",
        "province": "Bijelo Polje",
        "population": -1,
        "latitude": 42.996667,
        "longitude": 19.831944
    },
    {
        "name": "Kostanica",
        "country": "Montenegro",
        "province": "Bijelo Polje",
        "population": -1,
        "latitude": 43.046944,
        "longitude": 19.858056
    },
    {
        "name": "Košare",
        "country": "Montenegro",
        "province": "Pljevlja",
        "population": -1,
        "latitude": 43.192222,
        "longitude": 19.340278
    },
    {
        "name": "Gornja Korita",
        "country": "Montenegro",
        "province": "Bijelo Polje",
        "population": -1,
        "latitude": 43.0075,
        "longitude": 19.966111
    },
    {
        "name": "Kordovina",
        "country": "Montenegro",
        "province": "Pljevlja",
        "population": -1,
        "latitude": 43.2077778,
        "longitude": 19.3905556
    },
    {
        "name": "Katun",
        "country": "Montenegro",
        "province": "Pljevlja",
        "population": -1,
        "latitude": 43.275556,
        "longitude": 19.345
    },
    {
        "name": "Kanje",
        "country": "Montenegro",
        "province": "Bijelo Polje",
        "population": -1,
        "latitude": 43.139167,
        "longitude": 19.756944
    },
    {
        "name": "Jagodni Do",
        "country": "Montenegro",
        "province": "Pljevlja",
        "population": -1,
        "latitude": 43.456667,
        "longitude": 19.150556
    },
    {
        "name": "Jabuka",
        "country": "Montenegro",
        "province": "Pljevlja",
        "population": -1,
        "latitude": 43.4366667,
        "longitude": 19.1436111
    },
    {
        "name": "Jablanovo",
        "country": "Montenegro",
        "province": "Bijelo Polje",
        "population": -1,
        "latitude": 43.0947222,
        "longitude": 19.8525
    },
    {
        "name": "Grahovo",
        "country": "Montenegro",
        "province": "Opština Nikšić",
        "population": -1,
        "latitude": 42.6525,
        "longitude": 18.6713889
    },
    {
        "name": "Gradina",
        "country": "Montenegro",
        "province": "Pljevlja",
        "population": -1,
        "latitude": 43.1002778,
        "longitude": 19.3444444
    },
    {
        "name": "Gradac",
        "country": "Montenegro",
        "province": "Opština Šavnik",
        "population": -1,
        "latitude": 42.95,
        "longitude": 19.0833333
    },
    {
        "name": "Grab",
        "country": "Montenegro",
        "province": "Cetinje",
        "population": -1,
        "latitude": 42.5330556,
        "longitude": 18.8255556
    },
    {
        "name": "Gornji Kokoti",
        "country": "Montenegro",
        "province": "Podgorica",
        "population": 144,
        "latitude": 42.3980556,
        "longitude": 19.1755556
    },
    {
        "name": "Gornje Zaostro",
        "country": "Montenegro",
        "province": "Berane",
        "population": -1,
        "latitude": 42.894444,
        "longitude": 19.836944
    },
    {
        "name": "Golubovci",
        "country": "Montenegro",
        "province": "Podgorica",
        "population": 4,
        "latitude": 42.335,
        "longitude": 19.231111
    },
    {
        "name": "Godinje",
        "country": "Montenegro",
        "province": "Bar",
        "population": -1,
        "latitude": 42.2213889,
        "longitude": 19.1105556
    },
    {
        "name": "Dubovo",
        "country": "Montenegro",
        "province": "Bijelo Polje",
        "population": -1,
        "latitude": 43.0127778,
        "longitude": 19.8213889
    },
    {
        "name": "Donji Dubac",
        "country": "Montenegro",
        "province": "Pljevlja",
        "population": -1,
        "latitude": 43.467222,
        "longitude": 19.098333
    },
    {
        "name": "Gornja Draževina",
        "country": "Montenegro",
        "province": "Podgorica",
        "population": -1,
        "latitude": 42.431111,
        "longitude": 19.135
    },
    {
        "name": "Dragaši",
        "country": "Montenegro",
        "province": "Pljevlja",
        "population": -1,
        "latitude": 43.2663889,
        "longitude": 19.2538889
    },
    {
        "name": "Donji Kokoti",
        "country": "Montenegro",
        "province": "Podgorica",
        "population": 523,
        "latitude": 42.4011111,
        "longitude": 19.1972222
    },
    {
        "name": "Donja Lastva",
        "country": "Montenegro",
        "province": "Tivat",
        "population": 674,
        "latitude": 42.443056,
        "longitude": 18.688611
    },
    {
        "name": "Dolac",
        "country": "Montenegro",
        "province": "Bijelo Polje",
        "population": -1,
        "latitude": 43.0594444,
        "longitude": 19.7638889
    },
    {
        "name": "Dolac",
        "country": "Montenegro",
        "province": "Berane",
        "population": -1,
        "latitude": 42.8466667,
        "longitude": 19.8527778
    },
    {
        "name": "Dobrota",
        "country": "Montenegro",
        "province": "Kotor",
        "population": 5435,
        "latitude": 42.454167,
        "longitude": 18.768333
    },
    {
        "name": "Dobrakovo",
        "country": "Montenegro",
        "province": "Bijelo Polje",
        "population": -1,
        "latitude": 43.139444,
        "longitude": 19.774444
    },
    {
        "name": "Dinoša",
        "country": "Montenegro",
        "province": "Podgorica",
        "population": 510,
        "latitude": 42.418611,
        "longitude": 19.338889
    },
    {
        "name": "Darza",
        "country": "Montenegro",
        "province": "Ulcinj",
        "population": -1,
        "latitude": 41.9480556,
        "longitude": 19.3177778
    },
    {
        "name": "Crni Vrh",
        "country": "Montenegro",
        "province": "Berane",
        "population": -1,
        "latitude": 42.8575,
        "longitude": 19.825
    },
    {
        "name": "Crniš",
        "country": "Montenegro",
        "province": "Bijelo Polje",
        "population": -1,
        "latitude": 42.9491667,
        "longitude": 19.9086111
    },
    {
        "name": "Crnča",
        "country": "Montenegro",
        "province": "Bijelo Polje",
        "population": -1,
        "latitude": 42.975278,
        "longitude": 19.853056
    },
    {
        "name": "Čevo",
        "country": "Montenegro",
        "province": "Cetinje",
        "population": -1,
        "latitude": 42.5461111,
        "longitude": 18.9175
    },
    {
        "name": "Cerovci",
        "country": "Montenegro",
        "province": "Pljevlja",
        "population": -1,
        "latitude": 43.3811111,
        "longitude": 19.1258333
    },
    {
        "name": "Čeluga",
        "country": "Montenegro",
        "province": "Bar",
        "population": -1,
        "latitude": 42.0811111,
        "longitude": 19.1127778
    },
    {
        "name": "Zupci",
        "country": "Montenegro",
        "province": "Bar",
        "population": -1,
        "latitude": 42.1280556,
        "longitude": 19.1225
    },
    {
        "name": "Zminjac",
        "country": "Montenegro",
        "province": "Bijelo Polje",
        "population": -1,
        "latitude": 43.025,
        "longitude": 19.850278
    },
    {
        "name": "Židovići",
        "country": "Montenegro",
        "province": "Pljevlja",
        "population": -1,
        "latitude": 43.3544444,
        "longitude": 19.3172222
    },
    {
        "name": "Zekavice",
        "country": "Montenegro",
        "province": "Pljevlja",
        "population": -1,
        "latitude": 43.2675,
        "longitude": 19.380833
    },
    {
        "name": "Zagrađe",
        "country": "Montenegro",
        "province": "Bar",
        "population": -1,
        "latitude": 42.146667,
        "longitude": 19.021667
    },
    {
        "name": "Vusanje",
        "country": "Montenegro",
        "province": "Gusinje",
        "population": -1,
        "latitude": 42.529444,
        "longitude": 19.840278
    },
    {
        "name": "Vuči Do",
        "country": "Montenegro",
        "province": "Cetinje",
        "population": -1,
        "latitude": 42.467222,
        "longitude": 18.852222
    },
    {
        "name": "Vrh",
        "country": "Montenegro",
        "province": "Bijelo Polje",
        "population": -1,
        "latitude": 43.0625,
        "longitude": 19.8997222
    },
    {
        "name": "Vojtina",
        "country": "Montenegro",
        "province": "Pljevlja",
        "population": -1,
        "latitude": 43.4233333,
        "longitude": 19.1630556
    },
    {
        "name": "Virpazar",
        "country": "Montenegro",
        "province": "Bar",
        "population": 337,
        "latitude": 42.2455556,
        "longitude": 19.0925
    },
    {
        "name": "Vilusi",
        "country": "Montenegro",
        "province": "Opština Nikšić",
        "population": -1,
        "latitude": 42.7275,
        "longitude": 18.595278
    },
    {
        "name": "Vaškovo",
        "country": "Montenegro",
        "province": "Pljevlja",
        "population": 153,
        "latitude": 43.094167,
        "longitude": 19.401944
    },
    {
        "name": "Ujniče",
        "country": "Montenegro",
        "province": "Bijelo Polje",
        "population": -1,
        "latitude": 43.0988889,
        "longitude": 19.7044444
    },
    {
        "name": "Ubli",
        "country": "Montenegro",
        "province": "Podgorica",
        "population": 493,
        "latitude": 42.5841667,
        "longitude": 19.2566667
    },
    {
        "name": "Tomba",
        "country": "Montenegro",
        "province": "Bar",
        "population": -1,
        "latitude": 42.0761111,
        "longitude": 19.1269444
    },
    {
        "name": "Tomaševo",
        "country": "Montenegro",
        "province": "Bijelo Polje",
        "population": -1,
        "latitude": 43.063056,
        "longitude": 19.638611
    },
    {
        "name": "Sveti Stefan",
        "country": "Montenegro",
        "province": "Montenegro",
        "population": 410,
        "latitude": 42.2561111,
        "longitude": 18.8913889
    },
    {
        "name": "Šumani",
        "country": "Montenegro",
        "province": "Pljevlja",
        "population": -1,
        "latitude": 43.2930556,
        "longitude": 19.3258333
    },
    {
        "name": "Stube",
        "country": "Montenegro",
        "province": "Bijelo Polje",
        "population": -1,
        "latitude": 43.038056,
        "longitude": 19.877778
    },
    {
        "name": "Srđevac",
        "country": "Montenegro",
        "province": "Bijelo Polje",
        "population": -1,
        "latitude": 42.9575,
        "longitude": 19.8533333
    },
    {
        "name": "Šljuke",
        "country": "Montenegro",
        "province": "Pljevlja",
        "population": 136,
        "latitude": 43.3611111,
        "longitude": 19.1277778
    },
    {
        "name": "Slatina",
        "country": "Montenegro",
        "province": "Andrijevica",
        "population": -1,
        "latitude": 42.7566667,
        "longitude": 19.7761111
    },
    {
        "name": "Šipačno",
        "country": "Montenegro",
        "province": "Opština Nikšić",
        "population": -1,
        "latitude": 42.8713889,
        "longitude": 18.9455556
    },
    {
        "name": "Šas",
        "country": "Montenegro",
        "province": "Ulcinj",
        "population": -1,
        "latitude": 41.9916667,
        "longitude": 19.32
    },
    {
        "name": "Rijeka Crnojevića",
        "country": "Montenegro",
        "province": "Cetinje",
        "population": 484,
        "latitude": 42.356389,
        "longitude": 19.025278
    },
    {
        "name": "Resnik",
        "country": "Montenegro",
        "province": "Bijelo Polje",
        "population": -1,
        "latitude": 43.0413889,
        "longitude": 19.7738889
    },
    {
        "name": "Reč",
        "country": "Montenegro",
        "province": "Ulcinj",
        "population": -1,
        "latitude": 41.9211111,
        "longitude": 19.3636111
    },
    {
        "name": "Rastovac",
        "country": "Montenegro",
        "province": "Opština Nikšić",
        "population": -1,
        "latitude": 42.8352778,
        "longitude": 18.9447222
    },
    {
        "name": "Rakonje",
        "country": "Montenegro",
        "province": "Bijelo Polje",
        "population": -1,
        "latitude": 43.0216667,
        "longitude": 19.7388889
    },
    {
        "name": "Donja Rakita",
        "country": "Montenegro",
        "province": "Bijelo Polje",
        "population": -1,
        "latitude": 42.979167,
        "longitude": 19.676667
    },
    {
        "name": "Radulići",
        "country": "Montenegro",
        "province": "Bijelo Polje",
        "population": -1,
        "latitude": 42.982778,
        "longitude": 19.886944
    },
    {
        "name": "Radojeva Glava",
        "country": "Montenegro",
        "province": "Bijelo Polje",
        "population": -1,
        "latitude": 43.0777778,
        "longitude": 19.8438889
    },
    {
        "name": "Rabitlje",
        "country": "Montenegro",
        "province": "Pljevlja",
        "population": -1,
        "latitude": 43.305,
        "longitude": 19.3825
    },
    {
        "name": "Pušanjski Do",
        "country": "Montenegro",
        "province": "Pljevlja",
        "population": -1,
        "latitude": 43.163611,
        "longitude": 19.33
    },
    {
        "name": "Pripčići",
        "country": "Montenegro",
        "province": "Bijelo Polje",
        "population": -1,
        "latitude": 43.005556,
        "longitude": 19.738611
    },
    {
        "name": "Prijevor",
        "country": "Montenegro",
        "province": "Budva",
        "population": -1,
        "latitude": 42.2905556,
        "longitude": 18.815
    },
    {
        "name": "Pridvorica",
        "country": "Montenegro",
        "province": "Opština Šavnik",
        "population": -1,
        "latitude": 42.9647222,
        "longitude": 19.0644444
    },
    {
        "name": "Pračica",
        "country": "Montenegro",
        "province": "Pljevlja",
        "population": 91,
        "latitude": 43.4041667,
        "longitude": 19.1091667
    },
    {
        "name": "Požeginja",
        "country": "Montenegro",
        "province": "Bijelo Polje",
        "population": -1,
        "latitude": 43.102222,
        "longitude": 19.871389
    },
    {
        "name": "Podtrlica",
        "country": "Montenegro",
        "province": "Pljevlja",
        "population": -1,
        "latitude": 43.344444,
        "longitude": 19.369722
    },
    {
        "name": "Potkrajci",
        "country": "Montenegro",
        "province": "Bijelo Polje",
        "population": -1,
        "latitude": 43.070556,
        "longitude": 19.774722
    },
    {
        "name": "Popov Do",
        "country": "Montenegro",
        "province": "Pljevlja",
        "population": 41,
        "latitude": 43.3733333,
        "longitude": 19.1019444
    },
    {
        "name": "Polje",
        "country": "Montenegro",
        "province": "Bar",
        "population": -1,
        "latitude": 42.0827778,
        "longitude": 19.1066667
    },
    {
        "name": "Podi",
        "country": "Montenegro",
        "province": "Herceg Novi",
        "population": -1,
        "latitude": 42.4636111,
        "longitude": 18.5433333
    },
    {
        "name": "Poda",
        "country": "Montenegro",
        "province": "Bijelo Polje",
        "population": -1,
        "latitude": 42.9436111,
        "longitude": 19.8525
    },
    {
        "name": "Pobretiće",
        "country": "Montenegro",
        "province": "Bijelo Polje",
        "population": -1,
        "latitude": 43.062778,
        "longitude": 19.835833
    },
    {
        "name": "Pikalja",
        "country": "Montenegro",
        "province": "Podgorica",
        "population": 273,
        "latitude": 42.404722,
        "longitude": 19.378611
    },
    {
        "name": "Petnjik",
        "country": "Montenegro",
        "province": "Berane",
        "population": -1,
        "latitude": 42.833056,
        "longitude": 19.904722
    },
    {
        "name": "Pešca",
        "country": "Montenegro",
        "province": "Berane",
        "population": -1,
        "latitude": 42.8288889,
        "longitude": 19.8647222
    },
    {
        "name": "Pećarska",
        "country": "Montenegro",
        "province": "Bijelo Polje",
        "population": -1,
        "latitude": 43.1016667,
        "longitude": 19.8227778
    },
    {
        "name": "Pauče",
        "country": "Montenegro",
        "province": "Pljevlja",
        "population": -1,
        "latitude": 43.318889,
        "longitude": 19.285
    },
    {
        "name": "Ozrinići",
        "country": "Montenegro",
        "province": "Opština Nikšić",
        "population": -1,
        "latitude": 42.756389,
        "longitude": 18.986389
    },
    {
        "name": "Osmanbegovo Selo",
        "country": "Montenegro",
        "province": "Bijelo Polje",
        "population": -1,
        "latitude": 43.0422222,
        "longitude": 19.9566667
    },
    {
        "name": "Odžak",
        "country": "Montenegro",
        "province": "Pljevlja",
        "population": -1,
        "latitude": 43.2722222,
        "longitude": 19.3519444
    },
    {
        "name": "Obrov",
        "country": "Montenegro",
        "province": "Bijelo Polje",
        "population": -1,
        "latitude": 43.028056,
        "longitude": 19.749444
    },
    {
        "name": "Njeguši",
        "country": "Montenegro",
        "province": "Cetinje",
        "population": 517,
        "latitude": 42.433878113513025,
        "longitude": 18.810181617736816
    },
    {
        "name": "Nik Maraš",
        "country": "Montenegro",
        "province": "Tuzi",
        "population": -1,
        "latitude": 42.441944,
        "longitude": 19.436111
    },
    {
        "name": "Nedakusi",
        "country": "Montenegro",
        "province": "Bijelo Polje",
        "population": -1,
        "latitude": 43.0563889,
        "longitude": 19.7680556
    },
    {
        "name": "Mrčevac",
        "country": "Montenegro",
        "province": "Tivat",
        "population": 797,
        "latitude": 42.42,
        "longitude": 18.7180556
    },
    {
        "name": "Moraice",
        "country": "Montenegro",
        "province": "Pljevlja",
        "population": 217,
        "latitude": 43.271944,
        "longitude": 19.134444
    },
    {
        "name": "Mokri Lug",
        "country": "Montenegro",
        "province": "Bijelo Polje",
        "population": -1,
        "latitude": 43.0669444,
        "longitude": 19.8758333
    },
    {
        "name": "Mirojevići",
        "country": "Montenegro",
        "province": "Bijelo Polje",
        "population": -1,
        "latitude": 43.073889,
        "longitude": 19.833611
    },
    {
        "name": "Metanjac",
        "country": "Montenegro",
        "province": "Bijelo Polje",
        "population": -1,
        "latitude": 43.120278,
        "longitude": 19.77
    },
    {
        "name": "Metaljka",
        "country": "Montenegro",
        "province": "Pljevlja",
        "population": -1,
        "latitude": 43.528333,
        "longitude": 19.1475
    },
    {
        "name": "Meljine",
        "country": "Montenegro",
        "province": "Herceg Novi",
        "population": -1,
        "latitude": 42.455833,
        "longitude": 18.561944
    },
    {
        "name": "Mateševo",
        "country": "Montenegro",
        "province": "Opština Kolašin",
        "population": -1,
        "latitude": 42.7611111,
        "longitude": 19.5533333
    },
    {
        "name": "Mahala",
        "country": "Montenegro",
        "province": "Podgorica",
        "population": -1,
        "latitude": 42.3508333,
        "longitude": 19.215
    },
    {
        "name": "Knežlaz",
        "country": "Montenegro",
        "province": "Kotor",
        "population": -1,
        "latitude": 42.541944,
        "longitude": 18.678056
    },
    {
        "name": "Unijerina",
        "country": "Montenegro",
        "province": "Kotor",
        "population": -1,
        "latitude": 42.551111,
        "longitude": 18.649722
    },
    {
        "name": "Kumbor",
        "country": "Montenegro",
        "province": "Herceg Novi",
        "population": -1,
        "latitude": 42.440556,
        "longitude": 18.585833
    },
    {
        "name": "Bogaje",
        "country": "Montenegro",
        "province": "Rožaje Municipality",
        "population": -1,
        "latitude": 42.846111,
        "longitude": 20.085
    },
    {
        "name": "Bijela Crkva",
        "country": "Montenegro",
        "province": "Rožaje Municipality",
        "population": -1,
        "latitude": 42.8761111,
        "longitude": 20.1969444
    },
    {
        "name": "Ibarac",
        "country": "Montenegro",
        "province": "Rožaje Municipality",
        "population": -1,
        "latitude": 42.8361111,
        "longitude": 20.1619444
    },
    {
        "name": "Grahovo",
        "country": "Montenegro",
        "province": "Rožaje Municipality",
        "population": -1,
        "latitude": 42.869444,
        "longitude": 20.176111
    },
    {
        "name": "Ribarevina",
        "country": "Montenegro",
        "province": "Bijelo Polje",
        "population": -1,
        "latitude": 42.994113,
        "longitude": 19.744689
    },
    {
        "name": "Klakorina",
        "country": "Montenegro",
        "province": "Pljevlja",
        "population": -1,
        "latitude": 43.513889,
        "longitude": 19.038056
    },
    {
        "name": "Dužice",
        "country": "Montenegro",
        "province": "Pljevlja",
        "population": -1,
        "latitude": 43.5291667,
        "longitude": 19.0238889
    },
    {
        "name": "Srečanje",
        "country": "Montenegro",
        "province": "Pljevlja",
        "population": -1,
        "latitude": 43.4869444,
        "longitude": 18.9794444
    },
    {
        "name": "Mrčići",
        "country": "Montenegro",
        "province": "Pljevlja",
        "population": -1,
        "latitude": 43.4655556,
        "longitude": 18.9836111
    },
    {
        "name": "Kovać",
        "country": "Montenegro",
        "province": "Pljevlja",
        "population": -1,
        "latitude": 43.4808333,
        "longitude": 19.1897222
    },
    {
        "name": "Potkovač",
        "country": "Montenegro",
        "province": "Pljevlja",
        "population": 235,
        "latitude": 43.463611,
        "longitude": 19.108056
    },
    {
        "name": "Strahov Do",
        "country": "Montenegro",
        "province": "Pljevlja",
        "population": -1,
        "latitude": 43.4591667,
        "longitude": 19.1305556
    },
    {
        "name": "Rađevići",
        "country": "Montenegro",
        "province": "Pljevlja",
        "population": 166,
        "latitude": 43.4438889,
        "longitude": 19.1580556
    },
    {
        "name": "Brda",
        "country": "Montenegro",
        "province": "Pljevlja",
        "population": -1,
        "latitude": 43.4758333,
        "longitude": 19.0452778
    },
    {
        "name": "Kolonija",
        "country": "Montenegro",
        "province": "Pljevlja",
        "population": -1,
        "latitude": 43.387778,
        "longitude": 19.065278
    },
    {
        "name": "Crhalj",
        "country": "Montenegro",
        "province": "Bijelo Polje",
        "population": -1,
        "latitude": 42.979167,
        "longitude": 19.924444
    },
    {
        "name": "Orah",
        "country": "Montenegro",
        "province": "Podgorica",
        "population": -1,
        "latitude": 42.582778,
        "longitude": 19.410556
    },
    {
        "name": "Lakine Lazine",
        "country": "Montenegro",
        "province": "Danilovgrad",
        "population": -1,
        "latitude": 42.611944,
        "longitude": 19.236111
    },
    {
        "name": "Vukotica",
        "country": "Montenegro",
        "province": "Danilovgrad",
        "population": -1,
        "latitude": 42.635556,
        "longitude": 19.244444
    },
    {
        "name": "Lipovo",
        "country": "Montenegro",
        "province": "Opština Kolašin",
        "population": -1,
        "latitude": 42.8708333,
        "longitude": 19.4211111
    },
    {
        "name": "Bobulja",
        "country": "Montenegro",
        "province": "Danilovgrad",
        "population": 127,
        "latitude": 42.553889,
        "longitude": 19.163333
    },
    {
        "name": "Sutorina",
        "country": "Montenegro",
        "province": "Herceg Novi",
        "population": -1,
        "latitude": 42.4736111,
        "longitude": 18.4738889
    },
    {
        "name": "Luštica",
        "country": "Montenegro",
        "province": "Herceg Novi",
        "population": -1,
        "latitude": 42.3966667,
        "longitude": 18.6019444
    },
    {
        "name": "Njeguši",
        "country": "Montenegro",
        "province": "Cetinje",
        "population": -1,
        "latitude": 42.4291667,
        "longitude": 18.8261111
    },
    {
        "name": "Kodre",
        "country": "Montenegro",
        "province": "Ulcinj",
        "population": -1,
        "latitude": 41.9297222,
        "longitude": 19.2388889
    },
    {
        "name": "Ljuće",
        "country": "Montenegro",
        "province": "Pljevlja",
        "population": -1,
        "latitude": 43.31,
        "longitude": 19.3066667
    },
    {
        "name": "Male Krće",
        "country": "Montenegro",
        "province": "Pljevlja",
        "population": -1,
        "latitude": 43.4177778,
        "longitude": 19.2816667
    },
    {
        "name": "Stara Varoš",
        "country": "Montenegro",
        "province": "Podgorica",
        "population": -1,
        "latitude": 42.4338889,
        "longitude": 19.2594444
    },
    {
        "name": "Rastoka",
        "country": "Montenegro",
        "province": "Bijelo Polje",
        "population": -1,
        "latitude": 43.029167,
        "longitude": 19.775833
    },
    {
        "name": "Orahovića",
        "country": "Montenegro",
        "province": "Bijelo Polje",
        "population": -1,
        "latitude": 43.1130556,
        "longitude": 19.75
    },
    {
        "name": "Mokanji",
        "country": "Montenegro",
        "province": "Podgorica",
        "population": 39,
        "latitude": 42.475278,
        "longitude": 19.090556
    },
    {
        "name": "Buronjski Do",
        "country": "Montenegro",
        "province": "Cetinje",
        "population": -1,
        "latitude": 42.358611,
        "longitude": 19.136389
    },
    {
        "name": "Potkula",
        "country": "Montenegro",
        "province": "Danilovgrad",
        "population": 233,
        "latitude": 42.570556,
        "longitude": 19.143611
    },
    {
        "name": "Velji Mikulići",
        "country": "Montenegro",
        "province": "Bar",
        "population": 5,
        "latitude": 42.080278,
        "longitude": 19.1875
    },
    {
        "name": "Podborova",
        "country": "Montenegro",
        "province": "Pljevlja",
        "population": -1,
        "latitude": 43.192222,
        "longitude": 19.453889
    },
    {
        "name": "Gornje Selo",
        "country": "Montenegro",
        "province": "Pljevlja",
        "population": -1,
        "latitude": 43.2641667,
        "longitude": 19.2938889
    },
    {
        "name": "Crnobori",
        "country": "Montenegro",
        "province": "Pljevlja",
        "population": -1,
        "latitude": 43.254167,
        "longitude": 19.308056
    },
    {
        "name": "Mrzovići",
        "country": "Montenegro",
        "province": "Pljevlja",
        "population": -1,
        "latitude": 43.3161111,
        "longitude": 19.3633333
    },
    {
        "name": "Borovica",
        "country": "Montenegro",
        "province": "Pljevlja",
        "population": -1,
        "latitude": 43.3036111,
        "longitude": 19.3158333
    },
    {
        "name": "Šljivansko",
        "country": "Montenegro",
        "province": "Pljevlja",
        "population": -1,
        "latitude": 43.321667,
        "longitude": 19.212778
    },
    {
        "name": "Potoci",
        "country": "Montenegro",
        "province": "Pljevlja",
        "population": -1,
        "latitude": 43.3597222,
        "longitude": 19.2552778
    },
    {
        "name": "Kotline",
        "country": "Montenegro",
        "province": "Pljevlja",
        "population": -1,
        "latitude": 43.3816667,
        "longitude": 19.3138889
    },
    {
        "name": "Potkruša",
        "country": "Montenegro",
        "province": "Pljevlja",
        "population": -1,
        "latitude": 43.335556,
        "longitude": 19.289444
    },
    {
        "name": "Veliko Krće",
        "country": "Montenegro",
        "province": "Pljevlja",
        "population": -1,
        "latitude": 43.406667,
        "longitude": 19.245556
    },
    {
        "name": "Potrk",
        "country": "Montenegro",
        "province": "Bijelo Polje",
        "population": -1,
        "latitude": 43.0447222,
        "longitude": 19.6144444
    },
    {
        "name": "Sokolac",
        "country": "Montenegro",
        "province": "Bijelo Polje",
        "population": -1,
        "latitude": 43.0866667,
        "longitude": 19.5736111
    },
    {
        "name": "Lekovina",
        "country": "Montenegro",
        "province": "Bijelo Polje",
        "population": -1,
        "latitude": 43.1519444,
        "longitude": 19.6125
    },
    {
        "name": "Pali",
        "country": "Montenegro",
        "province": "Bijelo Polje",
        "population": -1,
        "latitude": 43,
        "longitude": 19.664722
    },
    {
        "name": "Kičava",
        "country": "Montenegro",
        "province": "Bijelo Polje",
        "population": -1,
        "latitude": 43.163333,
        "longitude": 19.6675
    },
    {
        "name": "Sela",
        "country": "Montenegro",
        "province": "Bijelo Polje",
        "population": -1,
        "latitude": 43.080833,
        "longitude": 19.710833
    },
    {
        "name": "Razdolje",
        "country": "Montenegro",
        "province": "Opština Nikšić",
        "population": -1,
        "latitude": 42.886111,
        "longitude": 18.530278
    },
    {
        "name": "Rmuše",
        "country": "Montenegro",
        "province": "Berane",
        "population": -1,
        "latitude": 42.745556,
        "longitude": 19.936944
    },
    {
        "name": "Zelenika",
        "country": "Montenegro",
        "province": "Podgorica",
        "population": -1,
        "latitude": 42.417222,
        "longitude": 19.248333
    },
    {
        "name": "Benkaj",
        "country": "Montenegro",
        "province": "Tuzi",
        "population": -1,
        "latitude": 42.443611,
        "longitude": 19.481944
    },
    {
        "name": "Crkvice",
        "country": "Montenegro",
        "province": "Kotor",
        "population": -1,
        "latitude": 42.5611111,
        "longitude": 18.6308333
    },
    {
        "name": "Rpavac",
        "country": "Montenegro",
        "province": "Cetinje",
        "population": -1,
        "latitude": 42.543889,
        "longitude": 18.769167
    },
    {
        "name": "Prijelozi",
        "country": "Montenegro",
        "province": "Bijelo Polje",
        "population": -1,
        "latitude": 42.952778,
        "longitude": 19.791111
    },
    {
        "name": "Smočje",
        "country": "Montenegro",
        "province": "Opština Kolašin",
        "population": -1,
        "latitude": 42.829167,
        "longitude": 19.395556
    },
    {
        "name": "Čeline",
        "country": "Montenegro",
        "province": "Opština Nikšić",
        "population": -1,
        "latitude": 42.905278,
        "longitude": 18.858333
    },
    {
        "name": "Bušnje",
        "country": "Montenegro",
        "province": "Pljevlja",
        "population": -1,
        "latitude": 43.3780556,
        "longitude": 19.2797222
    },
    {
        "name": "Buljarica",
        "country": "Montenegro",
        "province": "Budva",
        "population": -1,
        "latitude": 42.1986111,
        "longitude": 18.9652778
    },
    {
        "name": "Bujake",
        "country": "Montenegro",
        "province": "Pljevlja",
        "population": -1,
        "latitude": 43.168056,
        "longitude": 19.393056
    },
    {
        "name": "Budimlja",
        "country": "Montenegro",
        "province": "Berane",
        "population": -1,
        "latitude": 42.863889,
        "longitude": 19.891667
    },
    {
        "name": "Braćeni",
        "country": "Montenegro",
        "province": "Bar",
        "population": -1,
        "latitude": 42.253611,
        "longitude": 19.078611
    },
    {
        "name": "Baščinovići",
        "country": "Montenegro",
        "province": "Pljevlja",
        "population": -1,
        "latitude": 43.287778,
        "longitude": 19.350833
    },
    {
        "name": "Borova",
        "country": "Montenegro",
        "province": "Pljevlja",
        "population": -1,
        "latitude": 43.171667,
        "longitude": 19.448056
    },
    {
        "name": "Bojke",
        "country": "Montenegro",
        "province": "Ulcinj",
        "population": -1,
        "latitude": 42.038333,
        "longitude": 19.286944
    },
    {
        "name": "Bojišta",
        "country": "Montenegro",
        "province": "Bijelo Polje",
        "population": -1,
        "latitude": 43,
        "longitude": 19.689722
    },
    {
        "name": "Donji Bogdašići",
        "country": "Montenegro",
        "province": "Tivat",
        "population": -1,
        "latitude": 42.425278,
        "longitude": 18.734722
    },
    {
        "name": "Bobovo",
        "country": "Montenegro",
        "province": "Pljevlja",
        "population": 292,
        "latitude": 43.2705556,
        "longitude": 19.1294444
    },
    {
        "name": "Bliškovo",
        "country": "Montenegro",
        "province": "Bijelo Polje",
        "population": -1,
        "latitude": 43.1427778,
        "longitude": 19.5477778
    },
    {
        "name": "Blatina",
        "country": "Montenegro",
        "province": "Opština Kolašin",
        "population": -1,
        "latitude": 42.8516667,
        "longitude": 19.4844444
    },
    {
        "name": "Bjeliši",
        "country": "Montenegro",
        "province": "Bar",
        "population": -1,
        "latitude": 42.100833,
        "longitude": 19.104167
    },
    {
        "name": "Bistrica Moračka",
        "country": "Montenegro",
        "province": "Opština Kolašin",
        "population": -1,
        "latitude": 42.816944,
        "longitude": 19.441944
    },
    {
        "name": "Kruševice",
        "country": "Montenegro",
        "province": "Herceg Novi",
        "population": -1,
        "latitude": 42.471667,
        "longitude": 18.642222
    },
    {
        "name": "Bare",
        "country": "Montenegro",
        "province": "Opština Šavnik",
        "population": -1,
        "latitude": 42.9380556,
        "longitude": 19.2363889
    },
    {
        "name": "Azanje",
        "country": "Montenegro",
        "province": "Petnjica",
        "population": -1,
        "latitude": 42.95,
        "longitude": 19.948056
    },
    {
        "name": "Arbneš",
        "country": "Montenegro",
        "province": "Ulcinj",
        "population": -1,
        "latitude": 42.075278,
        "longitude": 19.340278
    },
    {
        "name": "Lubnice",
        "country": "Montenegro",
        "province": "Berane",
        "population": -1,
        "latitude": 42.86,
        "longitude": 19.765556
    },
    {
        "name": "Ljutići",
        "country": "Montenegro",
        "province": "Pljevlja",
        "population": -1,
        "latitude": 43.2408333,
        "longitude": 19.4563889
    },
    {
        "name": "Lješnica",
        "country": "Montenegro",
        "province": "Bijelo Polje",
        "population": -1,
        "latitude": 43.0547222,
        "longitude": 19.7319444
    },
    {
        "name": "Leševići",
        "country": "Montenegro",
        "province": "Kotor",
        "population": -1,
        "latitude": 42.3675,
        "longitude": 18.725556
    },
    {
        "name": "Livari",
        "country": "Montenegro",
        "province": "Bar",
        "population": -1,
        "latitude": 42.128056,
        "longitude": 19.213611
    },
    {
        "name": "Mugošina Livada",
        "country": "Montenegro",
        "province": "Danilovgrad",
        "population": -1,
        "latitude": 42.485278,
        "longitude": 19.153889
    },
    {
        "name": "Lijeska",
        "country": "Montenegro",
        "province": "Bijelo Polje",
        "population": -1,
        "latitude": 43.0591667,
        "longitude": 19.6069444
    },
    {
        "name": "Lever Tara",
        "country": "Montenegro",
        "province": "Pljevlja",
        "population": 213,
        "latitude": 43.181111,
        "longitude": 19.248333
    },
    {
        "name": "Lepetani",
        "country": "Montenegro",
        "province": "Tivat",
        "population": 233,
        "latitude": 42.465278,
        "longitude": 18.685833
    },
    {
        "name": "Lađana",
        "country": "Montenegro",
        "province": "Pljevlja",
        "population": -1,
        "latitude": 43.305556,
        "longitude": 19.269167
    },
    {
        "name": "Kukulje",
        "country": "Montenegro",
        "province": "Bijelo Polje",
        "population": -1,
        "latitude": 43.0802778,
        "longitude": 19.7383333
    },
    {
        "name": "Krute",
        "country": "Montenegro",
        "province": "Bar",
        "population": -1,
        "latitude": 42.0169444,
        "longitude": 19.2519444
    },
    {
        "name": "Kruta",
        "country": "Montenegro",
        "province": "Ulcinj",
        "population": -1,
        "latitude": 41.971111,
        "longitude": 19.1825
    },
    {
        "name": "Krupice",
        "country": "Montenegro",
        "province": "Pljevlja",
        "population": -1,
        "latitude": 43.1216667,
        "longitude": 19.4380556
    },
    {
        "name": "Kozica",
        "country": "Montenegro",
        "province": "Pljevlja",
        "population": -1,
        "latitude": 43.229722,
        "longitude": 19.5325
    },
    {
        "name": "Korita",
        "country": "Montenegro",
        "province": "Bijelo Polje",
        "population": -1,
        "latitude": 43.037222,
        "longitude": 19.979722
    },
    {
        "name": "Kolijevka",
        "country": "Montenegro",
        "province": "Pljevlja",
        "population": -1,
        "latitude": 43.299722,
        "longitude": 19.1
    },
    {
        "name": "Koči",
        "country": "Montenegro",
        "province": "Tuzi",
        "population": -1,
        "latitude": 42.460556,
        "longitude": 19.403611
    },
    {
        "name": "Kalušići",
        "country": "Montenegro",
        "province": "Pljevlja",
        "population": -1,
        "latitude": 43.3366667,
        "longitude": 19.3416667
    },
    {
        "name": "Kaludra",
        "country": "Montenegro",
        "province": "Berane",
        "population": -1,
        "latitude": 42.783333,
        "longitude": 19.928611
    },
    {
        "name": "Kaluđerovići",
        "country": "Montenegro",
        "province": "Kotor",
        "population": -1,
        "latitude": 42.330556,
        "longitude": 18.797778
    },
    {
        "name": "Kakmuži",
        "country": "Montenegro",
        "province": "Pljevlja",
        "population": -1,
        "latitude": 43.288611,
        "longitude": 19.227778
    },
    {
        "name": "Jugovo",
        "country": "Montenegro",
        "province": "Pljevlja",
        "population": -1,
        "latitude": 43.4030556,
        "longitude": 19.3272222
    },
    {
        "name": "Gornja Jošica",
        "country": "Montenegro",
        "province": "Herceg Novi",
        "population": -1,
        "latitude": 42.465833,
        "longitude": 18.663333
    },
    {
        "name": "Jagoče",
        "country": "Montenegro",
        "province": "Bijelo Polje",
        "population": -1,
        "latitude": 42.9644444,
        "longitude": 19.8880556
    },
    {
        "name": "Jabučno",
        "country": "Montenegro",
        "province": "Bijelo Polje",
        "population": -1,
        "latitude": 43.019167,
        "longitude": 19.674167
    },
    {
        "name": "Ivanje",
        "country": "Montenegro",
        "province": "Bijelo Polje",
        "population": -1,
        "latitude": 43,
        "longitude": 19.87
    },
    {
        "name": "Hoćevina",
        "country": "Montenegro",
        "province": "Pljevlja",
        "population": -1,
        "latitude": 43.3180556,
        "longitude": 19.2480556
    },
    {
        "name": "Grevo",
        "country": "Montenegro",
        "province": "Pljevlja",
        "population": -1,
        "latitude": 43.32,
        "longitude": 19.3463889
    },
    {
        "name": "Grančarevo",
        "country": "Montenegro",
        "province": "Bijelo Polje",
        "population": -1,
        "latitude": 43.0988889,
        "longitude": 19.6769444
    },
    {
        "name": "Grahovac",
        "country": "Montenegro",
        "province": "Opština Nikšić",
        "population": -1,
        "latitude": 42.6877778,
        "longitude": 18.6113889
    },
    {
        "name": "Grab",
        "country": "Montenegro",
        "province": "Bijelo Polje",
        "population": -1,
        "latitude": 43.2055556,
        "longitude": 19.6177778
    },
    {
        "name": "Gotovuša",
        "country": "Montenegro",
        "province": "Pljevlja",
        "population": -1,
        "latitude": 43.4011111,
        "longitude": 19.2902778
    },
    {
        "name": "Gostilje Martinićko",
        "country": "Montenegro",
        "province": "Danilovgrad",
        "population": -1,
        "latitude": 42.571667,
        "longitude": 19.213889
    },
    {
        "name": "Gornji Stoliv",
        "country": "Montenegro",
        "province": "Tivat",
        "population": -1,
        "latitude": 42.466389,
        "longitude": 18.715278
    },
    {
        "name": "Gornji Rsojevići",
        "country": "Montenegro",
        "province": "Danilovgrad",
        "population": 93,
        "latitude": 42.611944,
        "longitude": 19.103611
    },
    {
        "name": "Gornja Brvenica",
        "country": "Montenegro",
        "province": "Pljevlja",
        "population": -1,
        "latitude": 43.378611,
        "longitude": 19.235278
    },
    {
        "name": "Goransko",
        "country": "Montenegro",
        "province": "Opština Plužine",
        "population": -1,
        "latitude": 43.1194444,
        "longitude": 18.8302778
    },
    {
        "name": "Goduša",
        "country": "Montenegro",
        "province": "Bijelo Polje",
        "population": -1,
        "latitude": 42.9669444,
        "longitude": 19.9397222
    },
    {
        "name": "Godijevo",
        "country": "Montenegro",
        "province": "Bijelo Polje",
        "population": -1,
        "latitude": 43,
        "longitude": 19.895
    },
    {
        "name": "Glisnica",
        "country": "Montenegro",
        "province": "Pljevlja",
        "population": -1,
        "latitude": 43.4063889,
        "longitude": 19.2080556
    },
    {
        "name": "Glibaći",
        "country": "Montenegro",
        "province": "Pljevlja",
        "population": 233,
        "latitude": 43.2202778,
        "longitude": 19.2375
    },
    {
        "name": "Glavaca",
        "country": "Montenegro",
        "province": "Berane",
        "population": -1,
        "latitude": 42.883333,
        "longitude": 19.775833
    },
    {
        "name": "Ðuraševići",
        "country": "Montenegro",
        "province": "Tivat",
        "population": -1,
        "latitude": 42.394722,
        "longitude": 18.688333
    },
    {
        "name": "Donji Stoliv",
        "country": "Montenegro",
        "province": "Tivat",
        "population": 354,
        "latitude": 42.469722,
        "longitude": 18.711111
    },
    {
        "name": "Donji Štoj",
        "country": "Montenegro",
        "province": "Ulcinj",
        "population": -1,
        "latitude": 41.910278,
        "longitude": 19.274722
    },
    {
        "name": "Donji Morinj",
        "country": "Montenegro",
        "province": "Herceg Novi",
        "population": -1,
        "latitude": 42.489444,
        "longitude": 18.647222
    },
    {
        "name": "Donje Lipovo",
        "country": "Montenegro",
        "province": "Opština Kolašin",
        "population": -1,
        "latitude": 42.8638889,
        "longitude": 19.4419444
    },
    {
        "name": "Donja Brvenica",
        "country": "Montenegro",
        "province": "Pljevlja",
        "population": -1,
        "latitude": 43.3736111,
        "longitude": 19.2283333
    },
    {
        "name": "Dobrsko Selo",
        "country": "Montenegro",
        "province": "Cetinje",
        "population": 166,
        "latitude": 42.379444,
        "longitude": 18.964444
    },
    {
        "name": "Dobrodole",
        "country": "Montenegro",
        "province": "Petnjica",
        "population": -1,
        "latitude": 42.964722,
        "longitude": 19.996944
    },
    {
        "name": "Dobrinje",
        "country": "Montenegro",
        "province": "Bijelo Polje",
        "population": -1,
        "latitude": 43.1513889,
        "longitude": 19.7197222
    },
    {
        "name": "Crni Vrh",
        "country": "Montenegro",
        "province": "Pljevlja",
        "population": -1,
        "latitude": 43.3866667,
        "longitude": 19.4038889
    },
    {
        "name": "Crljenice",
        "country": "Montenegro",
        "province": "Pljevlja",
        "population": -1,
        "latitude": 43.365278,
        "longitude": 19.415833
    },
    {
        "name": "Čestin",
        "country": "Montenegro",
        "province": "Pljevlja",
        "population": 116,
        "latitude": 43.4180556,
        "longitude": 19.03
    },
    {
        "name": "Cerovo",
        "country": "Montenegro",
        "province": "Bijelo Polje",
        "population": -1,
        "latitude": 43.0288889,
        "longitude": 19.7044444
    },
    {
        "name": "Zoganj",
        "country": "Montenegro",
        "province": "Ulcinj",
        "population": -1,
        "latitude": 41.948889,
        "longitude": 19.283611
    },
    {
        "name": "Zenica",
        "country": "Montenegro",
        "province": "Pljevlja",
        "population": -1,
        "latitude": 43.3047222,
        "longitude": 19.3441667
    },
    {
        "name": "Zelenika",
        "country": "Montenegro",
        "province": "Herceg Novi",
        "population": -1,
        "latitude": 42.451389,
        "longitude": 18.576667
    },
    {
        "name": "Zagrad",
        "country": "Montenegro",
        "province": "Opština Nikšić",
        "population": 550,
        "latitude": 42.75,
        "longitude": 19.0911111
    },
    {
        "name": "Žabljak Crnojevića",
        "country": "Montenegro",
        "province": "Podgorica",
        "population": -1,
        "latitude": 42.3172222,
        "longitude": 19.1586111
    },
    {
        "name": "Gornji Vukovci",
        "country": "Montenegro",
        "province": "Podgorica",
        "population": -1,
        "latitude": 42.334444,
        "longitude": 19.2
    },
    {
        "name": "Vrujice",
        "country": "Montenegro",
        "province": "Opština Kolašin",
        "population": -1,
        "latitude": 42.788889,
        "longitude": 19.417222
    },
    {
        "name": "Vrbica",
        "country": "Montenegro",
        "province": "Pljevlja",
        "population": -1,
        "latitude": 43.2941667,
        "longitude": 19.2858333
    },
    {
        "name": "Bistrica Lipovska",
        "country": "Montenegro",
        "province": "Opština Kolašin",
        "population": -1,
        "latitude": 42.863333,
        "longitude": 19.4825
    },
    {
        "name": "Vladni",
        "country": "Montenegro",
        "province": "Tuzi",
        "population": -1,
        "latitude": 42.343056,
        "longitude": 19.286111
    },
    {
        "name": "Vladimir",
        "country": "Montenegro",
        "province": "Ulcinj",
        "population": -1,
        "latitude": 42.0066667,
        "longitude": 19.3127778
    },
    {
        "name": "Višnjica",
        "country": "Montenegro",
        "province": "Pljevlja",
        "population": -1,
        "latitude": 43.3130556,
        "longitude": 19.185
    },
    {
        "name": "Vidre",
        "country": "Montenegro",
        "province": "Pljevlja",
        "population": -1,
        "latitude": 43.3486111,
        "longitude": 19.2986111
    },
    {
        "name": "Velika",
        "country": "Montenegro",
        "province": "Opština Plav",
        "population": -1,
        "latitude": 42.664444,
        "longitude": 19.956111
    },
    {
        "name": "Velestovo",
        "country": "Montenegro",
        "province": "Cetinje",
        "population": -1,
        "latitude": 42.5258333,
        "longitude": 18.9647222
    },
    {
        "name": "Varine",
        "country": "Montenegro",
        "province": "Pljevlja",
        "population": -1,
        "latitude": 43.1788889,
        "longitude": 19.3730556
    },
    {
        "name": "Trnovice",
        "country": "Montenegro",
        "province": "Pljevlja",
        "population": 124,
        "latitude": 43.3541667,
        "longitude": 19.1880556
    },
    {
        "name": "Trebesinj",
        "country": "Montenegro",
        "province": "Herceg Novi",
        "population": -1,
        "latitude": 42.472222,
        "longitude": 18.523889
    },
    {
        "name": "Traboin",
        "country": "Montenegro",
        "province": "Tuzi",
        "population": -1,
        "latitude": 42.398056,
        "longitude": 19.450556
    },
    {
        "name": "Sveti Nikola",
        "country": "Montenegro",
        "province": "Ulcinj",
        "population": -1,
        "latitude": 41.880833,
        "longitude": 19.375
    },
    {
        "name": "Sveti Ðorđe",
        "country": "Montenegro",
        "province": "Ulcinj",
        "population": -1,
        "latitude": 41.950556,
        "longitude": 19.344167
    },
    {
        "name": "Šula",
        "country": "Montenegro",
        "province": "Pljevlja",
        "population": 995,
        "latitude": 43.384722,
        "longitude": 19.073056
    },
    {
        "name": "Strojtenica",
        "country": "Montenegro",
        "province": "Bijelo Polje",
        "population": -1,
        "latitude": 43.069722,
        "longitude": 19.789167
    },
    {
        "name": "Stožer",
        "country": "Montenegro",
        "province": "Bijelo Polje",
        "population": -1,
        "latitude": 43.0988889,
        "longitude": 19.5111111
    },
    {
        "name": "Šobaići",
        "country": "Montenegro",
        "province": "Danilovgrad",
        "population": 60,
        "latitude": 42.627778,
        "longitude": 19.067778
    },
    {
        "name": "Šipovica",
        "country": "Montenegro",
        "province": "Bijelo Polje",
        "population": -1,
        "latitude": 43.021389,
        "longitude": 19.896389
    },
    {
        "name": "Sipanje",
        "country": "Montenegro",
        "province": "Bijelo Polje",
        "population": -1,
        "latitude": 43,
        "longitude": 19.9363889
    },
    {
        "name": "Šinđon",
        "country": "Montenegro",
        "province": "Cetinje",
        "population": 44,
        "latitude": 42.356944,
        "longitude": 19.040278
    },
    {
        "name": "Selišta",
        "country": "Montenegro",
        "province": "Pljevlja",
        "population": -1,
        "latitude": 43.490833,
        "longitude": 19.049167
    },
    {
        "name": "Selac",
        "country": "Montenegro",
        "province": "Pljevlja",
        "population": 63,
        "latitude": 43.1302778,
        "longitude": 19.3511111
    },
    {
        "name": "Rose",
        "country": "Montenegro",
        "province": "Herceg Novi",
        "population": 10,
        "latitude": 42.427222,
        "longitude": 18.556667
    },
    {
        "name": "Rasovo",
        "country": "Montenegro",
        "province": "Bijelo Polje",
        "population": -1,
        "latitude": 43.0608333,
        "longitude": 19.7836111
    },
    {
        "name": "Raći",
        "country": "Montenegro",
        "province": "Podgorica",
        "population": -1,
        "latitude": 42.517222,
        "longitude": 19.377778
    },
    {
        "name": "Premćani",
        "country": "Montenegro",
        "province": "Pljevlja",
        "population": 158,
        "latitude": 43.120278,
        "longitude": 19.371389
    },
    {
        "name": "Potpeće",
        "country": "Montenegro",
        "province": "Pljevlja",
        "population": -1,
        "latitude": 43.26,
        "longitude": 19.358889
    },
    {
        "name": "Pothum",
        "country": "Montenegro",
        "province": "Tuzi",
        "population": -1,
        "latitude": 42.308333,
        "longitude": 19.340833
    },
    {
        "name": "Podgora",
        "country": "Montenegro",
        "province": "Pljevlja",
        "population": 229,
        "latitude": 43.1986111,
        "longitude": 19.1541667
    },
    {
        "name": "Poblaće",
        "country": "Montenegro",
        "province": "Pljevlja",
        "population": -1,
        "latitude": 43.5105556,
        "longitude": 19.2027778
    },
    {
        "name": "Pliješevina",
        "country": "Montenegro",
        "province": "Pljevlja",
        "population": -1,
        "latitude": 43.3455556,
        "longitude": 19.2102778
    },
    {
        "name": "Petine",
        "country": "Montenegro",
        "province": "Pljevlja",
        "population": -1,
        "latitude": 43.4188889,
        "longitude": 19.0572222
    },
    {
        "name": "Pečurice",
        "country": "Montenegro",
        "province": "Bar",
        "population": -1,
        "latitude": 42.030278,
        "longitude": 19.173056
    },
    {
        "name": "Pavino Polje",
        "country": "Montenegro",
        "province": "Bijelo Polje",
        "population": -1,
        "latitude": 43.1375,
        "longitude": 19.6286111
    },
    {
        "name": "Pape",
        "country": "Montenegro",
        "province": "Bijelo Polje",
        "population": -1,
        "latitude": 43.0480556,
        "longitude": 19.6594444
    },
    {
        "name": "Otočići",
        "country": "Montenegro",
        "province": "Bar",
        "population": 149,
        "latitude": 42.256389,
        "longitude": 18.988056
    },
    {
        "name": "Otilovići",
        "country": "Montenegro",
        "province": "Pljevlja",
        "population": -1,
        "latitude": 43.3208333,
        "longitude": 19.4136111
    },
    {
        "name": "Orlja",
        "country": "Montenegro",
        "province": "Pljevlja",
        "population": -1,
        "latitude": 43.385833,
        "longitude": 19.195556
    },
    {
        "name": "Donji Orahovac",
        "country": "Montenegro",
        "province": "Kotor",
        "population": 28,
        "latitude": 42.490556,
        "longitude": 18.757778
    },
    {
        "name": "Okladi",
        "country": "Montenegro",
        "province": "Bijelo Polje",
        "population": -1,
        "latitude": 43.048611,
        "longitude": 19.695556
    },
    {
        "name": "Ograđenica",
        "country": "Montenegro",
        "province": "Pljevlja",
        "population": -1,
        "latitude": 43.25,
        "longitude": 19.088056
    },
    {
        "name": "Obarde",
        "country": "Montenegro",
        "province": "Pljevlja",
        "population": -1,
        "latitude": 43.2908333,
        "longitude": 19.5175
    },
    {
        "name": "Njegovuđa",
        "country": "Montenegro",
        "province": "Opština Žabljak",
        "population": 264,
        "latitude": 43.1225,
        "longitude": 19.220278
    },
    {
        "name": "Negobratina",
        "country": "Montenegro",
        "province": "Bijelo Polje",
        "population": -1,
        "latitude": 43.0283333,
        "longitude": 19.9225
    },
    {
        "name": "Nange",
        "country": "Montenegro",
        "province": "Pljevlja",
        "population": 133,
        "latitude": 43.4205556,
        "longitude": 19.0961111
    },
    {
        "name": "Mušovića Rijeka",
        "country": "Montenegro",
        "province": "Opština Kolašin",
        "population": -1,
        "latitude": 42.839444,
        "longitude": 19.5775
    },
    {
        "name": "Muslići",
        "country": "Montenegro",
        "province": "Bijelo Polje",
        "population": -1,
        "latitude": 43.0808333,
        "longitude": 19.6336111
    },
    {
        "name": "Murino",
        "country": "Montenegro",
        "province": "Opština Plav",
        "population": -1,
        "latitude": 42.661389,
        "longitude": 19.8825
    },
    {
        "name": "Mrčevo",
        "country": "Montenegro",
        "province": "Pljevlja",
        "population": 65,
        "latitude": 43.4163889,
        "longitude": 19.125
    },
    {
        "name": "Mojstir",
        "country": "Montenegro",
        "province": "Bijelo Polje",
        "population": -1,
        "latitude": 43.0794444,
        "longitude": 19.8722222
    },
    {
        "name": "Mioče",
        "country": "Montenegro",
        "province": "Bijelo Polje",
        "population": -1,
        "latitude": 43.130833,
        "longitude": 19.73
    },
    {
        "name": "Milunići",
        "country": "Montenegro",
        "province": "Pljevlja",
        "population": -1,
        "latitude": 43.3869444,
        "longitude": 19.3397222
    },
    {
        "name": "Mijakovići",
        "country": "Montenegro",
        "province": "Pljevlja",
        "population": -1,
        "latitude": 43.2311111,
        "longitude": 19.3808333
    },
    {
        "name": "Mezgalji",
        "country": "Montenegro",
        "province": "Berane",
        "population": -1,
        "latitude": 42.75,
        "longitude": 19.872222
    },
    {
        "name": "Medun",
        "country": "Montenegro",
        "province": "Podgorica",
        "population": -1,
        "latitude": 42.4725,
        "longitude": 19.3616667
    },
    {
        "name": "Mataruge",
        "country": "Montenegro",
        "province": "Pljevlja",
        "population": -1,
        "latitude": 43.2658333,
        "longitude": 19.4588889
    },
    {
        "name": "Marsenića Rijeka",
        "country": "Montenegro",
        "province": "Berane",
        "population": -1,
        "latitude": 42.782222,
        "longitude": 19.839167
    },
    {
        "name": "Maoče",
        "country": "Montenegro",
        "province": "Pljevlja",
        "population": -1,
        "latitude": 43.2033333,
        "longitude": 19.4147222
    },
    {
        "name": "Majstorovina",
        "country": "Montenegro",
        "province": "Bijelo Polje",
        "population": -1,
        "latitude": 42.974167,
        "longitude": 19.691667
    },
    {
        "name": "Šeničišta",
        "country": "Montenegro",
        "province": "Opština Nikšić",
        "population": -1,
        "latitude": 43.059444,
        "longitude": 18.669444
    },
    {
        "name": "Ševeljski Do",
        "country": "Montenegro",
        "province": "Opština Nikšić",
        "population": -1,
        "latitude": 42.704167,
        "longitude": 18.701389
    },
    {
        "name": "Žvinje",
        "country": "Montenegro",
        "province": "Herceg Novi",
        "population": -1,
        "latitude": 42.445556,
        "longitude": 18.499167
    },
    {
        "name": "Stijepčići",
        "country": "Montenegro",
        "province": "Herceg Novi",
        "population": -1,
        "latitude": 42.485833,
        "longitude": 18.538333
    },
    {
        "name": "Velike Crnokrpe",
        "country": "Montenegro",
        "province": "Rožaje Municipality",
        "population": -1,
        "latitude": 42.925,
        "longitude": 20.232778
    },
    {
        "name": "Donja Crnča",
        "country": "Montenegro",
        "province": "Rožaje Municipality",
        "population": -1,
        "latitude": 42.911944,
        "longitude": 20.323889
    },
    {
        "name": "Honciće",
        "country": "Montenegro",
        "province": "Rožaje Municipality",
        "population": -1,
        "latitude": 42.877222,
        "longitude": 20.103889
    },
    {
        "name": "Donja Lovnica",
        "country": "Montenegro",
        "province": "Rožaje Municipality",
        "population": -1,
        "latitude": 42.870556,
        "longitude": 20.138889
    },
    {
        "name": "Paučina",
        "country": "Montenegro",
        "province": "Rožaje Municipality",
        "population": -1,
        "latitude": 42.936389,
        "longitude": 20.146111
    },
    {
        "name": "Budechevitsa",
        "country": "Montenegro",
        "province": "Pljevlja",
        "population": 100,
        "latitude": 43.14841,
        "longitude": 19.29169
    },
    {
        "name": "Potkokot",
        "country": "Montenegro",
        "province": "Pljevlja",
        "population": -1,
        "latitude": 43.288611,
        "longitude": 19.105278
    },
    {
        "name": "Dublje",
        "country": "Montenegro",
        "province": "Pljevlja",
        "population": -1,
        "latitude": 43.434444,
        "longitude": 19.168611
    },
    {
        "name": "Rajišići",
        "country": "Montenegro",
        "province": "Pljevlja",
        "population": -1,
        "latitude": 43.495556,
        "longitude": 19.110556
    },
    {
        "name": "Ulica",
        "country": "Montenegro",
        "province": "Pljevlja",
        "population": -1,
        "latitude": 43.496944,
        "longitude": 19.128889
    },
    {
        "name": "Brekinja",
        "country": "Montenegro",
        "province": "Pljevlja",
        "population": -1,
        "latitude": 43.488333,
        "longitude": 19.134167
    },
    {
        "name": "Bajovina",
        "country": "Montenegro",
        "province": "Pljevlja",
        "population": -1,
        "latitude": 43.491389,
        "longitude": 19.143056
    },
    {
        "name": "Krstače",
        "country": "Montenegro",
        "province": "Pljevlja",
        "population": -1,
        "latitude": 43.467778,
        "longitude": 19.125
    },
    {
        "name": "Potkamen",
        "country": "Montenegro",
        "province": "Pljevlja",
        "population": -1,
        "latitude": 43.485278,
        "longitude": 19.069444
    },
    {
        "name": "Iva",
        "country": "Montenegro",
        "province": "Pljevlja",
        "population": -1,
        "latitude": 43.3775,
        "longitude": 19.101944
    },
    {
        "name": "Klapusi",
        "country": "Montenegro",
        "province": "Pljevlja",
        "population": -1,
        "latitude": 43.478333,
        "longitude": 19.0825
    },
    {
        "name": "Raščići",
        "country": "Montenegro",
        "province": "Pljevlja",
        "population": -1,
        "latitude": 43.472222,
        "longitude": 19.049722
    },
    {
        "name": "Karačići",
        "country": "Montenegro",
        "province": "Pljevlja",
        "population": -1,
        "latitude": 43.405,
        "longitude": 19.199167
    },
    {
        "name": "Vukovići",
        "country": "Montenegro",
        "province": "Pljevlja",
        "population": -1,
        "latitude": 43.285833,
        "longitude": 19.035278
    },
    {
        "name": "Donja Orlja",
        "country": "Montenegro",
        "province": "Pljevlja",
        "population": -1,
        "latitude": 43.372222,
        "longitude": 19.184167
    },
    {
        "name": "Levi Meteh",
        "country": "Montenegro",
        "province": "Opština Plav",
        "population": -1,
        "latitude": 42.628333,
        "longitude": 19.968056
    },
    {
        "name": "Gropa Smajlova",
        "country": "Montenegro",
        "province": "Opština Plav",
        "population": -1,
        "latitude": 42.586667,
        "longitude": 19.902778
    },
    {
        "name": "Ćetkovići",
        "country": "Montenegro",
        "province": "Berane",
        "population": -1,
        "latitude": 42.76,
        "longitude": 19.879444
    },
    {
        "name": "Ulica",
        "country": "Montenegro",
        "province": "Berane",
        "population": -1,
        "latitude": 42.753333,
        "longitude": 19.883056
    },
    {
        "name": "Krajišta",
        "country": "Montenegro",
        "province": "Andrijevica",
        "population": -1,
        "latitude": 42.704167,
        "longitude": 19.7075
    },
    {
        "name": "Krnjač",
        "country": "Montenegro",
        "province": "Andrijevica",
        "population": -1,
        "latitude": 42.692778,
        "longitude": 19.790833
    },
    {
        "name": "Biorići",
        "country": "Montenegro",
        "province": "Bijelo Polje",
        "population": -1,
        "latitude": 42.939722,
        "longitude": 19.836667
    },
    {
        "name": "Gornji Lužac",
        "country": "Montenegro",
        "province": "Berane",
        "population": -1,
        "latitude": 42.829722,
        "longitude": 19.843611
    },
    {
        "name": "Kamine",
        "country": "Montenegro",
        "province": "Bijelo Polje",
        "population": -1,
        "latitude": 42.989722,
        "longitude": 19.810833
    },
    {
        "name": "Dolja",
        "country": "Montenegro",
        "province": "Gusinje",
        "population": -1,
        "latitude": 42.5375,
        "longitude": 19.794722
    },
    {
        "name": "Brestovik",
        "country": "Montenegro",
        "province": "Bijelo Polje",
        "population": -1,
        "latitude": 42.971111,
        "longitude": 19.813056
    },
    {
        "name": "Brežđe",
        "country": "Montenegro",
        "province": "Bijelo Polje",
        "population": -1,
        "latitude": 42.995278,
        "longitude": 19.848889
    },
    {
        "name": "Čepići",
        "country": "Montenegro",
        "province": "Bijelo Polje",
        "population": -1,
        "latitude": 42.996944,
        "longitude": 19.866111
    },
    {
        "name": "Stojanovići",
        "country": "Montenegro",
        "province": "Bijelo Polje",
        "population": -1,
        "latitude": 42.985278,
        "longitude": 19.899722
    },
    {
        "name": "Trubina",
        "country": "Montenegro",
        "province": "Bijelo Polje",
        "population": -1,
        "latitude": 42.935833,
        "longitude": 19.878889
    },
    {
        "name": "Paločak",
        "country": "Montenegro",
        "province": "Bijelo Polje",
        "population": -1,
        "latitude": 42.953333,
        "longitude": 19.854444
    },
    {
        "name": "Bubanje",
        "country": "Montenegro",
        "province": "Bijelo Polje",
        "population": -1,
        "latitude": 42.957778,
        "longitude": 19.830278
    },
    {
        "name": "Krš Femica",
        "country": "Montenegro",
        "province": "Bijelo Polje",
        "population": -1,
        "latitude": 42.975556,
        "longitude": 19.795
    },
    {
        "name": "Podgrađe",
        "country": "Montenegro",
        "province": "Bijelo Polje",
        "population": -1,
        "latitude": 42.919167,
        "longitude": 19.868056
    },
    {
        "name": "Koraći",
        "country": "Montenegro",
        "province": "Petnjica",
        "population": -1,
        "latitude": 42.912778,
        "longitude": 19.956389
    },
    {
        "name": "Gornje Mrke",
        "country": "Montenegro",
        "province": "Podgorica",
        "population": -1,
        "latitude": 42.519444,
        "longitude": 19.323056
    },
    {
        "name": "Brotnjik",
        "country": "Montenegro",
        "province": "Podgorica",
        "population": -1,
        "latitude": 42.579722,
        "longitude": 19.341111
    },
    {
        "name": "Krosa",
        "country": "Montenegro",
        "province": "Podgorica",
        "population": -1,
        "latitude": 42.571667,
        "longitude": 19.462222
    },
    {
        "name": "Milačići",
        "country": "Montenegro",
        "province": "Podgorica",
        "population": -1,
        "latitude": 42.590278,
        "longitude": 19.465833
    },
    {
        "name": "Rovanj",
        "country": "Montenegro",
        "province": "Podgorica",
        "population": -1,
        "latitude": 42.622222,
        "longitude": 19.396389
    },
    {
        "name": "Vjeternik",
        "country": "Montenegro",
        "province": "Podgorica",
        "population": -1,
        "latitude": 42.600556,
        "longitude": 19.421667
    },
    {
        "name": "Dubaje",
        "country": "Montenegro",
        "province": "Podgorica",
        "population": -1,
        "latitude": 42.597778,
        "longitude": 19.473889
    },