[
    {
        "name": "Skopje",
        "country": "North Macedonia",
        "province": "Grad Skopje",
        "population": 474889,
        "latitude": 41.996457,
        "longitude": 21.431407
    },
    {
        "name": "Prilep",
        "country": "North Macedonia",
        "province": "Prilep",
        "population": 73814,
        "latitude": 41.34514,
        "longitude": 21.555037
    },
    {
        "name": "Veles",
        "country": "North Macedonia",
        "province": "Veles",
        "population": 57873,
        "latitude": 41.7155556,
        "longitude": 21.7755556
    },
    {
        "name": "Čair",
        "country": "North Macedonia",
        "province": "Grad Skopje",
        "population": 64773,
        "latitude": 42.015278,
        "longitude": 21.441111
    },
    {
        "name": "Kisela Voda",
        "country": "North Macedonia",
        "province": "Grad Skopje",
        "population": 58216,
        "latitude": 41.9488889,
        "longitude": 21.5027778
    },
    {
        "name": "Gostivar",
        "country": "North Macedonia",
        "province": "Gostivar",
        "population": 50974,
        "latitude": 41.796014,
        "longitude": 20.908191
    },
    {
        "name": "Kumanovo",
        "country": "North Macedonia",
        "province": "Kumanovo",
        "population": 75051,
        "latitude": 42.1322222,
        "longitude": 21.7144444
    },
    {
        "name": "Bitola",
        "country": "North Macedonia",
        "province": "Bitola",
        "population": 69287,
        "latitude": 41.031429,
        "longitude": 21.334736
    },
    {
        "name": "Tetovo",
        "country": "North Macedonia",
        "province": "Tetovo",
        "population": 63176,
        "latitude": 42.009734,
        "longitude": 20.971548
    },
    {
        "name": "Ohrid",
        "country": "North Macedonia",
        "province": "Ohrid",
        "population": 42033,
        "latitude": 41.1172222,
        "longitude": 20.8019444
    },
    {
        "name": "Gevgelija",
        "country": "North Macedonia",
        "province": "Gevgelija",
        "population": 20664,
        "latitude": 41.141658,
        "longitude": 22.501411
    },
    {
        "name": "Debar",
        "country": "North Macedonia",
        "province": "Debar",
        "population": 18074,
        "latitude": 41.524441,
        "longitude": 20.524206
    },
    {
        "name": "Strumica",
        "country": "North Macedonia",
        "province": "Strumica",
        "population": 33825,
        "latitude": 41.4375,
        "longitude": 22.6433333
    },
    {
        "name": "Struga",
        "country": "North Macedonia",
        "province": "Struga",
        "population": 37387,
        "latitude": 41.17799,
        "longitude": 20.677844
    },
    {
        "name": "Shtip",
        "country": "North Macedonia",
        "province": "Shtip",
        "population": 48279,
        "latitude": 41.7458333,
        "longitude": 22.1958333
    },
    {
        "name": "Kočani",
        "country": "North Macedonia",
        "province": "Kochani",
        "population": 34258,
        "latitude": 41.9163889,
        "longitude": 22.4127778
    },
    {
        "name": "Kičevo",
        "country": "North Macedonia",
        "province": "Kichevo",
        "population": 31123,
        "latitude": 41.512671,
        "longitude": 20.958858
    },
    {
        "name": "Kavadarci",
        "country": "North Macedonia",
        "province": "Kavadarci",
        "population": 38799,
        "latitude": 41.4330556,
        "longitude": 22.0119444
    },
    {
        "name": "Zelino",
        "country": "North Macedonia",
        "province": "Zhelino",
        "population": 25422,
        "latitude": 41.9802778,
        "longitude": 21.0641667
    },
    {
        "name": "Makedonski Brod",
        "country": "North Macedonia",
        "province": "Makedonski Brod",
        "population": 5607,
        "latitude": 41.5136111,
        "longitude": 21.2152778
    },
    {
        "name": "Bogovinje",
        "country": "North Macedonia",
        "province": "Bogovinje",
        "population": 15166,
        "latitude": 41.9236111,
        "longitude": 20.9136111
    },
    {
        "name": "Valandovo",
        "country": "North Macedonia",
        "province": "Valandovo",
        "population": 3798,
        "latitude": 41.317444,
        "longitude": 22.560018
    },
    {
        "name": "Novo Selo",
        "country": "North Macedonia",
        "province": "Novo Selo",
        "population": 11818,
        "latitude": 41.414859,
        "longitude": 22.881639
    },
    {
        "name": "Novaci Municipality",
        "country": "North Macedonia",
        "province": "Novaci",
        "population": 2357,
        "latitude": 41.041974,
        "longitude": 21.458663
    },
    {
        "name": "Negotino",
        "country": "North Macedonia",
        "province": "Negotino",
        "population": 19515,
        "latitude": 41.484557,
        "longitude": 22.090563
    },
    {
        "name": "Demir Hisar",
        "country": "North Macedonia",
        "province": "Demir Hisar",
        "population": 2283,
        "latitude": 41.220967,
        "longitude": 21.203024
    },
    {
        "name": "Lipkovo",
        "country": "North Macedonia",
        "province": "Lipkovo",
        "population": 28102,
        "latitude": 42.1563889,
        "longitude": 21.5852778
    },
    {
        "name": "Centar Župa",
        "country": "North Macedonia",
        "province": "Centar Zhupa",
        "population": 45412,
        "latitude": 41.47848967025991,
        "longitude": 20.5594539642334
    },
    {
        "name": "Butel",
        "country": "North Macedonia",
        "province": "Grad Skopje",
        "population": 36154,
        "latitude": 42.0308333,
        "longitude": 21.4466667
    },
    {
        "name": "Ilinden",
        "country": "North Macedonia",
        "province": "Ilinden",
        "population": 16406,
        "latitude": 41.994514,
        "longitude": 21.580023
    },
    {
        "name": "Zrnovci",
        "country": "North Macedonia",
        "province": "Zrnovci",
        "population": 3236,
        "latitude": 41.8541667,
        "longitude": 22.4444444
    },
    {
        "name": "Zelenikovo",
        "country": "North Macedonia",
        "province": "Zelenikovo",
        "population": 4020,
        "latitude": 41.884134,
        "longitude": 21.588477
    },
    {
        "name": "Zajas",
        "country": "North Macedonia",
        "province": "Kichevo",
        "population": 12218,
        "latitude": 41.607222,
        "longitude": 20.938333
    },
    {
        "name": "Lozovo",
        "country": "North Macedonia",
        "province": "Lozovo",
        "population": 2836,
        "latitude": 41.7838889,
        "longitude": 21.9055556
    },
    {
        "name": "Dračevo",
        "country": "North Macedonia",
        "province": "Grad Skopje",
        "population": 10605,
        "latitude": 41.936667,
        "longitude": 21.521667
    },
    {
        "name": "Gjorče Petro",
        "country": "North Macedonia",
        "province": "Grad Skopje",
        "population": 41000,
        "latitude": 42.0077778,
        "longitude": 21.3530556
    },
    {
        "name": "Dolneni",
        "country": "North Macedonia",
        "province": "Dolneni",
        "population": 11534,
        "latitude": 41.425788,
        "longitude": 21.45402
    },
    {
        "name": "Dolna Banjica",
        "country": "North Macedonia",
        "province": "Gostivar",
        "population": 10147,
        "latitude": 41.786111,
        "longitude": 20.906111
    },
    {
        "name": "Demir Kapija",
        "country": "North Macedonia",
        "province": "Demir Kapija",
        "population": 4451,
        "latitude": 41.406129,
        "longitude": 22.246315
    },
    {
        "name": "Delcevo",
        "country": "North Macedonia",
        "province": "Delchevo",
        "population": 17415,
        "latitude": 41.9672222,
        "longitude": 22.7694444
    },
    {
        "name": "Чучер - Сандево",
        "country": "North Macedonia",
        "province": "Chucher Sandevo",
        "population": 8646,
        "latitude": 42.1036111,
        "longitude": 21.3822222
    },
    {
        "name": "Cegrane",
        "country": "North Macedonia",
        "province": "Gostivar",
        "population": 12523,
        "latitude": 41.8388889,
        "longitude": 20.9758333
    },
    {
        "name": "Čaška",
        "country": "North Macedonia",
        "province": "Chashka",
        "population": 2878,
        "latitude": 41.6505556,
        "longitude": 21.6622222
    },
    {
        "name": "Brvenica",
        "country": "North Macedonia",
        "province": "Brvenica",
        "population": 16267,
        "latitude": 41.9672222,
        "longitude": 20.9808333
    },
    {
        "name": "Bosilovo",
        "country": "North Macedonia",
        "province": "Bosilovo",
        "population": 12447,
        "latitude": 41.4405556,
        "longitude": 22.7277778
    },
    {
        "name": "Bogdanci",
        "country": "North Macedonia",
        "province": "Bogdanci",
        "population": 8636,
        "latitude": 41.2030556,
        "longitude": 22.5755556
    },
    {
        "name": "Berovo",
        "country": "North Macedonia",
        "province": "Berovo",
        "population": 13847,
        "latitude": 41.7030556,
        "longitude": 22.8577778
    },
    {
        "name": "Belčišta",
        "country": "North Macedonia",
        "province": "Debarca",
        "population": 2804,
        "latitude": 41.3027778,
        "longitude": 20.8302778
    },
    {
        "name": "Арачиново",
        "country": "North Macedonia",
        "province": "Arachinovo",
        "population": 12800,
        "latitude": 42.0263889,
        "longitude": 21.5619444
    },
    {
        "name": "Vrapčište",
        "country": "North Macedonia",
        "province": "Vrapchishte",
        "population": 8652,
        "latitude": 41.834394,
        "longitude": 20.885626
    },
    {
        "name": "Vinica",
        "country": "North Macedonia",
        "province": "Vinica",
        "population": 18218,
        "latitude": 41.8827778,
        "longitude": 22.5091667
    },
    {
        "name": "Vevčani",
        "country": "North Macedonia",
        "province": "Vevchani",
        "population": 2429,
        "latitude": 41.2405556,
        "longitude": 20.5933333
    },
    {
        "name": "Vasilevo",
        "country": "North Macedonia",
        "province": "Vasilevo",
        "population": 12382,
        "latitude": 41.474081,
        "longitude": 22.64301
    },
    {
        "name": "Tearce",
        "country": "North Macedonia",
        "province": "Tearce",
        "population": 23096,
        "latitude": 42.076655,
        "longitude": 21.0531
    },
    {
        "name": "Sveti Nikole",
        "country": "North Macedonia",
        "province": "Sveti Nikole",
        "population": 13292,
        "latitude": 41.86956082699455,
        "longitude": 21.952743530273438
    },
    {
        "name": "Старо Нагоричане",
        "country": "North Macedonia",
        "province": "Staro Nagorichane",
        "population": 4112,
        "latitude": 42.1980556,
        "longitude": 21.8286111
    },
    {
        "name": "Star Dojran",
        "country": "North Macedonia",
        "province": "Dojran",
        "population": 3348,
        "latitude": 41.186473,
        "longitude": 22.720305
    },
    {
        "name": "Sopište",
        "country": "North Macedonia",
        "province": "Sopište",
        "population": 9460,
        "latitude": 41.9547222,
        "longitude": 21.4275
    },
    {
        "name": "Saraj",
        "country": "North Macedonia",
        "province": "Grad Skopje",
        "population": 25379,
        "latitude": 42,
        "longitude": 21.327778
    },
    {
        "name": "Rostusa",
        "country": "North Macedonia",
        "province": "Mavrovo and Rostuša",
        "population": 9147,
        "latitude": 41.61,
        "longitude": 20.6
    },
    {
        "name": "Rosoman",
        "country": "North Macedonia",
        "province": "Rosoman",
        "population": 4106,
        "latitude": 41.516713,
        "longitude": 21.945849
    },
    {
        "name": "Resen",
        "country": "North Macedonia",
        "province": "Resen",
        "population": 16539,
        "latitude": 41.089341,
        "longitude": 21.010924
    },
    {
        "name": "Rankovce",
        "country": "North Macedonia",
        "province": "Rankovce",
        "population": 4071,
        "latitude": 42.169637933967756,
        "longitude": 22.116165161132812
    },
    {
        "name": "Radovis",
        "country": "North Macedonia",
        "province": "Radovish",
        "population": 24984,
        "latitude": 41.6383333,
        "longitude": 22.4647222
    },
    {
        "name": "Probistip",
        "country": "North Macedonia",
        "province": "Probishtip",
        "population": 12702,
        "latitude": 42.0030556,
        "longitude": 22.1786111
    },
    {
        "name": "Plasnica",
        "country": "North Macedonia",
        "province": "Plasnica",
        "population": 4574,
        "latitude": 41.4672222,
        "longitude": 21.1230556
    },
    {
        "name": "Петровец",
        "country": "North Macedonia",
        "province": "Petrovec",
        "population": 8298,
        "latitude": 41.9388889,
        "longitude": 21.615
    },
    {
        "name": "Pehčevo",
        "country": "North Macedonia",
        "province": "Pehchevo",
        "population": 2440,
        "latitude": 41.762258,
        "longitude": 22.889214
    },
    {
        "name": "Negotino",
        "country": "North Macedonia",
        "province": "Vrapchishte",
        "population": 17518,
        "latitude": 41.877918,
        "longitude": 20.883888
    },
    {
        "name": "Mogila",
        "country": "North Macedonia",
        "province": "Mogila",
        "population": 4392,
        "latitude": 41.1083333,
        "longitude": 21.3786111
    },
    {
        "name": "Miravci",
        "country": "North Macedonia",
        "province": "Gevgelija",
        "population": 2573,
        "latitude": 41.309246,
        "longitude": 22.436406
    },
    {
        "name": "Miladinovci",
        "country": "North Macedonia",
        "province": "Ilinden",
        "population": 1315,
        "latitude": 41.980285,
        "longitude": 21.649821
    },
    {
        "name": "Mešeišta",
        "country": "North Macedonia",
        "province": "Debarca",
        "population": 2452,
        "latitude": 41.238137,
        "longitude": 20.774143
    },
    {
        "name": "Krusevo",
        "country": "North Macedonia",
        "province": "Krushevo",
        "population": 5211,
        "latitude": 41.3688889,
        "longitude": 21.2488889
    },
    {
        "name": "Krivogastani",
        "country": "North Macedonia",
        "province": "Krivogashtani",
        "population": 5899,
        "latitude": 41.3361111,
        "longitude": 21.3330556
    },
    {
        "name": "Kriva Palanka",
        "country": "North Macedonia",
        "province": "Kriva Palanka",
        "population": 20820,
        "latitude": 42.200882,
        "longitude": 22.332444
    },
    {
        "name": "Kratovo",
        "country": "North Macedonia",
        "province": "Kratovo",
        "population": 10288,
        "latitude": 42.078385,
        "longitude": 22.180701
    },
    {
        "name": "Kondovo",
        "country": "North Macedonia",
        "province": "Grad Skopje",
        "population": 11656,
        "latitude": 42.011509,
        "longitude": 21.314274
    },
    {
        "name": "Konče",
        "country": "North Macedonia",
        "province": "Konche",
        "population": 3475,
        "latitude": 41.495112,
        "longitude": 22.383587
    },
    {
        "name": "Karbinci",
        "country": "North Macedonia",
        "province": "Karbinci",
        "population": 3900,
        "latitude": 41.817581,
        "longitude": 22.23529
    },
    {
        "name": "Kamenjane",
        "country": "North Macedonia",
        "province": "Bogovinje",
        "population": 15376,
        "latitude": 41.945675,
        "longitude": 20.92894
    },
    {
        "name": "Jegunovce",
        "country": "North Macedonia",
        "province": "Jegunovce",
        "population": 7313,
        "latitude": 42.072379,
        "longitude": 21.123674
    },
    {
        "name": "Gradsko",
        "country": "North Macedonia",
        "province": "Gradsko",
        "population": 3737,
        "latitude": 41.5775,
        "longitude": 21.9427778
    },
    {
        "name": "Šuto Orizare",
        "country": "North Macedonia",
        "province": "Grad Skopje",
        "population": 20800,
        "latitude": 42.04,
        "longitude": 21.425
    },
    {
        "name": "Saračino",
        "country": "North Macedonia",
        "province": "Tetovo",
        "population": 921,
        "latitude": 41.981878,
        "longitude": 21.041632
    },
    {
        "name": "Zelenikovo",
        "country": "North Macedonia",
        "province": "Zelenikovo",
        "population": 1005,
        "latitude": 41.873333,
        "longitude": 21.603056
    },
    {
        "name": "Poroj",
        "country": "North Macedonia",
        "province": "Tetovo",
        "population": 2370,
        "latitude": 42.029127,
        "longitude": 20.992658
    },
    {
        "name": "Strimnica",
        "country": "North Macedonia",
        "province": "Zhelino",
        "population": 1831,
        "latitude": 41.967185,
        "longitude": 21.035976
    },
    {
        "name": "Dobarce",
        "country": "North Macedonia",
        "province": "Zhelino",
        "population": 1306,
        "latitude": 41.955296,
        "longitude": 21.08875
    },
    {
        "name": "Zletovo",
        "country": "North Macedonia",
        "province": "Probishtip",
        "population": 3340,
        "latitude": 41.988611,
        "longitude": 22.236111
    },
    {
        "name": "Žitoše",
        "country": "North Macedonia",
        "province": "Dolneni",
        "population": 2131,
        "latitude": 41.419908,
        "longitude": 21.290779
    },
    {
        "name": "Gorno Strogomište",
        "country": "North Macedonia",
        "province": "Kichevo",
        "population": 915,
        "latitude": 41.606111,
        "longitude": 20.965556
    },
    {
        "name": "Gorno Orizari",
        "country": "North Macedonia",
        "province": "Veles",
        "population": 1999,
        "latitude": 41.685833,
        "longitude": 21.734754
    },
    {
        "name": "Gorno Konjari",
        "country": "North Macedonia",
        "province": "Petrovec",
        "population": 237,
        "latitude": 41.975645,
        "longitude": 21.722263
    },
    {
        "name": "Golem Papradnik",
        "country": "North Macedonia",
        "province": "Centar Zhupa",
        "population": -1,
        "latitude": 41.476667,
        "longitude": 20.544444
    },
    {
        "name": "Golema Rečica",
        "country": "North Macedonia",
        "province": "Tetovo",
        "population": 3050,
        "latitude": 41.988034,
        "longitude": 20.94517
    },
    {
        "name": "Gloǵi",
        "country": "North Macedonia",
        "province": "Tearce",
        "population": -1,
        "latitude": 42.088225,
        "longitude": 21.061804
    },
    {
        "name": "Ǵermo",
        "country": "North Macedonia",
        "province": "Tetovo",
        "population": -1,
        "latitude": 42.05252,
        "longitude": 20.968301
    },
    {
        "name": "Forino",
        "country": "North Macedonia",
        "province": "Gostivar",
        "population": 3637,
        "latitude": 41.823344,
        "longitude": 20.961742
    },
    {
        "name": "Džepčište",
        "country": "North Macedonia",
        "province": "Tetovo",
        "population": 8166,
        "latitude": 42.032874,
        "longitude": 20.998168
    },
    {
        "name": "Drugovo",
        "country": "North Macedonia",
        "province": "Kichevo",
        "population": 3149,
        "latitude": 41.484899,
        "longitude": 20.926362
    },
    {
        "name": "Dolno Strogomište",
        "country": "North Macedonia",
        "province": "Kichevo",
        "population": -1,
        "latitude": 41.592778,
        "longitude": 20.973056
    },
    {
        "name": "Dolno Palčište",
        "country": "North Macedonia",
        "province": "Bogovinje",
        "population": 2414,
        "latitude": 41.968593,
        "longitude": 20.928985
    },
    {
        "name": "Dolno Orizari",
        "country": "North Macedonia",
        "province": "Bitola",
        "population": 1236,
        "latitude": 41.050278,
        "longitude": 21.379444
    },
    {
        "name": "Dolno Količani",
        "country": "North Macedonia",
        "province": "Studenichani",
        "population": 1276,
        "latitude": 41.886389,
        "longitude": 21.485556
    },
    {
        "name": "Dolna Ǵonovica",
        "country": "North Macedonia",
        "province": "Gostivar",
        "population": -1,
        "latitude": 41.71713,
        "longitude": 20.902507
    },
    {
        "name": "Dobruševo",
        "country": "North Macedonia",
        "province": "Mogila",
        "population": 2103,
        "latitude": 41.168611,
        "longitude": 21.4825
    },
    {
        "name": "Dobrošte",
        "country": "North Macedonia",
        "province": "Tetovo",
        "population": 3339,
        "latitude": 42.1033333,
        "longitude": 21.0777778
    },
    {
        "name": "Dobri Dol",
        "country": "North Macedonia",
        "province": "Vrapchishte",
        "population": 4124,
        "latitude": 41.865201,
        "longitude": 20.89009
    },
    {
        "name": "Desovo",
        "country": "North Macedonia",
        "province": "Dolneni",
        "population": 1317,
        "latitude": 41.462778,
        "longitude": 21.491111
    },
    {
        "name": "Delogožda",
        "country": "North Macedonia",
        "province": "Struga",
        "population": 8413,
        "latitude": 41.257283,
        "longitude": 20.721801
    },
    {
        "name": "Ǵavato",
        "country": "North Macedonia",
        "province": "Bitola",
        "population": 523,
        "latitude": 41.082236,
        "longitude": 21.136539
    },
    {
        "name": "Crnilište",
        "country": "North Macedonia",
        "province": "Dolneni",
        "population": 1303,
        "latitude": 41.530255,
        "longitude": 21.414159
    },
    {
        "name": "Cresevo",
        "country": "North Macedonia",
        "province": "Grad Skopje",
        "population": 1479,
        "latitude": 42.0508333,
        "longitude": 21.5097222
    },
    {
        "name": "Češinovo",
        "country": "North Macedonia",
        "province": "Češinovo-Obleševo",
        "population": 2377,
        "latitude": 41.871484,
        "longitude": 22.289609
    },
    {
        "name": "Capari",
        "country": "North Macedonia",
        "province": "Bitola",
        "population": 1311,
        "latitude": 41.056557,
        "longitude": 21.178843
    },
    {
        "name": "Bukovik",
        "country": "North Macedonia",
        "province": "Grad Skopje",
        "population": 1256,
        "latitude": 41.971032,
        "longitude": 21.239046
    },
    {
        "name": "Bučin",
        "country": "North Macedonia",
        "province": "Krushevo",
        "population": 1243,
        "latitude": 41.273766,
        "longitude": 21.316923
    },
    {
        "name": "Bojane",
        "country": "North Macedonia",
        "province": "Grad Skopje",
        "population": 1579,
        "latitude": 42.000094,
        "longitude": 21.192648
    },
    {
        "name": "Bogomila",
        "country": "North Macedonia",
        "province": "Chashka",
        "population": 1223,
        "latitude": 41.5930556,
        "longitude": 21.4716667
    },
    {
        "name": "Blatec",
        "country": "North Macedonia",
        "province": "Vinica",
        "population": 2024,
        "latitude": 41.836679,
        "longitude": 22.57909
    },
    {
        "name": "Bistrica",
        "country": "North Macedonia",
        "province": "Bitola",
        "population": 4798,
        "latitude": 40.978922,
        "longitude": 21.365798
    },
    {
        "name": "Batinci",
        "country": "North Macedonia",
        "province": "Studenichani",
        "population": 3239,
        "latitude": 41.919089,
        "longitude": 21.479779
    },
    {
        "name": "Vrutok",
        "country": "North Macedonia",
        "province": "Gostivar",
        "population": 5999,
        "latitude": 41.768611,
        "longitude": 20.839167
    },
    {
        "name": "Vratnica",
        "country": "North Macedonia",
        "province": "Jegunovce",
        "population": 3678,
        "latitude": 42.143333,
        "longitude": 21.116944
    },
    {
        "name": "Vraneštica",
        "country": "North Macedonia",
        "province": "Kichevo",
        "population": 1265,
        "latitude": 41.444959,
        "longitude": 21.026826
    },
    {
        "name": "Vladimirovo",
        "country": "North Macedonia",
        "province": "Berovo",
        "population": 1290,
        "latitude": 41.71,
        "longitude": 22.792778
    },
    {
        "name": "Vitolište",
        "country": "North Macedonia",
        "province": "Prilep",
        "population": 456,
        "latitude": 41.181375,
        "longitude": 21.826745
    },
    {
        "name": "Veljusa",
        "country": "North Macedonia",
        "province": "Strumica",
        "population": 1720,
        "latitude": 41.476111,
        "longitude": 22.5675
    },
    {
        "name": "Velesta",
        "country": "North Macedonia",
        "province": "Struga",
        "population": 8646,
        "latitude": 41.2408333,
        "longitude": 20.6438889
    },
    {
        "name": "Vaksince",
        "country": "North Macedonia",
        "province": "Lipkovo",
        "population": 2095,
        "latitude": 42.2061111,
        "longitude": 21.6630556
    },
    {
        "name": "Tuin",
        "country": "North Macedonia",
        "province": "Kichevo",
        "population": 1346,
        "latitude": 41.619444,
        "longitude": 21.045278
    },
    {
        "name": "Topolčani",
        "country": "North Macedonia",
        "province": "Prilep",
        "population": 2773,
        "latitude": 41.227718,
        "longitude": 21.431134
    },
    {
        "name": "Tašmaruništa",
        "country": "North Macedonia",
        "province": "Struga",
        "population": -1,
        "latitude": 41.268874,
        "longitude": 20.638923
    },
    {
        "name": "Studeničani",
        "country": "North Macedonia",
        "province": "Studenichani",
        "population": 18219,
        "latitude": 41.92208,
        "longitude": 21.53483
    },
    {
        "name": "Strelci",
        "country": "North Macedonia",
        "province": "Kichevo",
        "population": 1563,
        "latitude": 41.540456,
        "longitude": 21.005631
    },
    {
        "name": "Dolno Srpci",
        "country": "North Macedonia",
        "province": "Mogila",
        "population": 1433,
        "latitude": 41.174805,
        "longitude": 21.36464
    },
    {
        "name": "Sredno Konjari",
        "country": "North Macedonia",
        "province": "Petrovec",
        "population": 1089,
        "latitude": 41.957434,
        "longitude": 21.714937
    },
    {
        "name": "Srbinovo",
        "country": "North Macedonia",
        "province": "Gostivar",
        "population": 3629,
        "latitude": 41.705864,
        "longitude": 20.958589
    },
    {
        "name": "Sopotnica",
        "country": "North Macedonia",
        "province": "Demir Hisar",
        "population": 2110,
        "latitude": 41.295935,
        "longitude": 21.153566
    },
    {
        "name": "Šipkovica",
        "country": "North Macedonia",
        "province": "Tetovo",
        "population": 8228,
        "latitude": 42.035,
        "longitude": 20.915556
    },
    {
        "name": "Čento",
        "country": "North Macedonia",
        "province": "North Macedonia",
        "population": -1,
        "latitude": 42.0166667,
        "longitude": 21.5166667
    },
    {
        "name": "Selce",
        "country": "North Macedonia",
        "province": "Tetovo",
        "population": 1991,
        "latitude": 42.034817,
        "longitude": 20.940354
    },
    {
        "name": "Sekirnik",
        "country": "North Macedonia",
        "province": "Bosilovo",
        "population": 1222,
        "latitude": 41.439994,
        "longitude": 22.795358
    },
    {
        "name": "Sedlarevo",
        "country": "North Macedonia",
        "province": "Zhelino",
        "population": 1269,
        "latitude": 41.883056,
        "longitude": 21.1275
    },
    {
        "name": "Samokov",
        "country": "North Macedonia",
        "province": "Makedonski Brod",
        "population": 1429,
        "latitude": 41.683306,
        "longitude": 21.146254
    },
    {
        "name": "Rusinovo",
        "country": "North Macedonia",
        "province": "Berovo",
        "population": 2173,
        "latitude": 41.687281,
        "longitude": 22.808486
    },
    {
        "name": "Romanovci",
        "country": "North Macedonia",
        "province": "Kumanovo",
        "population": 2492,
        "latitude": 42.0947222,
        "longitude": 21.6930556
    },
    {
        "name": "Radolista",
        "country": "North Macedonia",
        "province": "Struga",
        "population": 2814,
        "latitude": 41.1641667,
        "longitude": 20.6233333
    },
    {
        "name": "Radishani",
        "country": "North Macedonia",
        "province": "Grad Skopje",
        "population": 9123,
        "latitude": 42.0611111,
        "longitude": 21.4477778
    },
    {
        "name": "Pršovce",
        "country": "North Macedonia",
        "province": "Tearce",
        "population": 1999,
        "latitude": 42.083358,
        "longitude": 21.059937
    },
    {
        "name": "Podareš",
        "country": "North Macedonia",
        "province": "Radovish",
        "population": 3774,
        "latitude": 41.613889,
        "longitude": 22.542222
    },
    {
        "name": "Pirok",
        "country": "North Macedonia",
        "province": "Tetovo",
        "population": 3801,
        "latitude": 41.9108333,
        "longitude": 20.9105556
    },
    {
        "name": "Otlja",
        "country": "North Macedonia",
        "province": "Lipkovo",
        "population": 2326,
        "latitude": 42.143146,
        "longitude": 21.58675
    },
    {
        "name": "Oraovica",
        "country": "North Macedonia",
        "province": "Radovish",
        "population": 3776,
        "latitude": 41.6258333,
        "longitude": 22.5133333
    },
    {
        "name": "Openica",
        "country": "North Macedonia",
        "province": "Ohrid",
        "population": -1,
        "latitude": 41.1825,
        "longitude": 20.869167
    },
    {
        "name": "Oktisi",
        "country": "North Macedonia",
        "province": "Struga",
        "population": 2692,
        "latitude": 41.2325,
        "longitude": 20.607222
    },
    {
        "name": "Obršani",
        "country": "North Macedonia",
        "province": "Krivogashtani",
        "population": 1138,
        "latitude": 41.28168,
        "longitude": 21.361502
    },
    {
        "name": "Oblesevo",
        "country": "North Macedonia",
        "province": "Češinovo-Obleševo",
        "population": 4972,
        "latitude": 41.8833333,
        "longitude": 22.3338889
    },
    {
        "name": "Nižepole",
        "country": "North Macedonia",
        "province": "Bitola",
        "population": 505,
        "latitude": 41.01057,
        "longitude": 21.245482
    },
    {
        "name": "Nerašte",
        "country": "North Macedonia",
        "province": "Tearce",
        "population": 2901,
        "latitude": 42.107109,
        "longitude": 21.108099
    },
    {
        "name": "Murtino",
        "country": "North Macedonia",
        "province": "Strumica",
        "population": 2202,
        "latitude": 41.415373,
        "longitude": 22.725886
    },
    {
        "name": "Morani",
        "country": "North Macedonia",
        "province": "Studenichani",
        "population": 1099,
        "latitude": 41.909777,
        "longitude": 21.549966
    },
    {
        "name": "Mislesevo",
        "country": "North Macedonia",
        "province": "Struga",
        "population": 1988,
        "latitude": 41.185,
        "longitude": 20.7086111
    },
    {
        "name": "Miletino",
        "country": "North Macedonia",
        "province": "Brvenica",
        "population": 1820,
        "latitude": 41.907531,
        "longitude": 21.016008
    },
    {
        "name": "Matejce",
        "country": "North Macedonia",
        "province": "Lipkovo",
        "population": 2781,
        "latitude": 42.1255556,
        "longitude": 21.5977778
    },
    {
        "name": "Marino",
        "country": "North Macedonia",
        "province": "Ilinden",
        "population": 2503,
        "latitude": 41.987761,
        "longitude": 21.591477
    },
    {
        "name": "Mal Radobil",
        "country": "North Macedonia",
        "province": "Prilep",
        "population": 31,
        "latitude": 41.372273,
        "longitude": 21.798399
    },
    {
        "name": "Lukovo",
        "country": "North Macedonia",
        "province": "Struga",
        "population": 1424,
        "latitude": 41.353392,
        "longitude": 20.606372
    },
    {
        "name": "Lojane",
        "country": "North Macedonia",
        "province": "Lipkovo",
        "population": 2234,
        "latitude": 42.23276,
        "longitude": 21.665503
    },
    {
        "name": "Logovardi",
        "country": "North Macedonia",
        "province": "Bitola",
        "population": 1272,
        "latitude": 41.030964,
        "longitude": 21.409666
    },
    {
        "name": "Ljubin",
        "country": "North Macedonia",
        "province": "Grad Skopje",
        "population": 1230,
        "latitude": 42.001389,
        "longitude": 21.309167
    },
    {
        "name": "Lisičani",
        "country": "North Macedonia",
        "province": "Plasnica",
        "population": 1188,
        "latitude": 41.461389,
        "longitude": 21.054444
    },
    {
        "name": "Lažani",
        "country": "North Macedonia",
        "province": "Dolneni",
        "population": 1954,
        "latitude": 41.442222,
        "longitude": 21.315833
    },
    {
        "name": "Larce",
        "country": "North Macedonia",
        "province": "Zhelino",
        "population": 1489,
        "latitude": 41.933185,
        "longitude": 21.126277
    },
    {
        "name": "Kukurečani",
        "country": "North Macedonia",
        "province": "Bitola",
        "population": 2395,
        "latitude": 41.09562,
        "longitude": 21.324536
    },
    {
        "name": "Kuklis",
        "country": "North Macedonia",
        "province": "Strumica",
        "population": 4368,
        "latitude": 41.4052778,
        "longitude": 22.6652778
    },
    {
        "name": "Krušopek",
        "country": "North Macedonia",
        "province": "Grad Skopje",
        "population": 1277,
        "latitude": 41.99651,
        "longitude": 21.343554
    },
    {
        "name": "Krani",
        "country": "North Macedonia",
        "province": "Resen",
        "population": 1087,
        "latitude": 40.93934,
        "longitude": 21.109114
    },
    {
        "name": "Kosel",
        "country": "North Macedonia",
        "province": "Ohrid",
        "population": 1281,
        "latitude": 41.174444,
        "longitude": 20.835556
    },
    {
        "name": "Klečevce",
        "country": "North Macedonia",
        "province": "Kumanovo",
        "population": 573,
        "latitude": 42.116356,
        "longitude": 21.85436
    },
    {
        "name": "Kanatlarci",
        "country": "North Macedonia",
        "province": "Prilep",
        "population": 1041,
        "latitude": 41.210278,
        "longitude": 21.503333
    },
    {
        "name": "Makedonska Kamenica",
        "country": "North Macedonia",
        "province": "Makedonska Kamenica",
        "population": 8114,
        "latitude": 42.020793,
        "longitude": 22.587603
    },
    {
        "name": "Kadino",
        "country": "North Macedonia",
        "province": "Ilinden",
        "population": 1466,
        "latitude": 41.9688889,
        "longitude": 21.6013889
    },
    {
        "name": "Jankovec",
        "country": "North Macedonia",
        "province": "Resen",
        "population": 1291,
        "latitude": 41.110278,
        "longitude": 21.011389
    },
    {
        "name": "Izvor",
        "country": "North Macedonia",
        "province": "Lipkovo",
        "population": 1014,
        "latitude": 42.203215,
        "longitude": 21.57812
    },
    {
        "name": "Идризово",
        "country": "North Macedonia",
        "province": "Grad Skopje",
        "population": 2292,
        "latitude": 41.9608333,
        "longitude": 21.5755556
    },
    {
        "name": "Gurgurnica",
        "country": "North Macedonia",
        "province": "Brvenica",
        "population": 1159,
        "latitude": 41.84508,
        "longitude": 21.105382
    },
    {
        "name": "Grnčari",
        "country": "North Macedonia",
        "province": "Resen",
        "population": 1205,
        "latitude": 41.017222,
        "longitude": 21.053333
    },
    {
        "name": "Grčec",
        "country": "North Macedonia",
        "province": "Grad Skopje",
        "population": 1315,
        "latitude": 41.9880556,
        "longitude": 21.3302778
    },
    {
        "name": "Gradešnica",
        "country": "North Macedonia",
        "province": "Novaci",
        "population": 687,
        "latitude": 41.083992,
        "longitude": 21.762802
    },
    {
        "name": "Lagadin",
        "country": "North Macedonia",
        "province": "North Macedonia",
        "population": -1,
        "latitude": 41.0479969149469,
        "longitude": 20.8022689819336
    },
    {
        "name": "Elšani",
        "country": "North Macedonia",
        "province": "North Macedonia",
        "population": -1,
        "latitude": 41.0269886615162,
        "longitude": 20.8159160614014
    },
    {
        "name": "Koince",
        "country": "North Macedonia",
        "province": "Staro Nagorichane",
        "population": -1,
        "latitude": 42.249482,
        "longitude": 21.856882
    },
    {
        "name": "Šipkovo Teḱe",
        "country": "North Macedonia",
        "province": "Tetovo",
        "population": -1,
        "latitude": 42.025782,
        "longitude": 20.934289
    },
    {
        "name": "Podvis",
        "country": "North Macedonia",
        "province": "Krivogashtani",
        "population": 232,
        "latitude": 41.392778,
        "longitude": 21.326667
    },
    {
        "name": "Novo Konsko",
        "country": "North Macedonia",
        "province": "Gevgelija",
        "population": -1,
        "latitude": 41.15554,
        "longitude": 22.438319
    },
    {
        "name": "Prisad",
        "country": "North Macedonia",
        "province": "Prilep",
        "population": 49,
        "latitude": 41.415892,
        "longitude": 21.605625
    },
    {
        "name": "Jelovjane",
        "country": "North Macedonia",
        "province": "Bogovinje",
        "population": -1,
        "latitude": 41.959444,
        "longitude": 20.896944
    },
    {
        "name": "Kalište",
        "country": "North Macedonia",
        "province": "Struga",
        "population": -1,
        "latitude": 41.87824,
        "longitude": 20.860392
    },
    {
        "name": "Ǵurǵevište",
        "country": "North Macedonia",
        "province": "Vrapchishte",
        "population": -1,
        "latitude": 41.894444,
        "longitude": 20.862222
    },
    {
        "name": "R’nkovce",
        "country": "North Macedonia",
        "province": "Lipkovo",
        "population": -1,
        "latitude": 42.1725,
        "longitude": 21.547222
    },
    {
        "name": "Glažnja",
        "country": "North Macedonia",
        "province": "Lipkovo",
        "population": -1,
        "latitude": 42.183817,
        "longitude": 21.544378
    },
    {
        "name": "Lukare",
        "country": "North Macedonia",
        "province": "Lipkovo",
        "population": -1,
        "latitude": 42.231913,
        "longitude": 21.499842
    },
    {
        "name": "Rudnik Raduša",
        "country": "North Macedonia",
        "province": "Grad Skopje",
        "population": 267,
        "latitude": 42.085278,
        "longitude": 21.224722
    },
    {
        "name": "Palatica",
        "country": "North Macedonia",
        "province": "Zhelino",
        "population": -1,
        "latitude": 42.004298,
        "longitude": 21.056565
    },
    {
        "name": "Simnica",
        "country": "North Macedonia",
        "province": "Gostivar",
        "population": -1,
        "latitude": 41.72,
        "longitude": 20.881389
    },
    {
        "name": "Čelopeci",
        "country": "North Macedonia",
        "province": "Kichevo",
        "population": -1,
        "latitude": 41.614808,
        "longitude": 20.948263
    },
    {
        "name": "Mamudovci",
        "country": "North Macedonia",
        "province": "Kichevo",
        "population": -1,
        "latitude": 41.531389,
        "longitude": 20.985556
    },
    {
        "name": "Gorni Dlapkin Dol",
        "country": "North Macedonia",
        "province": "Kichevo",
        "population": 576,
        "latitude": 41.559167,
        "longitude": 20.935278
    },
    {
        "name": "Kičinica",
        "country": "North Macedonia",
        "province": "Mavrovo and Rostuša",
        "population": -1,
        "latitude": 41.692778,
        "longitude": 20.723611
    },
    {
        "name": "Goveǵak",
        "country": "North Macedonia",
        "province": "Kriva Palanka",
        "population": -1,
        "latitude": 42.332969,
        "longitude": 22.238164
    },
    {
        "name": "Dvorište",
        "country": "North Macedonia",
        "province": "Berovo",
        "population": -1,
        "latitude": 41.590488,
        "longitude": 22.9157
    },
    {
        "name": "Gajre",
        "country": "North Macedonia",
        "province": "Tetovo",
        "population": -1,
        "latitude": 42.012121,
        "longitude": 20.943591
    },
    {
        "name": "Patec",
        "country": "North Macedonia",
        "province": "Kichevo",
        "population": 42,
        "latitude": 41.542222,
        "longitude": 21.112222
    },
    {
        "name": "Žubrino",
        "country": "North Macedonia",
        "province": "Kichevo",
        "population": 416,
        "latitude": 41.586944,
        "longitude": 21.010278
    },
    {
        "name": "Ḱafa",
        "country": "North Macedonia",
        "province": "Gostivar",
        "population": 157,
        "latitude": 41.657621,
        "longitude": 21.021751
    },
    {
        "name": "Klukovec",
        "country": "North Macedonia",
        "province": "Veles",
        "population": 104,
        "latitude": 41.7061,
        "longitude": 21.6955
    },
    {
        "name": "Odžovci",
        "country": "North Macedonia",
        "province": "Centar Zhupa",
        "population": -1,
        "latitude": 41.485817,
        "longitude": 20.562622
    },
    {
        "name": "Bajramovci",
        "country": "North Macedonia",
        "province": "Centar Zhupa",
        "population": -1,
        "latitude": 41.480497,
        "longitude": 20.570705
    },
    {
        "name": "Pralenik",
        "country": "North Macedonia",
        "province": "Centar Zhupa",
        "population": -1,
        "latitude": 41.458278,
        "longitude": 20.548767
    },
    {
        "name": "Breštani",
        "country": "North Macedonia",
        "province": "Centar Zhupa",
        "population": -1,
        "latitude": 41.45532,
        "longitude": 20.585861
    },
    {
        "name": "Crnoboci",
        "country": "North Macedonia",
        "province": "Centar Zhupa",
        "population": -1,
        "latitude": 41.484225,
        "longitude": 20.566531
    },
    {
        "name": "Trnaniḱ",
        "country": "North Macedonia",
        "province": "Debar",
        "population": -1,
        "latitude": 41.498403,
        "longitude": 20.486144
    },
    {
        "name": "Kostenar",
        "country": "North Macedonia",
        "province": "North Macedonia",
        "population": -1,
        "latitude": 41.5161111,
        "longitude": 20.4591667
    },
    {
        "name": "Volkovija",
        "country": "North Macedonia",
        "province": "Mavrovo and Rostuša",
        "population": -1,
        "latitude": 41.714404,
        "longitude": 20.66544
    },
    {
        "name": "Oslomej",
        "country": "North Macedonia",
        "province": "Kichevo",
        "population": 102,
        "latitude": 41.576383,
        "longitude": 20.997732
    },
    {
        "name": "Fališe",
        "country": "North Macedonia",
        "province": "Tetovo",
        "population": 510,
        "latitude": 41.981035,
        "longitude": 21.006474
    },
    {
        "name": "Gorna Lešnica",
        "country": "North Macedonia",
        "province": "Zhelino",
        "population": 271,
        "latitude": 41.9284,
        "longitude": 21.062361
    },
    {
        "name": "Lukovica",
        "country": "North Macedonia",
        "province": "Zhelino",
        "population": 90,
        "latitude": 41.89005,
        "longitude": 21.154703
    },
    {
        "name": "Dolno Perovo",
        "country": "North Macedonia",
        "province": "Resen",
        "population": -1,
        "latitude": 41.014167,
        "longitude": 20.989444
    },
    {
        "name": "Bezovo",
        "country": "North Macedonia",
        "province": "Struga",
        "population": -1,
        "latitude": 41.329264,
        "longitude": 20.600682
    },
    {
        "name": "Dzvegor",
        "country": "North Macedonia",
        "province": "Delchevo",
        "population": -1,
        "latitude": 41.96733,
        "longitude": 22.804953
    },
    {
        "name": "Žužnje",
        "country": "North Macedonia",
        "province": "Mavrovo and Rostuša",
        "population": -1,
        "latitude": 41.75277,
        "longitude": 20.626052
    },
    {
        "name": "Zubovce",
        "country": "North Macedonia",
        "province": "Vrapchishte",
        "population": -1,
        "latitude": 41.82897,
        "longitude": 20.880779
    },
    {
        "name": "Zrze",
        "country": "North Macedonia",
        "province": "Dolneni",
        "population": 260,
        "latitude": 41.516667,
        "longitude": 21.3525
    },
    {
        "name": "Zoviḱ 1",
        "country": "North Macedonia",
        "province": "Novaci",
        "population": 145,
        "latitude": 41.117317,
        "longitude": 21.713931
    },
    {
        "name": "Zlatari",
        "country": "North Macedonia",
        "province": "Resen",
        "population": -1,
        "latitude": 41.1175,
        "longitude": 21.062778
    },
    {
        "name": "Žitineni",
        "country": "North Macedonia",
        "province": "Centar Zhupa",
        "population": -1,
        "latitude": 41.470833,
        "longitude": 20.571111
    },
    {
        "name": "Žirovnica",
        "country": "North Macedonia",
        "province": "Mavrovo and Rostuša",
        "population": -1,
        "latitude": 41.673821,
        "longitude": 20.588878
    },
    {
        "name": "Žerovjane",
        "country": "North Macedonia",
        "province": "Bogovinje",
        "population": -1,
        "latitude": 41.915689,
        "longitude": 20.947746
    },
    {
        "name": "Žegljane",
        "country": "North Macedonia",
        "province": "Staro Nagorichane",
        "population": -1,
        "latitude": 42.264715,
        "longitude": 21.89066
    },
    {
        "name": "Zdunje",
        "country": "North Macedonia",
        "province": "Gostivar",
        "population": -1,
        "latitude": 41.794324,
        "longitude": 20.877105
    },
    {
        "name": "Zbaždi",
        "country": "North Macedonia",
        "province": "Struga",
        "population": -1,
        "latitude": 41.349354,
        "longitude": 20.672071
    },
    {
        "name": "Zavoj",
        "country": "North Macedonia",
        "province": "Ohrid",
        "population": -1,
        "latitude": 41.191111,
        "longitude": 20.908056
    },
    {
        "name": "Zarepinci",
        "country": "North Macedonia",
        "province": "Probishtip",
        "population": -1,
        "latitude": 41.941831,
        "longitude": 22.147305
    },
    {
        "name": "Zapolžani",
        "country": "North Macedonia",
        "province": "Dolneni",
        "population": 406,
        "latitude": 41.379827,
        "longitude": 21.412254
    },
    {
        "name": "Zagračani",
        "country": "North Macedonia",
        "province": "Struga",
        "population": -1,
        "latitude": 41.191389,
        "longitude": 20.628611
    },
    {
        "name": "Zagorani",
        "country": "North Macedonia",
        "province": "Prilep",
        "population": 394,
        "latitude": 41.263101,
        "longitude": 21.433487
    },
    {
        "name": "Zabrčani",
        "country": "North Macedonia",
        "province": "Dolneni",
        "population": 133,
        "latitude": 41.429167,
        "longitude": 21.498056
    },
    {
        "name": "Žabjani",
        "country": "North Macedonia",
        "province": "Dolneni",
        "population": 71,
        "latitude": 41.452801,
        "longitude": 21.380035
    },
    {
        "name": "Gračani",
        "country": "North Macedonia",
        "province": "Grad Skopje",
        "population": -1,
        "latitude": 42.088428,
        "longitude": 21.293688
    },
    {
        "name": "Govrlevo",
        "country": "North Macedonia",
        "province": "Sopište",
        "population": 124,
        "latitude": 41.933519,
        "longitude": 21.344896
    },
    {
        "name": "Gostiražni",
        "country": "North Macedonia",
        "province": "Dolneni",
        "population": 208,
        "latitude": 41.554167,
        "longitude": 21.430833
    },
    {
        "name": "Gorobinci",
        "country": "North Macedonia",
        "province": "Sveti Nikole",
        "population": 1061,
        "latitude": 41.875071,
        "longitude": 21.875991
    },
    {
        "name": "Gorno Vranovci",
        "country": "North Macedonia",
        "province": "Chashka",
        "population": 184,
        "latitude": 41.68104,
        "longitude": 21.555925
    },
    {
        "name": "Gorno Tateši",
        "country": "North Macedonia",
        "province": "Struga",
        "population": -1,
        "latitude": 41.260278,
        "longitude": 20.677222
    },
    {
        "name": "Gorno Svilare",
        "country": "North Macedonia",
        "province": "Grad Skopje",
        "population": -1,
        "latitude": 42.043661,
        "longitude": 21.278725
    },
    {
        "name": "Gorno Selo",
        "country": "North Macedonia",
        "province": "Dolneni",
        "population": 113,
        "latitude": 41.420833,
        "longitude": 21.533889
    },
    {
        "name": "Gorno Sedlarce",
        "country": "North Macedonia",
        "province": "Bogovinje",
        "population": -1,
        "latitude": 41.935942,
        "longitude": 20.943971
    },
    {
        "name": "Gorno Palčište",
        "country": "North Macedonia",
        "province": "Bogovinje",
        "population": -1,
        "latitude": 41.980005,
        "longitude": 20.920915
    },
    {
        "name": "Gorno Orizari",
        "country": "North Macedonia",
        "province": "Grad Skopje",
        "population": -1,
        "latitude": 42.061008,
        "longitude": 21.409007
    },
    {
        "name": "Gorno Orizari",
        "country": "North Macedonia",
        "province": "Bitola",
        "population": 2066,
        "latitude": 41.051875,
        "longitude": 21.345478
    },
    {
        "name": "Gorno Nerezi",
        "country": "North Macedonia",
        "province": "Grad Skopje",
        "population": -1,
        "latitude": 41.978889,
        "longitude": 21.373333
    },
    {
        "name": "Gorno Melničani",
        "country": "North Macedonia",
        "province": "Centar Zhupa",
        "population": -1,
        "latitude": 41.518889,
        "longitude": 20.588056
    },
    {
        "name": "Gorni Lipoviḱ",
        "country": "North Macedonia",
        "province": "Konche",
        "population": -1,
        "latitude": 41.511389,
        "longitude": 22.493056
    },
    {
        "name": "Gorno Lakočerej",
        "country": "North Macedonia",
        "province": "Ohrid",
        "population": -1,
        "latitude": 41.168611,
        "longitude": 20.805
    },
    {
        "name": "Gorno Krušje",
        "country": "North Macedonia",
        "province": "Makedonski Brod",
        "population": 192,
        "latitude": 41.581645,
        "longitude": 21.130668
    },
    {
        "name": "Gorno Kosovrasti",
        "country": "North Macedonia",
        "province": "Debar",
        "population": -1,
        "latitude": 41.546908,
        "longitude": 20.574807
    },
    {
        "name": "Gorno Konjare",
        "country": "North Macedonia",
        "province": "Kumanovo",
        "population": -1,
        "latitude": 42.181667,
        "longitude": 21.7275
    },
    {
        "name": "Gorno Količani",
        "country": "North Macedonia",
        "province": "Studenichani",
        "population": 654,
        "latitude": 41.880234,
        "longitude": 21.472278
    },
    {
        "name": "Gorno Karaslari",
        "country": "North Macedonia",
        "province": "Veles",
        "population": 53,
        "latitude": 41.696111,
        "longitude": 21.836389
    },
    {
        "name": "Gorno Jelovce",
        "country": "North Macedonia",
        "province": "Gostivar",
        "population": -1,
        "latitude": 41.807854,
        "longitude": 20.789343
    },
    {
        "name": "Gorno Jabolciste",
        "country": "North Macedonia",
        "province": "North Macedonia",
        "population": 977,
        "latitude": 41.7225,
        "longitude": 21.4858333
    },
    {
        "name": "Gorno Dupeni",
        "country": "North Macedonia",
        "province": "Resen",
        "population": -1,
        "latitude": 41.062222,
        "longitude": 20.975278
    },
    {
        "name": "Gorno Ǵuǵance",
        "country": "North Macedonia",
        "province": "Sveti Nikole",
        "population": 37,
        "latitude": 41.992231,
        "longitude": 21.98712
    },
    {
        "name": "Gorna Ǵonovica",
        "country": "North Macedonia",
        "province": "Gostivar",
        "population": -1,
        "latitude": 41.708458,
        "longitude": 20.907626
    },
    {
        "name": "Gorna Belica",
        "country": "North Macedonia",
        "province": "Makedonski Brod",
        "population": 241,
        "latitude": 41.676171,
        "longitude": 21.304781
    },
    {
        "name": "Gorna Belica",
        "country": "North Macedonia",
        "province": "Struga",
        "population": -1,
        "latitude": 41.223517,
        "longitude": 20.556581
    },
    {
        "name": "Gorna Bela Crkva",
        "country": "North Macedonia",
        "province": "Resen",
        "population": 591,
        "latitude": 41.050278,
        "longitude": 21.028056
    },
    {
        "name": "Gorna Banjica",
        "country": "North Macedonia",
        "province": "Gostivar",
        "population": -1,
        "latitude": 41.78034,
        "longitude": 20.893738
    },
    {
        "name": "Gorjane",
        "country": "North Macedonia",
        "province": "Vrapchishte",
        "population": -1,
        "latitude": 41.897778,
        "longitude": 20.881389
    },
    {
        "name": "Gorenci",
        "country": "North Macedonia",
        "province": "Centar Zhupa",
        "population": -1,
        "latitude": 41.502265,
        "longitude": 20.55635
    },
    {
        "name": "Gorenci",
        "country": "North Macedonia",
        "province": "Debarca",
        "population": -1,
        "latitude": 41.190278,
        "longitude": 20.7575
    },
    {
        "name": "Gopeš",
        "country": "North Macedonia",
        "province": "Bitola",
        "population": -1,
        "latitude": 41.12,
        "longitude": 21.121944
    },
    {
        "name": "Golem Radobil",
        "country": "North Macedonia",
        "province": "Prilep",
        "population": 196,
        "latitude": 41.378644,
        "longitude": 21.805694
    },
    {
        "name": "Golemo Konjari",
        "country": "North Macedonia",
        "province": "Prilep",
        "population": 906,
        "latitude": 41.343056,
        "longitude": 21.440278
    },
    {
        "name": "Godivle",
        "country": "North Macedonia",
        "province": "Krivogashtani",
        "population": 297,
        "latitude": 41.368611,
        "longitude": 21.3175
    },
    {
        "name": "Glumovo",
        "country": "North Macedonia",
        "province": "Grad Skopje",
        "population": -1,
        "latitude": 41.980119,
        "longitude": 21.304947
    },
    {
        "name": "Globočica",
        "country": "North Macedonia",
        "province": "Struga",
        "population": -1,
        "latitude": 41.316944,
        "longitude": 20.642778
    },
    {
        "name": "Gečerlija",
        "country": "North Macedonia",
        "province": "Bosilovo",
        "population": -1,
        "latitude": 41.485538,
        "longitude": 22.713497
    },
    {
        "name": "Gari",
        "country": "North Macedonia",
        "province": "Debar",
        "population": -1,
        "latitude": 41.501361,
        "longitude": 20.683089
    },
    {
        "name": "Garani",
        "country": "North Macedonia",
        "province": "Kichevo",
        "population": 44,
        "latitude": 41.537063,
        "longitude": 21.019744
    },
    {
        "name": "Galičnik",
        "country": "North Macedonia",
        "province": "Mavrovo and Rostuša",
        "population": -1,
        "latitude": 41.594228,
        "longitude": 20.652836
    },
    {
        "name": "Galičani",
        "country": "North Macedonia",
        "province": "Prilep",
        "population": 338,
        "latitude": 41.304331,
        "longitude": 21.478301
    },
    {
        "name": "Gabalavci",
        "country": "North Macedonia",
        "province": "Bitola",
        "population": -1,
        "latitude": 41.133943,
        "longitude": 21.241088
    },
    {
        "name": "Furka",
        "country": "North Macedonia",
        "province": "Dojran",
        "population": -1,
        "latitude": 41.2418,
        "longitude": 22.61327
    },
    {
        "name": "Frangovo",
        "country": "North Macedonia",
        "province": "Struga",
        "population": -1,
        "latitude": 41.14479,
        "longitude": 20.625461
    },
    {
        "name": "Fariš",
        "country": "North Macedonia",
        "province": "Kavadarci",
        "population": 134,
        "latitude": 41.453431,
        "longitude": 21.80083
    },
    {
        "name": "Ezerani",
        "country": "North Macedonia",
        "province": "Resen",
        "population": -1,
        "latitude": 41.02819,
        "longitude": 21.021984
    },
    {
        "name": "Evla",
        "country": "North Macedonia",
        "province": "Resen",
        "population": -1,
        "latitude": 41.075,
        "longitude": 20.956111
    },
    {
        "name": "Erekovci",
        "country": "North Macedonia",
        "province": "Prilep",
        "population": 684,
        "latitude": 41.213448,
        "longitude": 21.482769
    },
    {
        "name": "Erdželija",
        "country": "North Macedonia",
        "province": "Sveti Nikole",
        "population": -1,
        "latitude": 41.834178,
        "longitude": 22.034024
    },
    {
        "name": "Elovo",
        "country": "North Macedonia",
        "province": "Studenichani",
        "population": 173,
        "latitude": 41.840469,
        "longitude": 21.371292
    },
    {
        "name": "Elevci",
        "country": "North Macedonia",
        "province": "Centar Zhupa",
        "population": -1,
        "latitude": 41.420187,
        "longitude": 20.623425
    },
    {
        "name": "Ehlovec",
        "country": "North Macedonia",
        "province": "Kichevo",
        "population": -1,
        "latitude": 41.459722,
        "longitude": 20.765833
    },
    {
        "name": "Ednokuḱevo",
        "country": "North Macedonia",
        "province": "Bosilovo",
        "population": -1,
        "latitude": 41.432222,
        "longitude": 22.733056
    },
    {
        "name": "Džepište",
        "country": "North Macedonia",
        "province": "Debar",
        "population": -1,
        "latitude": 41.443184,
        "longitude": 20.533403
    },
    {
        "name": "Džepin",
        "country": "North Macedonia",
        "province": "Struga",
        "population": -1,
        "latitude": 41.247778,
        "longitude": 20.738056
    },
    {
        "name": "Dvorce",
        "country": "North Macedonia",
        "province": "Grad Skopje",
        "population": -1,
        "latitude": 42.09903,
        "longitude": 21.165108
    },
    {
        "name": "Ǵuzemelci",
        "country": "North Macedonia",
        "province": "Lozovo",
        "population": 128,
        "latitude": 41.828056,
        "longitude": 21.876111
    },
    {
        "name": "Dolna Dušegubica",
        "country": "North Macedonia",
        "province": "Kichevo",
        "population": -1,
        "latitude": 41.491007,
        "longitude": 20.813905
    },
    {
        "name": "Dupjačani",
        "country": "North Macedonia",
        "province": "Dolneni",
        "population": 179,
        "latitude": 41.440833,
        "longitude": 21.521944
    },
    {
        "name": "Dunje",
        "country": "North Macedonia",
        "province": "Prilep",
        "population": 333,
        "latitude": 41.257687,
        "longitude": 21.692973
    },
    {
        "name": "Držilovo",
        "country": "North Macedonia",
        "province": "Sopište",
        "population": 330,
        "latitude": 41.850035,
        "longitude": 21.347655
    },
    {
        "name": "Drvoš",
        "country": "North Macedonia",
        "province": "Bosilovo",
        "population": -1,
        "latitude": 41.498245,
        "longitude": 22.773061
    },
    {
        "name": "Drmeni",
        "country": "North Macedonia",
        "province": "Resen",
        "population": -1,
        "latitude": 41.032763,
        "longitude": 20.998622
    },
    {
        "name": "Drevenik",
        "country": "North Macedonia",
        "province": "Bitola",
        "population": 116,
        "latitude": 41.200008,
        "longitude": 21.296145
    },
    {
        "name": "Drenovo",
        "country": "North Macedonia",
        "province": "Chashka",
        "population": 117,
        "latitude": 41.728611,
        "longitude": 21.571389
    },
    {
        "name": "Drenovci",
        "country": "North Macedonia",
        "province": "Dolneni",
        "population": 376,
        "latitude": 41.469147,
        "longitude": 21.544003
    },
    {
        "name": "Drenok",
        "country": "North Macedonia",
        "province": "Struga",
        "population": -1,
        "latitude": 41.391389,
        "longitude": 20.560556
    },
    {
        "name": "Dren",
        "country": "North Macedonia",
        "province": "Demir Kapija",
        "population": -1,
        "latitude": 41.366229,
        "longitude": 22.246608
    },
    {
        "name": "Dren",
        "country": "North Macedonia",
        "province": "Prilep",
        "population": 16,
        "latitude": 41.329505,
        "longitude": 21.779639
    },
    {
        "name": "Draslajca",
        "country": "North Macedonia",
        "province": "Struga",
        "population": -1,
        "latitude": 41.215556,
        "longitude": 20.693056
    },
    {
        "name": "Dragožani",
        "country": "North Macedonia",
        "province": "Bitola",
        "population": 475,
        "latitude": 41.110833,
        "longitude": 21.292778
    },
    {
        "name": "Dragoš",
        "country": "North Macedonia",
        "province": "Bitola",
        "population": -1,
        "latitude": 40.881911,
        "longitude": 21.350913
    },
    {
        "name": "Dragoevo",
        "country": "North Macedonia",
        "province": "Shtip",
        "population": -1,
        "latitude": 41.673333,
        "longitude": 22.133056
    },
    {
        "name": "Dragobrašte",
        "country": "North Macedonia",
        "province": "Vinica",
        "population": -1,
        "latitude": 41.897222,
        "longitude": 22.599444
    },
    {
        "name": "Dragarino",
        "country": "North Macedonia",
        "province": "Bitola",
        "population": 148,
        "latitude": 41.097859,
        "longitude": 21.308977
    },
    {
        "name": "Dračevica",
        "country": "North Macedonia",
        "province": "Studenichani",
        "population": 584,
        "latitude": 41.882168,
        "longitude": 21.442134
    },
    {
        "name": "Dorlombos",
        "country": "North Macedonia",
        "province": "Strumica",
        "population": -1,
        "latitude": 41.339236,
        "longitude": 22.669271
    },
    {
        "name": "Dorfulija",
        "country": "North Macedonia",
        "province": "Lozovo",
        "population": 860,
        "latitude": 41.765476,
        "longitude": 21.892803
    },
    {
        "name": "Ǵopčeli",
        "country": "North Macedonia",
        "province": "Dojran",
        "population": -1,
        "latitude": 41.255936,
        "longitude": 22.665103
    },
    {
        "name": "Dolno Vranovci",
        "country": "North Macedonia",
        "province": "Chashka",
        "population": 208,
        "latitude": 41.58886,
        "longitude": 21.704957
    },
    {
        "name": "Dolno Tateši",
        "country": "North Macedonia",
        "province": "Struga",
        "population": -1,
        "latitude": 41.258611,
        "longitude": 20.689167
    },
    {
        "name": "Dolno Svilare",
        "country": "North Macedonia",
        "province": "Grad Skopje",
        "population": -1,
        "latitude": 42.027505,
        "longitude": 21.286031
    },
    {
        "name": "Dolno Sonje",
        "country": "North Macedonia",
        "province": "Sopište",
        "population": 617,
        "latitude": 41.940766,
        "longitude": 21.378611
    },
    {
        "name": "Dolno Orizari",
        "country": "North Macedonia",
        "province": "Veles",
        "population": 5,
        "latitude": 41.674167,
        "longitude": 21.748889
    },
    {
        "name": "Долно Нерези",
        "country": "North Macedonia",
        "province": "Grad Skopje",
        "population": -1,
        "latitude": 41.9975,
        "longitude": 21.3786111
    },
    {
        "name": "Dolno Melničani",
        "country": "North Macedonia",
        "province": "Centar Zhupa",
        "population": -1,
        "latitude": 41.516705,
        "longitude": 20.572616
    },
    {
        "name": "Dolno Lisiče",
        "country": "North Macedonia",
        "province": "Grad Skopje",
        "population": -1,
        "latitude": 41.956168,
        "longitude": 21.534402
    },
    {
        "name": "Dolni Lipoviḱ",
        "country": "North Macedonia",
        "province": "Konche",
        "population": -1,
        "latitude": 41.504167,
        "longitude": 22.456944
    },
    {
        "name": "Dolno Krušje",
        "country": "North Macedonia",
        "province": "Makedonski Brod",
        "population": 69,
        "latitude": 41.594483,
        "longitude": 21.145419
    },
    {
        "name": "Dolno Kosovrasti",
        "country": "North Macedonia",
        "province": "Debar",
        "population": -1,
        "latitude": 41.538505,
        "longitude": 20.583507
    },
    {
        "name": "Dolno Konjari",
        "country": "North Macedonia",
        "province": "Petrovec",
        "population": 656,
        "latitude": 41.942877,
        "longitude": 21.709171
    },
    {
        "name": "Dolno Jabolciste",
        "country": "North Macedonia",
        "province": "North Macedonia",
        "population": 360,
        "latitude": 41.7263889,
        "longitude": 21.5147222
    },
    {
        "name": "Dolno Dupeni",
        "country": "North Macedonia",
        "province": "Resen",
        "population": 563,
        "latitude": 40.8755556,
        "longitude": 21.1197222
    },
    {
        "name": "Dolno Ǵuǵance",
        "country": "North Macedonia",
        "province": "Sveti Nikole",
        "population": 377,
        "latitude": 41.968333,
        "longitude": 21.957778
    },
    {
        "name": "Dolna Lešnica",
        "country": "North Macedonia",
        "province": "Zhelino",
        "population": 546,
        "latitude": 41.956667,
        "longitude": 21.060278
    },
    {
        "name": "Dolna Belica",
        "country": "North Macedonia",
        "province": "Struga",
        "population": -1,
        "latitude": 41.213333,
        "longitude": 20.635
    },
    {
        "name": "Dolna Bela Crkva",
        "country": "North Macedonia",
        "province": "Resen",
        "population": 400,
        "latitude": 41.0375,
        "longitude": 21.030833
    },
    {
        "name": "Dolgaš",
        "country": "North Macedonia",
        "province": "Centar Zhupa",
        "population": -1,
        "latitude": 41.423151,
        "longitude": 20.586812
    },
    {
        "name": "Dolgaec",
        "country": "North Macedonia",
        "province": "Dolneni",
        "population": 195,
        "latitude": 41.535278,
        "longitude": 21.375556
    },
    {
        "name": "Dolenci",
        "country": "North Macedonia",
        "province": "Demir Hisar",
        "population": 242,
        "latitude": 41.315374,
        "longitude": 21.097946
    },
    {
        "name": "Dolenci",
        "country": "North Macedonia",
        "province": "Bitola",
        "population": 466,
        "latitude": 41.083889,
        "longitude": 21.155
    },
    {
        "name": "Dobri Dol",
        "country": "North Macedonia",
        "province": "Sopište",
        "population": 476,
        "latitude": 41.927178,
        "longitude": 21.404888
    },
    {
        "name": "Dihovo",
        "country": "North Macedonia",
        "province": "Bitola",
        "population": 644,
        "latitude": 41.030278,
        "longitude": 21.263889
    },
    {
        "name": "Deljadrovci",
        "country": "North Macedonia",
        "province": "Ilinden",
        "population": -1,
        "latitude": 42.015,
        "longitude": 21.670278
    },
    {
        "name": "Dejkovec",
        "country": "North Macedonia",
        "province": "Zelenikovo",
        "population": 156,
        "latitude": 41.791976,
        "longitude": 21.567467
    },
    {
        "name": "Debrešte",
        "country": "North Macedonia",
        "province": "Dolneni",
        "population": -1,
        "latitude": 41.47953,
        "longitude": 21.317158
    },
    {
        "name": "Debreše",
        "country": "North Macedonia",
        "province": "Gostivar",
        "population": 4,
        "latitude": 41.815922,
        "longitude": 20.884188
    },
    {
        "name": "Ǵavato",
        "country": "North Macedonia",
        "province": "Bogdanci",
        "population": -1,
        "latitude": 41.19387,
        "longitude": 22.535608
    },
    {
        "name": "Dabnica",
        "country": "North Macedonia",
        "province": "Prilep",
        "population": 17,
        "latitude": 41.397337,
        "longitude": 21.564676
    },
    {
        "name": "Dabjani",
        "country": "North Macedonia",
        "province": "Dolneni",
        "population": -1,
        "latitude": 41.427684,
        "longitude": 21.366152
    },
    {
        "name": "Cvilance",
        "country": "North Macedonia",
        "province": "Staro Nagorichane",
        "population": -1,
        "latitude": 42.218204,
        "longitude": 21.920855
    },
    {
        "name": "Cvetovo",
        "country": "North Macedonia",
        "province": "Studenichani",
        "population": 610,
        "latitude": 41.857735,
        "longitude": 21.40985
    },
    {
        "name": "Crvena Voda",
        "country": "North Macedonia",
        "province": "Studenichani",
        "population": 98,
        "latitude": 41.8575,
        "longitude": 21.458889
    },
    {
        "name": "Crn Vrv",
        "country": "North Macedonia",
        "province": "Studenichani",
        "population": 773,
        "latitude": 41.811944,
        "longitude": 21.377778
    },
    {
        "name": "Crnovec",
        "country": "North Macedonia",
        "province": "Bitola",
        "population": 577,
        "latitude": 41.155739,
        "longitude": 21.223988
    },
    {
        "name": "Crnobuki",
        "country": "North Macedonia",
        "province": "Bitola",
        "population": 830,
        "latitude": 41.123563,
        "longitude": 21.32229
    },
    {
        "name": "Crkvino",
        "country": "North Macedonia",
        "province": "Veles",
        "population": 471,
        "latitude": 41.657001,
        "longitude": 21.795723
    },
    {
        "name": "Ḱoselari",
        "country": "North Macedonia",
        "province": "Lozovo",
        "population": 191,
        "latitude": 41.758197,
        "longitude": 21.942126
    },
    {
        "name": "Ḱojlija",
        "country": "North Macedonia",
        "province": "Petrovec",
        "population": 482,
        "latitude": 41.945125,
        "longitude": 21.627161
    },
    {
        "name": "Čumovo",
        "country": "North Macedonia",
        "province": "Prilep",
        "population": 95,
        "latitude": 41.282098,
        "longitude": 21.568476
    },
    {
        "name": "Čiflik",
        "country": "North Macedonia",
        "province": "Sopište",
        "population": 444,
        "latitude": 41.947565,
        "longitude": 21.352621
    },
    {
        "name": "Čiflik",
        "country": "North Macedonia",
        "province": "Zhelino",
        "population": 854,
        "latitude": 41.951389,
        "longitude": 21.120556
    },
    {
        "name": "Čiflik",
        "country": "North Macedonia",
        "province": "Demir Kapija",
        "population": -1,
        "latitude": 41.388643,
        "longitude": 22.222057
    },
    {
        "name": "Četirce",
        "country": "North Macedonia",
        "province": "Kumanovo",
        "population": -1,
        "latitude": 42.215556,
        "longitude": 21.762778
    },
    {
        "name": "Cerovo",
        "country": "North Macedonia",
        "province": "Zhelino",
        "population": 431,
        "latitude": 41.992281,
        "longitude": 21.136361
    },
    {
        "name": "Черкези",
        "country": "North Macedonia",
        "province": "North Macedonia",
        "population": -1,
        "latitude": 42.1238889,
        "longitude": 21.6830556
    },
    {
        "name": "Cer",
        "country": "North Macedonia",
        "province": "Kichevo",
        "population": 390,
        "latitude": 41.417082,
        "longitude": 21.073119
    },
    {
        "name": "Čepigovo",
        "country": "North Macedonia",
        "province": "Prilep",
        "population": 218,
        "latitude": 41.248609,
        "longitude": 21.396161
    },
    {
        "name": "Čelopek",
        "country": "North Macedonia",
        "province": "Brvenica",
        "population": 4731,
        "latitude": 41.9316667,
        "longitude": 21.0133333
    },
    {
        "name": "Čelopeci",
        "country": "North Macedonia",
        "province": "Kichevo",
        "population": 414,
        "latitude": 41.472946,
        "longitude": 21.028451
    },
    {
        "name": "Čelevec",
        "country": "North Macedonia",
        "province": "Demir Kapija",
        "population": -1,
        "latitude": 41.424444,
        "longitude": 22.278611
    },
    {
        "name": "Carev Dvor",
        "country": "North Macedonia",
        "province": "Resen",
        "population": -1,
        "latitude": 41.043454,
        "longitude": 21.00587
    },
    {
        "name": "Čanište",
        "country": "North Macedonia",
        "province": "Prilep",
        "population": 348,
        "latitude": 41.165278,
        "longitude": 21.685556
    },
    {
        "name": "Čaloševo",
        "country": "North Macedonia",
        "province": "Veles",
        "population": 197,
        "latitude": 41.754722,
        "longitude": 21.796111
    },
    {
        "name": "Čajle",
        "country": "North Macedonia",
        "province": "Gostivar",
        "population": 4,
        "latitude": 41.80466,
        "longitude": 20.9319
    },
    {
        "name": "Čajlane",
        "country": "North Macedonia",
        "province": "Grad Skopje",
        "population": 510,
        "latitude": 41.962448,
        "longitude": 21.255035
    },
    {
        "name": "Buzalkovo",
        "country": "North Macedonia",
        "province": "Veles",
        "population": 945,
        "latitude": 41.738579,
        "longitude": 21.675778
    },
    {
        "name": "Busilci",
        "country": "North Macedonia",
        "province": "Chashka",
        "population": 68,
        "latitude": 41.623056,
        "longitude": 21.703889
    },
    {
        "name": "Burinec",
        "country": "North Macedonia",
        "province": "Struga",
        "population": -1,
        "latitude": 41.395278,
        "longitude": 20.617222
    },
    {
        "name": "Бунарџик",
        "country": "North Macedonia",
        "province": "North Macedonia",
        "population": 281,
        "latitude": 41.9933333,
        "longitude": 21.6169444
    },
    {
        "name": "Bukovo",
        "country": "North Macedonia",
        "province": "Bitola",
        "population": -1,
        "latitude": 40.994354,
        "longitude": 21.332285
    },
    {
        "name": "Bukojčani",
        "country": "North Macedonia",
        "province": "Kichevo",
        "population": -1,
        "latitude": 41.625278,
        "longitude": 20.959444
    },
    {
        "name": "Бујковци",
        "country": "North Macedonia",
        "province": "North Macedonia",
        "population": -1,
        "latitude": 42.0038889,
        "longitude": 21.6497222
    },
    {
        "name": "Budinarci",
        "country": "North Macedonia",
        "province": "Berovo",
        "population": -1,
        "latitude": 41.763326,
        "longitude": 22.774916
    },
    {
        "name": "Budimirci",
        "country": "North Macedonia",
        "province": "Novaci",
        "population": 188,
        "latitude": 41.056826,
        "longitude": 21.729164
    },
    {
        "name": "Budakovo",
        "country": "North Macedonia",
        "province": "Mogila",
        "population": 309,
        "latitude": 41.139225,
        "longitude": 21.474613
    },
    {
        "name": "Brusnik",
        "country": "North Macedonia",
        "province": "Bitola",
        "population": 790,
        "latitude": 41.023056,
        "longitude": 21.285278
    },
    {
        "name": "Broštica",
        "country": "North Macedonia",
        "province": "Centar Zhupa",
        "population": -1,
        "latitude": 41.493162,
        "longitude": 20.583629
    },
    {
        "name": "Brodec",
        "country": "North Macedonia",
        "province": "Tetovo",
        "population": -1,
        "latitude": 42.058656,
        "longitude": 20.892569
    },
    {
        "name": "Brodec",
        "country": "North Macedonia",
        "province": "Gostivar",
        "population": -1,
        "latitude": 41.786389,
        "longitude": 20.686389
    },
    {
        "name": "Brnjarci",
        "country": "North Macedonia",
        "province": "Grad Skopje",
        "population": 384,
        "latitude": 42.034222,
        "longitude": 21.548367
    },
    {
        "name": "Breznica",
        "country": "North Macedonia",
        "province": "Makedonski Brod",
        "population": 186,
        "latitude": 41.736514,
        "longitude": 21.226696
    },
    {
        "name": "Katlanovska Breznica",
        "country": "North Macedonia",
        "province": "Petrovec",
        "population": 29,
        "latitude": 41.870558,
        "longitude": 21.725324
    },
    {
        "name": "Brčevo",
        "country": "North Macedonia",
        "province": "Struga",
        "population": -1,
        "latitude": 41.297687,
        "longitude": 20.672841
    },
    {
        "name": "Bratin Dol",
        "country": "North Macedonia",
        "province": "Bitola",
        "population": 304,
        "latitude": 41.055,
        "longitude": 21.261389
    },
    {
        "name": "Brajčino",
        "country": "North Macedonia",
        "province": "Resen",
        "population": 755,
        "latitude": 40.9063889,
        "longitude": 21.1591667
    },
    {
        "name": "Brailovo",
        "country": "North Macedonia",
        "province": "Dolneni",
        "population": 436,
        "latitude": 41.47708,
        "longitude": 21.462123
    },
    {
        "name": "Bozovce",
        "country": "North Macedonia",
        "province": "Tetovo",
        "population": -1,
        "latitude": 42.053618,
        "longitude": 20.827267
    },
    {
        "name": "Botun",
        "country": "North Macedonia",
        "province": "Debarca",
        "population": -1,
        "latitude": 41.286267,
        "longitude": 20.789859
    },
    {
        "name": "Boroec",
        "country": "North Macedonia",
        "province": "Struga",
        "population": -1,
        "latitude": 41.289282,
        "longitude": 20.596532
    },
    {
        "name": "Borotino",
        "country": "North Macedonia",
        "province": "Krivogashtani",
        "population": 336,
        "latitude": 41.289827,
        "longitude": 21.400952
    },
    {
        "name": "Borino",
        "country": "North Macedonia",
        "province": "Krushevo",
        "population": 474,
        "latitude": 41.432316,
        "longitude": 21.278296
    },
    {
        "name": "Borievo",
        "country": "North Macedonia",
        "province": "Bosilovo",
        "population": -1,
        "latitude": 41.422958,
        "longitude": 22.765203
    },
    {
        "name": "Bonče",
        "country": "North Macedonia",
        "province": "Prilep",
        "population": 243,
        "latitude": 41.228339,
        "longitude": 21.597914
    },
    {
        "name": "Bolno",
        "country": "North Macedonia",
        "province": "Resen",
        "population": -1,
        "latitude": 41.109444,
        "longitude": 20.972222
    },
    {
        "name": "Boletin",
        "country": "North Macedonia",
        "province": "Mavrovo and Rostuša",
        "population": -1,
        "latitude": 41.657602,
        "longitude": 20.60096
    },
    {
        "name": "Bogorodica",
        "country": "North Macedonia",
        "province": "Gevgelija",
        "population": -1,
        "latitude": 41.139903,
        "longitude": 22.549885
    },
    {
        "name": "Bogdevo",
        "country": "North Macedonia",
        "province": "Mavrovo and Rostuša",
        "population": -1,
        "latitude": 41.743701,
        "longitude": 20.70021
    },
    {
        "name": "Blace",
        "country": "North Macedonia",
        "province": "Chucher Sandevo",
        "population": -1,
        "latitude": 42.151274,
        "longitude": 21.333537
    },
    {
        "name": "Bitovo",
        "country": "North Macedonia",
        "province": "Makedonski Brod",
        "population": 216,
        "latitude": 41.745681,
        "longitude": 21.08111
    },
    {
        "name": "Bistrica",
        "country": "North Macedonia",
        "province": "North Macedonia",
        "population": 330,
        "latitude": 41.6155556,
        "longitude": 21.5161111
    },
    {
        "name": "Bistrenci",
        "country": "North Macedonia",
        "province": "Demir Kapija",
        "population": -1,
        "latitude": 41.447978,
        "longitude": 22.200656
    },
    {
        "name": "Bidžovo",
        "country": "North Macedonia",
        "province": "Struga",
        "population": -1,
        "latitude": 41.23,
        "longitude": 20.698333
    },
    {
        "name": "Bibanje",
        "country": "North Macedonia",
        "province": "Mavrovo and Rostuša",
        "population": -1,
        "latitude": 41.731944,
        "longitude": 20.6275
    },
    {
        "name": "Besvica",
        "country": "North Macedonia",
        "province": "Demir Kapija",
        "population": -1,
        "latitude": 41.384291,
        "longitude": 22.182011
    },
    {
        "name": "Bešište",
        "country": "North Macedonia",
        "province": "Prilep",
        "population": 238,
        "latitude": 41.139376,
        "longitude": 21.781916
    },
    {
        "name": "Berovci",
        "country": "North Macedonia",
        "province": "Prilep",
        "population": 357,
        "latitude": 41.297657,
        "longitude": 21.495014
    },
    {
        "name": "Berikovo",
        "country": "North Macedonia",
        "province": "Kichevo",
        "population": 245,
        "latitude": 41.641359,
        "longitude": 20.997365
    },
    {
        "name": "Benče",
        "country": "North Macedonia",
        "province": "Makedonski Brod",
        "population": 122,
        "latitude": 41.691731,
        "longitude": 21.098916
    },
    {
        "name": "Belušino",
        "country": "North Macedonia",
        "province": "Krushevo",
        "population": 127,
        "latitude": 41.43666,
        "longitude": 21.252867
    },
    {
        "name": "Belovodica",
        "country": "North Macedonia",
        "province": "Prilep",
        "population": 73,
        "latitude": 41.337104,
        "longitude": 21.702861
    },
    {
        "name": "Belovište",
        "country": "North Macedonia",
        "province": "Gostivar",
        "population": -1,
        "latitude": 41.774354,
        "longitude": 20.932429
    },
    {
        "name": "Belo Pole",
        "country": "North Macedonia",
        "province": "Dolneni",
        "population": 329,
        "latitude": 41.411055,
        "longitude": 21.397131
    },
    {
        "name": "Beličica",
        "country": "North Macedonia",
        "province": "Mavrovo and Rostuša",
        "population": -1,
        "latitude": 41.693889,
        "longitude": 20.690278
    },
    {
        "name": "Beli",
        "country": "North Macedonia",
        "province": "Kochani",
        "population": -1,
        "latitude": 41.928131,
        "longitude": 22.38084
    },
    {
        "name": "Bela Crkva",
        "country": "North Macedonia",
        "province": "Krivogashtani",
        "population": 807,
        "latitude": 41.280292,
        "longitude": 21.34515
    },
    {
        "name": "Bedinje",
        "country": "North Macedonia",
        "province": "Kumanovo",
        "population": 2256,
        "latitude": 42.141667,
        "longitude": 21.696389
    },
    {
        "name": "Barovo",
        "country": "North Macedonia",
        "province": "Sopište",
        "population": 37,
        "latitude": 41.94496,
        "longitude": 21.344843
    },
    {
        "name": "Barovo",
        "country": "North Macedonia",
        "province": "Demir Kapija",
        "population": -1,
        "latitude": 41.343889,
        "longitude": 22.140556
    },
    {
        "name": "Barešani",
        "country": "North Macedonia",
        "province": "Bitola",
        "population": -1,
        "latitude": 40.95264,
        "longitude": 21.355448
    },
    {
        "name": "Бардовци",
        "country": "North Macedonia",
        "province": "Grad Skopje",
        "population": -1,
        "latitude": 42.0269444,
        "longitude": 21.3761111
    },
    {
        "name": "Barakovo",
        "country": "North Macedonia",
        "province": "Demir Hisar",
        "population": 90,
        "latitude": 41.250429,
        "longitude": 21.228262
    },
    {
        "name": "Bansko",
        "country": "North Macedonia",
        "province": "Strumica",
        "population": -1,
        "latitude": 41.383889,
        "longitude": 22.743611
    },
    {
        "name": "Banjishte",
        "country": "North Macedonia",
        "province": "North Macedonia",
        "population": -1,
        "latitude": 41.5594444,
        "longitude": 20.5294444
    },
    {
        "name": "Banjica",
        "country": "North Macedonia",
        "province": "Chashka",
        "population": 213,
        "latitude": 41.700018,
        "longitude": 21.665778
    },
    {
        "name": "Balin Dol",
        "country": "North Macedonia",
        "province": "Gostivar",
        "population": -1,
        "latitude": 41.792191,
        "longitude": 20.934993
    },
    {
        "name": "Balanci",
        "country": "North Macedonia",
        "province": "Centar Zhupa",
        "population": -1,
        "latitude": 41.483751,
        "longitude": 20.552903
    },
    {
        "name": "Badelen",
        "country": "North Macedonia",
        "province": "Novo Selo",
        "population": -1,
        "latitude": 41.443223,
        "longitude": 22.953228
    },
    {
        "name": "Bačišta",
        "country": "North Macedonia",
        "province": "Kichevo",
        "population": -1,
        "latitude": 41.605278,
        "longitude": 20.906944
    },
    {
        "name": "Babino",
        "country": "North Macedonia",
        "province": "Demir Hisar",
        "population": 194,
        "latitude": 41.2989,
        "longitude": 21.078701
    },
    {
        "name": "Asamati",
        "country": "North Macedonia",
        "province": "Resen",
        "population": 218,
        "latitude": 40.984508,
        "longitude": 21.051323
    },
    {
        "name": "Arvati",
        "country": "North Macedonia",
        "province": "Resen",
        "population": 507,
        "latitude": 40.944433,
        "longitude": 21.115202
    },
    {
        "name": "Arnakija",
        "country": "North Macedonia",
        "province": "Grad Skopje",
        "population": 699,
        "latitude": 41.986165,
        "longitude": 21.28682
    },
    {
        "name": "Armatuš",
        "country": "North Macedonia",
        "province": "Novaci",
        "population": 34,
        "latitude": 41.097168,
        "longitude": 21.525886
    },
    {
        "name": "Arbinovo",
        "country": "North Macedonia",
        "province": "Debarca",
        "population": -1,
        "latitude": 41.37046,
        "longitude": 20.829815
    },
    {
        "name": "Arangel",
        "country": "North Macedonia",
        "province": "Kichevo",
        "population": 553,
        "latitude": 41.595469,
        "longitude": 21.023481
    },
    {
        "name": "Alinci",
        "country": "North Macedonia",
        "province": "Prilep",
        "population": 449,
        "latitude": 41.259143,
        "longitude": 21.481717
    },
    {
        "name": "Alinci",
        "country": "North Macedonia",
        "province": "Mogila",
        "population": 196,
        "latitude": 41.151111,
        "longitude": 21.505278
    },
    {
        "name": "Aldinci",
        "country": "North Macedonia",
        "province": "Studenichani",
        "population": 158,
        "latitude": 41.802248,
        "longitude": 21.429128
    },
    {
        "name": "Aldanci",
        "country": "North Macedonia",
        "province": "Krushevo",
        "population": 459,
        "latitude": 41.367311,
        "longitude": 21.297026
    },
    {
        "name": "Alaševce",
        "country": "North Macedonia",
        "province": "Lipkovo",
        "population": -1,
        "latitude": 42.185509,
        "longitude": 21.590456
    },
    {
        "name": "Ајватовци",
        "country": "North Macedonia",
        "province": "North Macedonia",
        "population": -1,
        "latitude": 42.0063889,
        "longitude": 21.6102778
    },
    {
        "name": "Agino Selo",
        "country": "North Macedonia",
        "province": "Kumanovo",
        "population": -1,
        "latitude": 42.047978,
        "longitude": 21.680931
    },
    {
        "name": "Adžievci",
        "country": "North Macedonia",
        "province": "Mavrovo and Rostuša",
        "population": -1,
        "latitude": 41.588143,
        "longitude": 20.613833
    },
    {
        "name": "Hamzali",
        "country": "North Macedonia",
        "province": "Bosilovo",
        "population": -1,
        "latitude": 41.489722,
        "longitude": 22.743056
    },
    {
        "name": "Monospitovo",
        "country": "North Macedonia",
        "province": "Bosilovo",
        "population": -1,
        "latitude": 41.415589,
        "longitude": 22.752861
    },
    {
        "name": "Korešnica",
        "country": "North Macedonia",
        "province": "Demir Kapija",
        "population": -1,
        "latitude": 41.434489,
        "longitude": 22.238588
    },
    {
        "name": "Mogorče",
        "country": "North Macedonia",
        "province": "Debar",
        "population": -1,
        "latitude": 41.531115,
        "longitude": 20.624048
    },
    {
        "name": "Vrteška",
        "country": "North Macedonia",
        "province": "Karbinci",
        "population": -1,
        "latitude": 41.759299,
        "longitude": 22.418964
    },
    {
        "name": "Vrtekica",
        "country": "North Macedonia",
        "province": "Studenichani",
        "population": 237,
        "latitude": 41.885,
        "longitude": 21.510556
    },
    {
        "name": "Vrbjani",
        "country": "North Macedonia",
        "province": "Krivogashtani",
        "population": 431,
        "latitude": 41.330872,
        "longitude": 21.388498
    },
    {
        "name": "Vrbjani",
        "country": "North Macedonia",
        "province": "Mavrovo and Rostuša",
        "population": -1,
        "latitude": 41.683611,
        "longitude": 20.6325
    },
    {
        "name": "Vrben",
        "country": "North Macedonia",
        "province": "Mavrovo and Rostuša",
        "population": -1,
        "latitude": 41.720833,
        "longitude": 20.729444
    },
    {
        "name": "Vražale",
        "country": "North Macedonia",
        "province": "Zelenikovo",
        "population": 288,
        "latitude": 41.882778,
        "longitude": 21.557778
    },
    {
        "name": "Vraništa",
        "country": "North Macedonia",
        "province": "Struga",
        "population": -1,
        "latitude": 41.210222,
        "longitude": 20.663941
    },
    {
        "name": "Vranče",
        "country": "North Macedonia",
        "province": "Dolneni",
        "population": 240,
        "latitude": 41.393867,
        "longitude": 21.372782
    },
    {
        "name": "Volkovo",
        "country": "North Macedonia",
        "province": "Prilep",
        "population": 79,
        "latitude": 41.301792,
        "longitude": 21.568712
    },
    {
        "name": "Volkovija",
        "country": "North Macedonia",
        "province": "Brvenica",
        "population": 117,
        "latitude": 41.864368,
        "longitude": 20.997522
    },
    {
        "name": "Volkoderi",
        "country": "North Macedonia",
        "province": "Resen",
        "population": -1,
        "latitude": 41.017668,
        "longitude": 20.956303
    },
    {
        "name": "Vodovrati",
        "country": "North Macedonia",
        "province": "Gradsko",
        "population": 399,
        "latitude": 41.582762,
        "longitude": 21.878977
    },
    {
        "name": "Vodoča",
        "country": "North Macedonia",
        "province": "Strumica",
        "population": -1,
        "latitude": 41.449319,
        "longitude": 22.590997
    },
    {
        "name": "Voǵani",
        "country": "North Macedonia",
        "province": "Krivogashtani",
        "population": 554,
        "latitude": 41.282527,
        "longitude": 21.339922
    },
    {
        "name": "Визбегово",
        "country": "North Macedonia",
        "province": "Grad Skopje",
        "population": -1,
        "latitude": 42.0363889,
        "longitude": 21.4094444
    },
    {
        "name": "Višni",
        "country": "North Macedonia",
        "province": "Struga",
        "population": -1,
        "latitude": 41.193333,
        "longitude": 20.598889
    },
    {
        "name": "Viduše",
        "country": "North Macedonia",
        "province": "Mavrovo and Rostuša",
        "population": -1,
        "latitude": 41.658671,
        "longitude": 20.589805
    },
    {
        "name": "Veselčani",
        "country": "North Macedonia",
        "province": "Prilep",
        "population": 273,
        "latitude": 41.272252,
        "longitude": 21.441317
    },
    {
        "name": "Vešala",
        "country": "North Macedonia",
        "province": "Tetovo",
        "population": -1,
        "latitude": 42.06106,
        "longitude": 20.845871
    },
    {
        "name": "Veprčani",
        "country": "North Macedonia",
        "province": "Prilep",
        "population": 62,
        "latitude": 41.27,
        "longitude": 21.750556
    },
    {
        "name": "Velušina",
        "country": "North Macedonia",
        "province": "Bitola",
        "population": -1,
        "latitude": 40.929041,
        "longitude": 21.35142
    },
    {
        "name": "Velmej",
        "country": "North Macedonia",
        "province": "Debarca",
        "population": -1,
        "latitude": 41.298376,
        "longitude": 20.901739
    },
    {
        "name": "Velgošti",
        "country": "North Macedonia",
        "province": "Ohrid",
        "population": -1,
        "latitude": 41.1325,
        "longitude": 20.836944
    },
    {
        "name": "Velestovo",
        "country": "North Macedonia",
        "province": "Ohrid",
        "population": -1,
        "latitude": 41.083611,
        "longitude": 20.827778
    },
    {
        "name": "Velebrdo",
        "country": "North Macedonia",
        "province": "Mavrovo and Rostuša",
        "population": -1,
        "latitude": 41.616786,
        "longitude": 20.59728
    },