[
    {
        "name": "Bamako",
        "country": "Mali",
        "province": "Bamako",
        "population": 1297281,
        "latitude": 12.65,
        "longitude": -8
    },
    {
        "name": "Mopti",
        "country": "Mali",
        "province": "Mopti",
        "population": 108456,
        "latitude": 14.484298049132038,
        "longitude": -4.182958602905273
    },
    {
        "name": "Sikasso",
        "country": "Mali",
        "province": "Sikasso",
        "population": 144786,
        "latitude": 11.317554792972693,
        "longitude": -5.666542053222656
    },
    {
        "name": "Ségou",
        "country": "Mali",
        "province": "Ségou",
        "population": 153349,
        "latitude": 13.44032,
        "longitude": -6.25947
    },
    {
        "name": "Gao",
        "country": "Mali",
        "province": "Gao",
        "population": 87000,
        "latitude": 16.27167,
        "longitude": -0.04472
    },
    {
        "name": "Kayes",
        "country": "Mali",
        "province": "Kayes",
        "population": 78406,
        "latitude": 14.446933,
        "longitude": -11.444478
    },
    {
        "name": "Koutiala",
        "country": "Mali",
        "province": "Sikasso",
        "population": 99353,
        "latitude": 12.391726,
        "longitude": -5.464209
    },
    {
        "name": "Markala",
        "country": "Mali",
        "province": "Ségou",
        "population": 53738,
        "latitude": 13.68427,
        "longitude": -6.07352
    },
    {
        "name": "Timbuktu",
        "country": "Mali",
        "province": "Tombouctou",
        "population": 32460,
        "latitude": 16.7734800047963,
        "longitude": -3.00742149353027
    },
    {
        "name": "Kolokani",
        "country": "Mali",
        "province": "Koulikoro",
        "population": 48774,
        "latitude": 13.5728,
        "longitude": -8.0339
    },
    {
        "name": "Kati",
        "country": "Mali",
        "province": "Koulikoro",
        "population": 42922,
        "latitude": 12.744092,
        "longitude": -8.072574
    },
    {
        "name": "Koulikoro",
        "country": "Mali",
        "province": "Koulikoro",
        "population": 23919,
        "latitude": 12.862734,
        "longitude": -7.559849
    },
    {
        "name": "Kidal",
        "country": "Mali",
        "province": "Kidal",
        "population": 11643,
        "latitude": 18.4411111,
        "longitude": 1.4077778
    },
    {
        "name": "Taoudenni",
        "country": "Mali",
        "province": "Taoudénit",
        "population": 3019,
        "latitude": 22.674433,
        "longitude": -3.978908
    },
    {
        "name": "Ti-n-Zaouâtene",
        "country": "Mali",
        "province": "Kidal",
        "population": -1,
        "latitude": 19.95427,
        "longitude": 2.96732
    },
    {
        "name": "Djenné",
        "country": "Mali",
        "province": "Mopti",
        "population": 22382,
        "latitude": 13.9060750107604,
        "longitude": -4.55331802368164
    },
    {
        "name": "Bougouni",
        "country": "Mali",
        "province": "Sikasso",
        "population": 35450,
        "latitude": 11.41768961795012,
        "longitude": -7.483234405517578
    },
    {
        "name": "Banamba",
        "country": "Mali",
        "province": "Koulikoro",
        "population": 30591,
        "latitude": 13.547732,
        "longitude": -7.448079
    },
    {
        "name": "Bafoulabé",
        "country": "Mali",
        "province": "Kayes",
        "population": 26823,
        "latitude": 13.8065,
        "longitude": -10.8321
    },
    {
        "name": "Ménaka",
        "country": "Mali",
        "province": "Ménaka",
        "population": 9110,
        "latitude": 15.9182,
        "longitude": 2.4022
    },
    {
        "name": "Kokofata",
        "country": "Mali",
        "province": "Kayes",
        "population": 12985,
        "latitude": 12.8833333,
        "longitude": -9.95
    },
    {
        "name": "Ké-Macina",
        "country": "Mali",
        "province": "Ségou",
        "population": 15750,
        "latitude": 13.964102,
        "longitude": -5.357914
    },
    {
        "name": "Sokolo",
        "country": "Mali",
        "province": "Ségou",
        "population": 4374,
        "latitude": 14.7328,
        "longitude": -6.1219
    },
    {
        "name": "Sagalo",
        "country": "Mali",
        "province": "Kayes",
        "population": 15830,
        "latitude": 12.2,
        "longitude": -10.7
    },
    {
        "name": "Inékar",
        "country": "Mali",
        "province": "Gao",
        "population": 8714,
        "latitude": 15.9594444,
        "longitude": 3.1411111
    },
    {
        "name": "Faladié",
        "country": "Mali",
        "province": "Koulikoro",
        "population": -1,
        "latitude": 13.1334,
        "longitude": -8.3449
    },
    {
        "name": "Béléko-Soba",
        "country": "Mali",
        "province": "Koulikoro",
        "population": -1,
        "latitude": 12.4814,
        "longitude": -6.409
    },
    {
        "name": "Bandiagara",
        "country": "Mali",
        "province": "Mopti",
        "population": 6853,
        "latitude": 14.3500467541677,
        "longitude": -3.61038208007812
    },
    {
        "name": "Araouane",
        "country": "Mali",
        "province": "Tombouctou",
        "population": 4026,
        "latitude": 18.904761,
        "longitude": -3.5264919
    },
    {
        "name": "Andéranboukan",
        "country": "Mali",
        "province": "Gao",
        "population": -1,
        "latitude": 15.4275,
        "longitude": 3.0175
    },
    {
        "name": "Ntossoni",
        "country": "Mali",
        "province": "Sikasso",
        "population": 8700,
        "latitude": 12.5304028,
        "longitude": -5.7700286
    },
    {
        "name": "Moninnpébougou",
        "country": "Mali",
        "province": "Ségou",
        "population": -1,
        "latitude": 14.1508,
        "longitude": -5.5209
    },
    {
        "name": "Kolondiéba",
        "country": "Mali",
        "province": "Sikasso",
        "population": 10041,
        "latitude": 11.089433,
        "longitude": -6.892905
    },
    {
        "name": "Kinmparana",
        "country": "Mali",
        "province": "Ségou",
        "population": 6014,
        "latitude": 12.842174,
        "longitude": -4.924505
    },
    {
        "name": "Kangaba",
        "country": "Mali",
        "province": "Koulikoro",
        "population": 17232,
        "latitude": 11.933333,
        "longitude": -8.416667
    },
    {
        "name": "Yorosso",
        "country": "Mali",
        "province": "Sikasso",
        "population": 17447,
        "latitude": 12.358115,
        "longitude": -4.776878
    },
    {
        "name": "San",
        "country": "Mali",
        "province": "Ségou",
        "population": 24811,
        "latitude": 13.303346,
        "longitude": -4.895615
    },
    {
        "name": "Taga",
        "country": "Mali",
        "province": "Mopti",
        "population": -1,
        "latitude": 14.2173595,
        "longitude": -4.2969668
    },
    {
        "name": "Tondidarou",
        "country": "Mali",
        "province": "Tombouctou",
        "population": -1,
        "latitude": 16.0119849,
        "longitude": -4.1144972
    },
    {
        "name": "Kouri",
        "country": "Mali",
        "province": "Sikasso",
        "population": -1,
        "latitude": 11.338628,
        "longitude": -7.239665
    },
    {
        "name": "Fanga",
        "country": "Mali",
        "province": "Kayes",
        "population": -1,
        "latitude": 15.0047808,
        "longitude": -10.4183117
    },
    {
        "name": "Bondo",
        "country": "Mali",
        "province": "Koulikoro",
        "population": -1,
        "latitude": 12.231497,
        "longitude": -7.504311
    },
    {
        "name": "Domba",
        "country": "Mali",
        "province": "Sikasso",
        "population": -1,
        "latitude": 12.110301,
        "longitude": -7.226124
    },
    {
        "name": "Dialakoroba",
        "country": "Mali",
        "province": "Koulikoro",
        "population": -1,
        "latitude": 12.2663,
        "longitude": -7.9261
    },
    {
        "name": "Niamana",
        "country": "Mali",
        "province": "Koulikoro",
        "population": -1,
        "latitude": 12.5909,
        "longitude": -7.85628
    },
    {
        "name": "Korofina",
        "country": "Mali",
        "province": "Bamako",
        "population": -1,
        "latitude": 12.675598,
        "longitude": -7.930716
    },
    {
        "name": "Dialakorodji",
        "country": "Mali",
        "province": "Koulikoro",
        "population": -1,
        "latitude": 12.70354,
        "longitude": -7.964629
    },
    {
        "name": "Markakoungo",
        "country": "Mali",
        "province": "Koulikoro",
        "population": -1,
        "latitude": 12.7366,
        "longitude": -7.2911
    },
    {
        "name": "Doumba",
        "country": "Mali",
        "province": "Koulikoro",
        "population": -1,
        "latitude": 12.0235925,
        "longitude": -8.1187738
    },
    {
        "name": "Sandama",
        "country": "Mali",
        "province": "Koulikoro",
        "population": -1,
        "latitude": 12.4341925,
        "longitude": -8.7403738
    },
    {
        "name": "Kéniéba",
        "country": "Mali",
        "province": "Koulikoro",
        "population": -1,
        "latitude": 12.4841925,
        "longitude": -8.9182738
    },
    {
        "name": "Bobobougou",
        "country": "Mali",
        "province": "Kayes",
        "population": -1,
        "latitude": 12.9381136,
        "longitude": -8.9944295
    },
    {
        "name": "I-n-Tillit",
        "country": "Mali",
        "province": "Gao",
        "population": -1,
        "latitude": 15.5461111,
        "longitude": -0.4605556
    },
    {
        "name": "Gouméra",
        "country": "Mali",
        "province": "Kayes",
        "population": -1,
        "latitude": 14.557509,
        "longitude": -11.298754
    },
    {
        "name": "Goumbou",
        "country": "Mali",
        "province": "Koulikoro",
        "population": -1,
        "latitude": 14.9882,
        "longitude": -7.454
    },
    {
        "name": "Gori",
        "country": "Mali",
        "province": "Kayes",
        "population": -1,
        "latitude": 15.1084148,
        "longitude": -10.7638047
    },
    {
        "name": "Gongasso",
        "country": "Mali",
        "province": "Sikasso",
        "population": -1,
        "latitude": 11.532356,
        "longitude": -5.796099
    },
    {
        "name": "Gomitogo",
        "country": "Mali",
        "province": "Mopti",
        "population": -1,
        "latitude": 13.912,
        "longitude": -4.6537
    },
    {
        "name": "Gogui",
        "country": "Mali",
        "province": "Kayes",
        "population": -1,
        "latitude": 15.6859219,
        "longitude": -9.329675
    },
    {
        "name": "Gavimané",
        "country": "Mali",
        "province": "Kayes",
        "population": -1,
        "latitude": 15.1351493,
        "longitude": -9.8934851
    },
    {
        "name": "Gatié Loumo",
        "country": "Mali",
        "province": "Mopti",
        "population": -1,
        "latitude": 15.4701,
        "longitude": -4.6122
    },
    {
        "name": "Gargando",
        "country": "Mali",
        "province": "Tombouctou",
        "population": -1,
        "latitude": 16.4625,
        "longitude": -4.1727
    },
    {
        "name": "Garbèykoyra",
        "country": "Mali",
        "province": "Tombouctou",
        "population": -1,
        "latitude": 16.505345,
        "longitude": -3.183139
    },
    {
        "name": "Garalo",
        "country": "Mali",
        "province": "Sikasso",
        "population": -1,
        "latitude": 11,
        "longitude": -7.433333
    },
    {
        "name": "Gania",
        "country": "Mali",
        "province": "Mopti",
        "population": -1,
        "latitude": 14.0098526,
        "longitude": -4.5132213
    },
    {
        "name": "Gakoura",
        "country": "Mali",
        "province": "Kayes",
        "population": -1,
        "latitude": 14.612763,
        "longitude": -11.842617
    },
    {
        "name": "Fourou",
        "country": "Mali",
        "province": "Mali",
        "population": -1,
        "latitude": 10.75,
        "longitude": -6.1333333
    },
    {
        "name": "Fonfana",
        "country": "Mali",
        "province": "Sikasso",
        "population": -1,
        "latitude": 12.6743028,
        "longitude": -5.6162286
    },
    {
        "name": "Fantambougou Ouèrè",
        "country": "Mali",
        "province": "Ségou",
        "population": -1,
        "latitude": 13.5072,
        "longitude": -6.6389
    },
    {
        "name": "Folomana",
        "country": "Mali",
        "province": "Ségou",
        "population": -1,
        "latitude": 13.602922,
        "longitude": -5.153785
    },
    {
        "name": "Pèlèngana",
        "country": "Mali",
        "province": "Ségou",
        "population": -1,
        "latitude": 13.4274,
        "longitude": -6.222
    },
    {
        "name": "Fio",
        "country": "Mali",
        "province": "Ségou",
        "population": -1,
        "latitude": 13.3695,
        "longitude": -4.3307
    },
    {
        "name": "Finnkolo",
        "country": "Mali",
        "province": "Sikasso",
        "population": -1,
        "latitude": 11.268217,
        "longitude": -5.510536
    },
    {
        "name": "Filamana",
        "country": "Mali",
        "province": "Mali",
        "population": -1,
        "latitude": 10.5,
        "longitude": -7.95
    },
    {
        "name": "Fenyiélé",
        "country": "Mali",
        "province": "Koulikoro",
        "population": -1,
        "latitude": 13.6057,
        "longitude": -8.2713
    },
    {
        "name": "Fégui",
        "country": "Mali",
        "province": "Kayes",
        "population": -1,
        "latitude": 14.6181423,
        "longitude": -12.1480304
    },
    {
        "name": "Fatoma",
        "country": "Mali",
        "province": "Mopti",
        "population": -1,
        "latitude": 14.6109531,
        "longitude": -4.0612724
    },
    {
        "name": "Fatine Marka",
        "country": "Mali",
        "province": "Ségou",
        "population": -1,
        "latitude": 13.573461,
        "longitude": -5.381839
    },
    {
        "name": "Fatao",
        "country": "Mali",
        "province": "Kayes",
        "population": -1,
        "latitude": 14.3246,
        "longitude": -9.5311
    },
    {
        "name": "Fassoudébé",
        "country": "Mali",
        "province": "Kayes",
        "population": -1,
        "latitude": 15.1167873,
        "longitude": -9.4380993
    },
    {
        "name": "Farako",
        "country": "Mali",
        "province": "Ségou",
        "population": -1,
        "latitude": 13.4104,
        "longitude": -6.3895
    },
    {
        "name": "Faragouaran",
        "country": "Mali",
        "province": "Sikasso",
        "population": -1,
        "latitude": 11.312077,
        "longitude": -7.776929
    },
    {
        "name": "Faradiélé",
        "country": "Mali",
        "province": "Sikasso",
        "population": -1,
        "latitude": 11.347858,
        "longitude": -7.636223
    },
    {
        "name": "Faraba",
        "country": "Mali",
        "province": "Koulikoro",
        "population": -1,
        "latitude": 12.4346925,
        "longitude": -8.2016738
    },
    {
        "name": "Faraba",
        "country": "Mali",
        "province": "Kayes",
        "population": -1,
        "latitude": 14.4701,
        "longitude": -10.9925
    },
    {
        "name": "Faraba",
        "country": "Mali",
        "province": "Kayes",
        "population": -1,
        "latitude": 12.8615488,
        "longitude": -11.3924815
    },
    {
        "name": "Fani",
        "country": "Mali",
        "province": "Ségou",
        "population": -1,
        "latitude": 13.182187,
        "longitude": -5.367784
    },
    {
        "name": "Fangasso",
        "country": "Mali",
        "province": "Ségou",
        "population": -1,
        "latitude": 13.5287,
        "longitude": -4.4456
    },
    {
        "name": "Findiala",
        "country": "Mali",
        "province": "Sikasso",
        "population": -1,
        "latitude": 11.061814,
        "longitude": -6.732247
    },
    {
        "name": "Fana",
        "country": "Mali",
        "province": "Koulikoro",
        "population": -1,
        "latitude": 12.7787,
        "longitude": -6.9564
    },
    {
        "name": "Famessasso",
        "country": "Mali",
        "province": "Sikasso",
        "population": -1,
        "latitude": 12.4611028,
        "longitude": -5.3121286
    },
    {
        "name": "Fama",
        "country": "Mali",
        "province": "Sikasso",
        "population": -1,
        "latitude": 11.524224,
        "longitude": -5.692972
    },
    {
        "name": "Falou",
        "country": "Mali",
        "province": "Koulikoro",
        "population": -1,
        "latitude": 14.5968,
        "longitude": -7.9349
    },
    {
        "name": "Falou",
        "country": "Mali",
        "province": "Ségou",
        "population": -1,
        "latitude": 12.911267,
        "longitude": -6.238881
    },
    {
        "name": "Faléa",
        "country": "Mali",
        "province": "Kayes",
        "population": -1,
        "latitude": 12.2646444,
        "longitude": -11.275185
    },
    {
        "name": "Flabe",
        "country": "Mali",
        "province": "Ségou",
        "population": -1,
        "latitude": 13.63571,
        "longitude": -5.740639
    },
    {
        "name": "Falako",
        "country": "Mali",
        "province": "Koulikoro",
        "population": -1,
        "latitude": 12.5681,
        "longitude": -7.1827
    },
    {
        "name": "Fakola",
        "country": "Mali",
        "province": "Mali",
        "population": -1,
        "latitude": 10.5333333,
        "longitude": -6.9166667
    },
    {
        "name": "Endé-Guinékanda",
        "country": "Mali",
        "province": "Mopti",
        "population": -1,
        "latitude": 14.18183,
        "longitude": -3.53424
    },
    {
        "name": "Elémé",
        "country": "Mali",
        "province": "Kayes",
        "population": -1,
        "latitude": 14.9401,
        "longitude": -10.5028
    },
    {
        "name": "Nafadji Dioumanzana",
        "country": "Mali",
        "province": "Bamako",
        "population": -1,
        "latitude": 12.694376,
        "longitude": -7.947736
    },
    {
        "name": "Dio-Gare",
        "country": "Mali",
        "province": "Koulikoro",
        "population": -1,
        "latitude": 12.8025725,
        "longitude": -8.2431308
    },
    {
        "name": "Dinindiébougou",
        "country": "Mali",
        "province": "Koulikoro",
        "population": -1,
        "latitude": 13.5038,
        "longitude": -8.2921
    },
    {
        "name": "Djidié",
        "country": "Mali",
        "province": "Koulikoro",
        "population": -1,
        "latitude": 13.038,
        "longitude": -8.2712
    },
    {
        "name": "Djidian Kéniéba",
        "country": "Mali",
        "province": "Kayes",
        "population": -1,
        "latitude": 13.0976284,
        "longitude": -11.3953276
    },
    {
        "name": "Djidiana",
        "country": "Mali",
        "province": "Koulikoro",
        "population": -1,
        "latitude": 13.0462,
        "longitude": -8.471
    },
    {
        "name": "Djidian",
        "country": "Mali",
        "province": "Kayes",
        "population": -1,
        "latitude": 13.201429,
        "longitude": -9.457051
    },
    {
        "name": "Dyero",
        "country": "Mali",
        "province": "Ségou",
        "population": -1,
        "latitude": 12.82625,
        "longitude": -6.48965
    },
    {
        "name": "Dyénongo",
        "country": "Mali",
        "province": "Koulikoro",
        "population": -1,
        "latitude": 12.1879,
        "longitude": -6.2789
    },
    {
        "name": "Dianguinébougou",
        "country": "Mali",
        "province": "Koulikoro",
        "population": -1,
        "latitude": 12.99636,
        "longitude": -7.19351
    },
    {
        "name": "Diendien",
        "country": "Mali",
        "province": "Koulikoro",
        "population": -1,
        "latitude": 12.705827,
        "longitude": -6.772205
    },
    {
        "name": "Dyen",
        "country": "Mali",
        "province": "Koulikoro",
        "population": -1,
        "latitude": 12.7284,
        "longitude": -6.9633
    },
    {
        "name": "Dyébé",
        "country": "Mali",
        "province": "Koulikoro",
        "population": -1,
        "latitude": 12.2091,
        "longitude": -6.3437
    },
    {
        "name": "Dyaratabougou",
        "country": "Mali",
        "province": "Koulikoro",
        "population": -1,
        "latitude": 12.2106,
        "longitude": -6.2456
    },
    {
        "name": "Diago",
        "country": "Mali",
        "province": "Koulikoro",
        "population": -1,
        "latitude": 12.7779925,
        "longitude": -8.1565738
    },
    {
        "name": "Dyadyan",
        "country": "Mali",
        "province": "Ségou",
        "population": -1,
        "latitude": 14.814,
        "longitude": -6.1345
    },
    {
        "name": "Dyabaso",
        "country": "Mali",
        "province": "Sikasso",
        "population": -1,
        "latitude": 12.1437,
        "longitude": -6.1289
    },
    {
        "name": "Diabali",
        "country": "Mali",
        "province": "Ségou",
        "population": -1,
        "latitude": 14.6937,
        "longitude": -6.0197
    },
    {
        "name": "Doubabougou",
        "country": "Mali",
        "province": "Koulikoro",
        "population": -1,
        "latitude": 12.7092925,
        "longitude": -8.1602738
    },
    {
        "name": "Doussoudiana",
        "country": "Mali",
        "province": "Sikasso",
        "population": -1,
        "latitude": 11.150396,
        "longitude": -7.806098
    },
    {
        "name": "Dourou",
        "country": "Mali",
        "province": "Mopti",
        "population": -1,
        "latitude": 14.3026985,
        "longitude": -3.428587
    },
    {
        "name": "Doumanaba",
        "country": "Mali",
        "province": "Sikasso",
        "population": -1,
        "latitude": 11.668069,
        "longitude": -5.930133
    },
    {
        "name": "Doura",
        "country": "Mali",
        "province": "Ségou",
        "population": -1,
        "latitude": 13.9282,
        "longitude": -6.2083
    },
    {
        "name": "Doukombo",
        "country": "Mali",
        "province": "Mopti",
        "population": -1,
        "latitude": 14.351071,
        "longitude": -3.6557985
    },
    {
        "name": "Dougouolo",
        "country": "Mali",
        "province": "Ségou",
        "population": -1,
        "latitude": 12.9338028,
        "longitude": -5.5653286
    },
    {
        "name": "Dougoukolobougou",
        "country": "Mali",
        "province": "Sikasso",
        "population": -1,
        "latitude": 11.448027,
        "longitude": -6.494952
    },
    {
        "name": "Dougoufé",
        "country": "Mali",
        "province": "Ségou",
        "population": -1,
        "latitude": 13.3150485,
        "longitude": -6.631177
    },
    {
        "name": "Douentza",
        "country": "Mali",
        "province": "Mopti",
        "population": 8054,
        "latitude": 15.001554,
        "longitude": -2.949781
    },
    {
        "name": "Douétiré",
        "country": "Mali",
        "province": "Tombouctou",
        "population": -1,
        "latitude": 16.569241,
        "longitude": -3.373858
    },
    {
        "name": "Dougabougou",
        "country": "Mali",
        "province": "Ségou",
        "population": -1,
        "latitude": 13.82049,
        "longitude": -6.12057
    },
    {
        "name": "Domosséla",
        "country": "Mali",
        "province": "Koulikoro",
        "population": -1,
        "latitude": 13.803,
        "longitude": -8.1939
    },
    {
        "name": "Dombila",
        "country": "Mali",
        "province": "Koulikoro",
        "population": -1,
        "latitude": 12.7611925,
        "longitude": -8.2768738
    },
    {
        "name": "Dombia",
        "country": "Mali",
        "province": "Kayes",
        "population": -1,
        "latitude": 12.7778513,
        "longitude": -11.0517735
    },
    {
        "name": "Dougouni",
        "country": "Mali",
        "province": "Sikasso",
        "population": -1,
        "latitude": 12.1436,
        "longitude": -6.001
    },
    {
        "name": "Dogofri",
        "country": "Mali",
        "province": "Ségou",
        "population": -1,
        "latitude": 14.8059,
        "longitude": -6.0182
    },
    {
        "name": "Dogo",
        "country": "Mali",
        "province": "Mopti",
        "population": -1,
        "latitude": 15.1686,
        "longitude": -4.4312
    },
    {
        "name": "Dogo",
        "country": "Mali",
        "province": "Sikasso",
        "population": -1,
        "latitude": 11.89036,
        "longitude": -7.32968
    },
    {
        "name": "Dofinéna",
        "country": "Mali",
        "province": "Ségou",
        "population": -1,
        "latitude": 13.7575,
        "longitude": -6.318
    },
    {
        "name": "Dioura",
        "country": "Mali",
        "province": "Mopti",
        "population": -1,
        "latitude": 14.8252,
        "longitude": -5.2547
    },
    {
        "name": "Dioura",
        "country": "Mali",
        "province": "Kayes",
        "population": -1,
        "latitude": 14.3,
        "longitude": -9.85
    },
    {
        "name": "Dioungani",
        "country": "Mali",
        "province": "Mopti",
        "population": -1,
        "latitude": 14.315581,
        "longitude": -2.740297
    },
    {
        "name": "Diouna",
        "country": "Mali",
        "province": "Ségou",
        "population": -1,
        "latitude": 13.432897,
        "longitude": -5.820985
    },
    {
        "name": "Dioumaténe",
        "country": "Mali",
        "province": "Sikasso",
        "population": -1,
        "latitude": 11.423735,
        "longitude": -5.63353
    },
    {
        "name": "Dioulafoundou",
        "country": "Mali",
        "province": "Kayes",
        "population": -1,
        "latitude": 12.8975761,
        "longitude": -11.1965398
    },
    {
        "name": "Diou",
        "country": "Mali",
        "province": "Mali",
        "population": -1,
        "latitude": 10.5833333,
        "longitude": -5.9666667
    },
    {
        "name": "Diongaga",
        "country": "Mali",
        "province": "Kayes",
        "population": -1,
        "latitude": 15.0763152,
        "longitude": -10.8848866
    },
    {
        "name": "Diondiori",
        "country": "Mali",
        "province": "Mopti",
        "population": -1,
        "latitude": 14.6117366,
        "longitude": -4.7765905
    },
    {
        "name": "Diona",
        "country": "Mali",
        "province": "Mopti",
        "population": -1,
        "latitude": 15.3273,
        "longitude": -3.2343
    },
    {
        "name": "Dinangorou",
        "country": "Mali",
        "province": "Mopti",
        "population": -1,
        "latitude": 14.450997,
        "longitude": -2.244219
    },
    {
        "name": "Dili",
        "country": "Mali",
        "province": "Koulikoro",
        "population": -1,
        "latitude": 14.995558,
        "longitude": -7.668361
    },
    {
        "name": "Diéramana",
        "country": "Mali",
        "province": "Ségou",
        "population": -1,
        "latitude": 12.851795,
        "longitude": -5.400436
    },
    {
        "name": "Dièna",
        "country": "Mali",
        "province": "Ségou",
        "population": -1,
        "latitude": 13.04024,
        "longitude": -6.02499
    },
    {
        "name": "Diéli",
        "country": "Mali",
        "province": "Ségou",
        "population": -1,
        "latitude": 13.057626,
        "longitude": -5.113406
    },
    {
        "name": "Djidié",
        "country": "Mali",
        "province": "Sikasso",
        "population": -1,
        "latitude": 11.945533,
        "longitude": -6.993153
    },
    {
        "name": "Diboli",
        "country": "Mali",
        "province": "Kayes",
        "population": -1,
        "latitude": 14.4551149,
        "longitude": -12.1994493
    },
    {
        "name": "Diara",
        "country": "Mali",
        "province": "Kayes",
        "population": -1,
        "latitude": 15.3175632,
        "longitude": -9.3213531
    },
    {
        "name": "Dianké",
        "country": "Mali",
        "province": "Tombouctou",
        "population": -1,
        "latitude": 15.7258,
        "longitude": -4.6429
    },
    {
        "name": "Diankabou",
        "country": "Mali",
        "province": "Mopti",
        "population": -1,
        "latitude": 14.5843985,
        "longitude": -3.081287
    },
    {
        "name": "Dianguirdé",
        "country": "Mali",
        "province": "Kayes",
        "population": -1,
        "latitude": 14.4885,
        "longitude": -9.016
    },
    {
        "name": "Diangouté Kamara",
        "country": "Mali",
        "province": "Kayes",
        "population": -1,
        "latitude": 14.5448,
        "longitude": -9.5127
    },
    {
        "name": "Diamou",
        "country": "Mali",
        "province": "Kayes",
        "population": -1,
        "latitude": 14.087997,
        "longitude": -11.26256
    },
    {
        "name": "Diamba-Kourou",
        "country": "Mali",
        "province": "Mopti",
        "population": -1,
        "latitude": 14.8231985,
        "longitude": -3.974087
    },
    {
        "name": "Dialoubé",
        "country": "Mali",
        "province": "Mopti",
        "population": -1,
        "latitude": 15.0191,
        "longitude": -4.2324
    },
    {
        "name": "Diallassagou",
        "country": "Mali",
        "province": "Mopti",
        "population": -1,
        "latitude": 13.7377,
        "longitude": -3.6265
    },
    {
        "name": "Dialakoro",
        "country": "Mali",
        "province": "Sikasso",
        "population": -1,
        "latitude": 11.596798,
        "longitude": -6.955015
    },
    {
        "name": "Dialafara",
        "country": "Mali",
        "province": "Kayes",
        "population": -1,
        "latitude": 13.4630096,
        "longitude": -11.3796311
    },
    {
        "name": "Diakourouna",
        "country": "Mali",
        "province": "Ségou",
        "population": -1,
        "latitude": 12.8686918,
        "longitude": -5.1392551
    },
    {
        "name": "Diakoné",
        "country": "Mali",
        "province": "Kayes",
        "population": -1,
        "latitude": 14.6276,
        "longitude": -10.7348
    },
    {
        "name": "Diafarabé",
        "country": "Mali",
        "province": "Mopti",
        "population": -1,
        "latitude": 14.1381415,
        "longitude": -5.017813
    },
    {
        "name": "Diabigué",
        "country": "Mali",
        "province": "Kayes",
        "population": -1,
        "latitude": 15.1527754,
        "longitude": -9.3227306
    },
    {
        "name": "Dia",
        "country": "Mali",
        "province": "Mopti",
        "population": -1,
        "latitude": 14.3486516,
        "longitude": -4.9619232
    },
    {
        "name": "Dényékoro",
        "country": "Mali",
        "province": "Koulikoro",
        "population": -1,
        "latitude": 12.354,
        "longitude": -6.6655
    },
    {
        "name": "Démbéla",
        "country": "Mali",
        "province": "Sikasso",
        "population": -1,
        "latitude": 12.6813913,
        "longitude": -5.6608886
    },
    {
        "name": "Débéré",
        "country": "Mali",
        "province": "Mopti",
        "population": -1,
        "latitude": 15.1019,
        "longitude": -3.0105
    },
    {
        "name": "Débéla",
        "country": "Mali",
        "province": "Sikasso",
        "population": -1,
        "latitude": 12.7379028,
        "longitude": -5.6658286
    },
    {
        "name": "Débéla",
        "country": "Mali",
        "province": "Mali",
        "population": -1,
        "latitude": 10.5166667,
        "longitude": -7.1833333
    },
    {
        "name": "Dé",
        "country": "Mali",
        "province": "Mopti",
        "population": -1,
        "latitude": 14.7769025,
        "longitude": -3.257807
    },
    {
        "name": "Danfa",
        "country": "Mali",
        "province": "Ségou",
        "population": -1,
        "latitude": 12.689,
        "longitude": -6.0836
    },
    {
        "name": "Dandougou",
        "country": "Mali",
        "province": "Koulikoro",
        "population": -1,
        "latitude": 13.559179,
        "longitude": -7.090072
    },
    {
        "name": "Dandéresso",
        "country": "Mali",
        "province": "Sikasso",
        "population": -1,
        "latitude": 11.486474,
        "longitude": -5.481569
    },
    {
        "name": "Dala",
        "country": "Mali",
        "province": "Mopti",
        "population": -1,
        "latitude": 15.106575,
        "longitude": -2.639613
    },
    {
        "name": "Daka Fifo",
        "country": "Mali",
        "province": "Tombouctou",
        "population": -1,
        "latitude": 16.029452,
        "longitude": -2.692277
    },
    {
        "name": "Daféla",
        "country": "Mali",
        "province": "Mali",
        "population": -1,
        "latitude": 12.9666667,
        "longitude": -9.4
    },
    {
        "name": "Dabiya",
        "country": "Mali",
        "province": "Kayes",
        "population": -1,
        "latitude": 12.6685415,
        "longitude": -11.1389277
    },
    {
        "name": "Daban",
        "country": "Mali",
        "province": "Koulikoro",
        "population": -1,
        "latitude": 13.2199,
        "longitude": -8.314
    },
    {
        "name": "Boughessa",
        "country": "Mali",
        "province": "Kidal",
        "population": -1,
        "latitude": 20.0136111,
        "longitude": 2.2630556
    },
    {
        "name": "Bourem Inali",
        "country": "Mali",
        "province": "Tombouctou",
        "population": -1,
        "latitude": 16.688093,
        "longitude": -2.852778
    },
    {
        "name": "Boura",
        "country": "Mali",
        "province": "Sikasso",
        "population": -1,
        "latitude": 12.4117,
        "longitude": -4.5393
    },
    {
        "name": "Boundjigiré",
        "country": "Mali",
        "province": "Koulikoro",
        "population": -1,
        "latitude": 14.8841,
        "longitude": -6.8435
    },
    {
        "name": "Boula",
        "country": "Mali",
        "province": "Koulikoro",
        "population": -1,
        "latitude": 15.0771325,
        "longitude": -8.4280903
    },
    {
        "name": "Bougounso",
        "country": "Mali",
        "province": "Sikasso",
        "population": -1,
        "latitude": 12.6706028,
        "longitude": -5.1947286
    },
    {
        "name": "Bougoula",
        "country": "Mali",
        "province": "Koulikoro",
        "population": -1,
        "latitude": 12.4321,
        "longitude": -6.5029
    },
    {
        "name": "Bougoula",
        "country": "Mali",
        "province": "Koulikoro",
        "population": -1,
        "latitude": 12.314881,
        "longitude": -7.797076
    },
    {
        "name": "Bougaribaya",
        "country": "Mali",
        "province": "Mali",
        "population": -1,
        "latitude": 12.8166667,
        "longitude": -9.85
    },
    {
        "name": "Bouara",
        "country": "Mali",
        "province": "Sikasso",
        "population": -1,
        "latitude": 11.711296,
        "longitude": -6.008159
    },
    {
        "name": "Bowara",
        "country": "Mali",
        "province": "Sikasso",
        "population": -1,
        "latitude": 11.126816,
        "longitude": -6.023501
    },
    {
        "name": "Boron",
        "country": "Mali",
        "province": "Koulikoro",
        "population": -1,
        "latitude": 14.0152,
        "longitude": -7.5121
    },
    {
        "name": "Borko",
        "country": "Mali",
        "province": "Mopti",
        "population": -1,
        "latitude": 14.9495985,
        "longitude": -3.353987
    },
    {
        "name": "Boni",
        "country": "Mali",
        "province": "Mopti",
        "population": -1,
        "latitude": 15.076582,
        "longitude": -2.219758
    },
    {
        "name": "Bonégué",
        "country": "Mali",
        "province": "Koulikoro",
        "population": -1,
        "latitude": 12.1805,
        "longitude": -6.1725
    },
    {
        "name": "Boki-Wéré",
        "country": "Mali",
        "province": "Ségou",
        "population": -1,
        "latitude": 14.0121,
        "longitude": -5.6042
    },
    {
        "name": "Bobola Zangasso",
        "country": "Mali",
        "province": "Sikasso",
        "population": -1,
        "latitude": 12.5377,
        "longitude": -4.9929
    },
    {
        "name": "Blindioni",
        "country": "Mali",
        "province": "Sikasso",
        "population": -1,
        "latitude": 11.860086,
        "longitude": -6.213154
    },
    {
        "name": "Blindio",
        "country": "Mali",
        "province": "Sikasso",
        "population": -1,
        "latitude": 11.614999,
        "longitude": -6.343885
    },
    {
        "name": "Blan",
        "country": "Mali",
        "province": "Ségou",
        "population": -1,
        "latitude": 13.296998,
        "longitude": -5.641383
    },
    {
        "name": "Bintagoungou",
        "country": "Mali",
        "province": "Tombouctou",
        "population": -1,
        "latitude": 16.735374,
        "longitude": -3.73518
    },
    {
        "name": "Binko",
        "country": "Mali",
        "province": "Mali",
        "population": -1,
        "latitude": 11.5166667,
        "longitude": -8.2833333
    },
    {
        "name": "Bendougouba",
        "country": "Mali",
        "province": "Kayes",
        "population": -1,
        "latitude": 13.057563,
        "longitude": -9.395523
    },
    {
        "name": "Berdossou",
        "country": "Mali",
        "province": "Mopti",
        "population": -1,
        "latitude": 14.7344985,
        "longitude": -3.054287
    },
    {
        "name": "Bentyia",
        "country": "Mali",
        "province": "Gao",
        "population": -1,
        "latitude": 15.3533,
        "longitude": 0.7607
    },
    {
        "name": "Bénéna",
        "country": "Mali",
        "province": "Ségou",
        "population": -1,
        "latitude": 13.12,
        "longitude": -4.3652
    },
    {
        "name": "Béma",
        "country": "Mali",
        "province": "Kayes",
        "population": -1,
        "latitude": 15.0410228,
        "longitude": -9.3533808
    },
    {
        "name": "Bélékou",
        "country": "Mali",
        "province": "Koulikoro",
        "population": -1,
        "latitude": 12.644019,
        "longitude": -6.56179
    },
    {
        "name": "Béguéné",
        "country": "Mali",
        "province": "Ségou",
        "population": -1,
        "latitude": 12.72449,
        "longitude": -6.50311
    },
    {
        "name": "Bassirou",
        "country": "Mali",
        "province": "Kayes",
        "population": -1,
        "latitude": 15.3988805,
        "longitude": -10.6610778
    },
    {
        "name": "Barakaïa",
        "country": "Mali",
        "province": "Kayes",
        "population": -1,
        "latitude": 13.132272,
        "longitude": -8.883986
    },
    {
        "name": "Baghanba",
        "country": "Mali",
        "province": "Sikasso",
        "population": -1,
        "latitude": 12.5874028,
        "longitude": -5.4531286
    },
    {
        "name": "Baramandougou",
        "country": "Mali",
        "province": "Ségou",
        "population": -1,
        "latitude": 13.598703,
        "longitude": -4.595674
    },
    {
        "name": "Bara",
        "country": "Mali",
        "province": "Gao",
        "population": -1,
        "latitude": 15.8071,
        "longitude": 0.3245
    },
    {
        "name": "Bao-Flala",
        "country": "Mali",
        "province": "Koulikoro",
        "population": -1,
        "latitude": 12.225366,
        "longitude": -6.5797
    },
    {
        "name": "Bankoumana",
        "country": "Mali",
        "province": "Koulikoro",
        "population": -1,
        "latitude": 12.4215,
        "longitude": -7.6074
    },
    {
        "name": "Bankoumana",
        "country": "Mali",
        "province": "Koulikoro",
        "population": -1,
        "latitude": 12.2049925,
        "longitude": -8.2656738
    },
    {
        "name": "Bankoni",
        "country": "Mali",
        "province": "Koulikoro",
        "population": -1,
        "latitude": 12.7337,
        "longitude": -6.6522
    },
    {
        "name": "Banko",
        "country": "Mali",
        "province": "Koulikoro",
        "population": -1,
        "latitude": 12.1,
        "longitude": -6.516667
    },
    {
        "name": "Banikane",
        "country": "Mali",
        "province": "Tombouctou",
        "population": -1,
        "latitude": 16.9494444,
        "longitude": -1.7480556
    },
    {
        "name": "Bangassi-Nangou",
        "country": "Mali",
        "province": "Kayes",
        "population": -1,
        "latitude": 14.49319,
        "longitude": -11.507724
    },
    {
        "name": "Bangassi",
        "country": "Mali",
        "province": "Kayes",
        "population": -1,
        "latitude": 14.9959,
        "longitude": -9.8644
    },
    {
        "name": "Bambara-Maoundé",
        "country": "Mali",
        "province": "Tombouctou",
        "population": -1,
        "latitude": 15.852072,
        "longitude": -2.786043
    },
    {
        "name": "Bambala",
        "country": "Mali",
        "province": "Mali",
        "population": -1,
        "latitude": 11.3833333,
        "longitude": -8.3333333
    },
    {
        "name": "Bamba",
        "country": "Mali",
        "province": "Gao",
        "population": -1,
        "latitude": 17.033585,
        "longitude": -1.40381
    },
    {
        "name": "Bamba",
        "country": "Mali",
        "province": "Mopti",
        "population": -1,
        "latitude": 14.6438985,
        "longitude": -3.098387
    },
    {
        "name": "Banamantou",
        "country": "Mali",
        "province": "Koulikoro",
        "population": -1,
        "latitude": 11.773726,
        "longitude": -6.516377
    },
    {
        "name": "Bamafélé",
        "country": "Mali",
        "province": "Kayes",
        "population": -1,
        "latitude": 13.0955,
        "longitude": -10.3967
    },
    {
        "name": "Ballé",
        "country": "Mali",
        "province": "Koulikoro",
        "population": -1,
        "latitude": 15.3395348,
        "longitude": -8.5869822
    },
    {
        "name": "Baléya",
        "country": "Mali",
        "province": "Kayes",
        "population": -1,
        "latitude": 12.16674,
        "longitude": -11.4163553
    },
    {
        "name": "Balandougou",
        "country": "Mali",
        "province": "Kayes",
        "population": -1,
        "latitude": 13.0596,
        "longitude": -9.2029
    },
    {
        "name": "Bayé",
        "country": "Mali",
        "province": "Kayes",
        "population": -1,
        "latitude": 13.0836,
        "longitude": -9.9806
    },
    {
        "name": "Baguinéda",
        "country": "Mali",
        "province": "Koulikoro",
        "population": -1,
        "latitude": 12.61794,
        "longitude": -7.77706
    },
    {
        "name": "Bagadadji",
        "country": "Mali",
        "province": "Koulikoro",
        "population": -1,
        "latitude": 13.842991,
        "longitude": -7.094457
    },
    {
        "name": "Bafarara",
        "country": "Mali",
        "province": "Kayes",
        "population": -1,
        "latitude": 15.3772602,
        "longitude": -11.4756974
    },
    {
        "name": "Baboye",
        "country": "Mali",
        "province": "Mopti",
        "population": -1,
        "latitude": 14.2639835,
        "longitude": -3.946506
    },
    {
        "name": "Assamangataré",
        "country": "Mali",
        "province": "Kayes",
        "population": -1,
        "latitude": 15.148471,
        "longitude": -9.187904
    },
    {
        "name": "Arnassey",
        "country": "Mali",
        "province": "Tombouctou",
        "population": -1,
        "latitude": 16.708648,
        "longitude": -2.788574
    },
    {
        "name": "Araham",
        "country": "Mali",
        "province": "Tombouctou",
        "population": -1,
        "latitude": 16.377891,
        "longitude": -3.377746
    },
    {
        "name": "Aourou",
        "country": "Mali",
        "province": "Kayes",
        "population": -1,
        "latitude": 14.968146,
        "longitude": -11.586609
    },
    {
        "name": "Ansongo",
        "country": "Mali",
        "province": "Gao",
        "population": 3000,
        "latitude": 15.6597,
        "longitude": 0.5022
    },
    {
        "name": "Anefis i-n-Darane",
        "country": "Mali",
        "province": "Gao",
        "population": -1,
        "latitude": 18.04,
        "longitude": 0.601111
    },
    {
        "name": "Ambidédi",
        "country": "Mali",
        "province": "Kayes",
        "population": -1,
        "latitude": 14.586453,
        "longitude": -11.790826
    },
    {
        "name": "Alatona",
        "country": "Mali",
        "province": "Ségou",
        "population": -1,
        "latitude": 14.803413,
        "longitude": -5.9347615
    },
    {
        "name": "Alahina",
        "country": "Mali",
        "province": "Koulikoro",
        "population": -1,
        "latitude": 15.226695,
        "longitude": -8.7446531
    },
    {
        "name": "Aïté",
        "country": "Mali",
        "province": "Kayes",
        "population": -1,
        "latitude": 15.0893896,
        "longitude": -11.651223
    },
    {
        "name": "Aïbongo",
        "country": "Mali",
        "province": "Tombouctou",
        "population": -1,
        "latitude": 16.219874,
        "longitude": -3.250389
    },
    {
        "name": "Aguelhok",
        "country": "Mali",
        "province": "Kidal",
        "population": -1,
        "latitude": 19.4613889,
        "longitude": 0.8588889
    },
    {
        "name": "Oussoumbidiana",
        "country": "Mali",
        "province": "Kayes",
        "population": -1,
        "latitude": 14.2475,
        "longitude": -10.462
    },
    {
        "name": "Ouroumpana",
        "country": "Mali",
        "province": "Mali",
        "population": -1,
        "latitude": 10.8833333,
        "longitude": -7.15
    },
    {
        "name": "Ouro Modi",
        "country": "Mali",
        "province": "Mopti",
        "population": -1,
        "latitude": 14.2807347,
        "longitude": -4.6036922
    },
    {
        "name": "Ourikela",
        "country": "Mali",
        "province": "Sikasso",
        "population": -1,
        "latitude": 12.1095883,
        "longitude": -5.0628116
    },
    {
        "name": "Wolossébougou",
        "country": "Mali",
        "province": "Koulikoro",
        "population": -1,
        "latitude": 11.998898,
        "longitude": -7.913977
    },
    {
        "name": "Ouolodo",
        "country": "Mali",
        "province": "Koulikoro",
        "population": -1,
        "latitude": 13.200043,
        "longitude": -7.931775
    },
    {
        "name": "Wola",
        "country": "Mali",
        "province": "Sikasso",
        "population": -1,
        "latitude": 11.737858,
        "longitude": -6.671519
    },
    {
        "name": "Oula",
        "country": "Mali",
        "province": "Sikasso",
        "population": -1,
        "latitude": 12.5738028,
        "longitude": -5.3454286
    },
    {
        "name": "Wéta",
        "country": "Mali",
        "province": "Ségou",
        "population": -1,
        "latitude": 13.497918,
        "longitude": -5.282001
    },
    {
        "name": "Ouankoro",
        "country": "Mali",
        "province": "Mopti",
        "population": -1,
        "latitude": 13.3848,
        "longitude": -3.82705
    },
    {
        "name": "Ouatagouna",
        "country": "Mali",
        "province": "Gao",
        "population": -1,
        "latitude": 15.1787,
        "longitude": 0.7238
    },
    {
        "name": "Walia",
        "country": "Mali",
        "province": "Kayes",
        "population": -1,
        "latitude": 13.5939,
        "longitude": -10.3774
    },
    {
        "name": "Wakoro",
        "country": "Mali",
        "province": "Koulikoro",
        "population": -1,
        "latitude": 12.60101,
        "longitude": -6.69347
    },
    {
        "name": "Waki",
        "country": "Mali",
        "province": "Ségou",
        "population": -1,
        "latitude": 12.841667,
        "longitude": -4.822588
    },
    {
        "name": "Wa",
        "country": "Mali",
        "province": "Ségou",
        "population": -1,
        "latitude": 13.6933,
        "longitude": -4.4005
    },
    {
        "name": "Ondougou",
        "country": "Mali",
        "province": "Mopti",
        "population": -1,
        "latitude": 14.6407985,
        "longitude": -3.226087
    },
    {
        "name": "Nioumamakana",
        "country": "Mali",
        "province": "Koulikoro",
        "population": -1,
        "latitude": 12.4101175,
        "longitude": -8.8787638
    },
    {
        "name": "Niangué Koura",
        "country": "Mali",
        "province": "Koulikoro",
        "population": -1,
        "latitude": 12.267778,
        "longitude": -8.093333
    },
    {
        "name": "Niangué Koro",
        "country": "Mali",
        "province": "Koulikoro",
        "population": -1,
        "latitude": 12.270104,
        "longitude": -8.079222
    },
    {
        "name": "Nyantoumana",
        "country": "Mali",
        "province": "Koulikoro",
        "population": -1,
        "latitude": 12.209962,
        "longitude": -6.768569
    },
    {
        "name": "Niamina",
        "country": "Mali",
        "province": "Koulikoro",
        "population": -1,
        "latitude": 13.3131,
        "longitude": -6.983
    },
    {
        "name": "Nyamazana",
        "country": "Mali",
        "province": "Sikasso",
        "population": -1,
        "latitude": 12.0897,
        "longitude": -6.2954
    },
    {
        "name": "Nyamana",
        "country": "Mali",
        "province": "Ségou",
        "population": -1,
        "latitude": 12.8068,
        "longitude": -6.0404
    },
    {
        "name": "Niagadina",
        "country": "Mali",
        "province": "Koulikoro",
        "population": -1,
        "latitude": 12.1338925,
        "longitude": -8.2288738
    },
    {
        "name": "Ntiobougou",
        "country": "Mali",
        "province": "Koulikoro",
        "population": -1,
        "latitude": 13.4779,
        "longitude": -8.0737
    },
    {
        "name": "Ntjila",
        "country": "Mali",
        "province": "Sikasso",
        "population": -1,
        "latitude": 11.509317,
        "longitude": -6.506388
    },
    {
        "name": "Nougoussouala",
        "country": "Mali",
        "province": "Sikasso",
        "population": -1,
        "latitude": 11.758982,
        "longitude": -5.563336
    },
    {
        "name": "Nossombougou",
        "country": "Mali",
        "province": "Koulikoro",
        "population": -1,
        "latitude": 13.097778,
        "longitude": -7.934985
    },
    {
        "name": "Nogholo",
        "country": "Mali",
        "province": "Koulikoro",
        "population": -1,
        "latitude": 12.133,
        "longitude": -6.552
    },
    {
        "name": "Nonongo",
        "country": "Mali",
        "province": "Ségou",
        "population": -1,
        "latitude": 13.700449,
        "longitude": -5.516361
    },
    {
        "name": "Nonkon",
        "country": "Mali",
        "province": "Koulikoro",
        "population": -1,
        "latitude": 13.223604,
        "longitude": -7.858219
    },
    {
        "name": "Nioro",
        "country": "Mali",
        "province": "Kayes",
        "population": -1,
        "latitude": 15.229317,
        "longitude": -9.592771
    },
    {
        "name": "Ningoni",
        "country": "Mali",
        "province": "Sikasso",
        "population": -1,
        "latitude": 11.393629,
        "longitude": -6.18816
    },
    {
        "name": "Niandjila",
        "country": "Mali",
        "province": "Koulikoro",
        "population": -1,
        "latitude": 11.79772,
        "longitude": -6.549154
    },
    {
        "name": "Niéna",
        "country": "Mali",
        "province": "Sikasso",
        "population": -1,
        "latitude": 11.425157,
        "longitude": -6.348808
    },
    {
        "name": "Niasso",
        "country": "Mali",
        "province": "Ségou",
        "population": -1,
        "latitude": 13.192939,
        "longitude": -5.046139
    },
    {
        "name": "Niantassou",
        "country": "Mali",
        "province": "Kayes",
        "population": -1,
        "latitude": 13.2764,
        "longitude": -10.1753
    },
    {
        "name": "Bankouma",
        "country": "Mali",
        "province": "Ségou",
        "population": -1,
        "latitude": 13.04561,
        "longitude": -5.213167
    },
    {
        "name": "Nialo",
        "country": "Mali",
        "province": "Ségou",
        "population": -1,
        "latitude": 12.9461028,
        "longitude": -5.8600286
    },
    {
        "name": "Niarané",
        "country": "Mali",
        "province": "Kayes",
        "population": -1,
        "latitude": 14.2674145,
        "longitude": -9.7408945
    },
    {
        "name": "Niafunké",
        "country": "Mali",
        "province": "Tombouctou",
        "population": 6901,
        "latitude": 15.9322,
        "longitude": -3.9906
    },
    {
        "name": "Ngolobabougou",
        "country": "Mali",
        "province": "Sikasso",
        "population": -1,
        "latitude": 11.040877,
        "longitude": -6.224887
    },
    {
        "name": "N'Godila",
        "country": "Mali",
        "province": "Ségou",
        "population": -1,
        "latitude": 14.234,
        "longitude": -6.2051
    },
    {
        "name": "Ngabakoro",
        "country": "Mali",
        "province": "Koulikoro",
        "population": -1,
        "latitude": 14.5668,
        "longitude": -6.9212
    },
    {
        "name": "Néguéla",
        "country": "Mali",
        "province": "Sikasso",
        "population": -1,
        "latitude": 12.4779313,
        "longitude": -5.6452286
    },
    {
        "name": "Ndjisimbougou",
        "country": "Mali",
        "province": "Koulikoro",
        "population": -1,
        "latitude": 12.2782,
        "longitude": -6.5373
    },
    {
        "name": "Naséla",
        "country": "Mali",
        "province": "Koulikoro",
        "population": -1,
        "latitude": 12.3386,
        "longitude": -6.858
    },
    {
        "name": "Naréna",
        "country": "Mali",
        "province": "Koulikoro",
        "population": -1,
        "latitude": 12.2302778,
        "longitude": -8.6330556
    },
    {
        "name": "Nawadié",
        "country": "Mali",
        "province": "Mopti",
        "population": -1,
        "latitude": 14.487371,
        "longitude": -2.741001
    },
    {
        "name": "Nangola",
        "country": "Mali",
        "province": "Koulikoro",
        "population": -1,
        "latitude": 12.666,
        "longitude": -6.6043
    },
    {
        "name": "Nampala",
        "country": "Mali",
        "province": "Ségou",
        "population": -1,
        "latitude": 15.2807,
        "longitude": -5.5549
    },
    {
        "name": "Namala Guimbala",
        "country": "Mali",
        "province": "Kayes",
        "population": -1,
        "latitude": 13.363696,
        "longitude": -9.387443
    },
    {
        "name": "Nagalasso",
        "country": "Mali",
        "province": "Mali",
        "population": -1,
        "latitude": 10.8833333,
        "longitude": -6.3166667
    },
    {
        "name": "Mpiédiana",
        "country": "Mali",
        "province": "Sikasso",
        "population": -1,
        "latitude": 11.131596,
        "longitude": -6.848221
    },
    {
        "name": "Mpessoba",
        "country": "Mali",
        "province": "Sikasso",
        "population": -1,
        "latitude": 12.6726028,
        "longitude": -5.7156286
    },
    {
        "name": "Mourdiah",
        "country": "Mali",
        "province": "Koulikoro",
        "population": -1,
        "latitude": 14.472663,
        "longitude": -7.467079
    },
    {
        "name": "Mountougoula",
        "country": "Mali",
        "province": "Koulikoro",
        "population": -1,
        "latitude": 12.528878,
        "longitude": -7.821693
    },
    {
        "name": "Mounia",
        "country": "Mali",
        "province": "Mopti",
        "population": -1,
        "latitude": 13.884,
        "longitude": -4.82
    },
    {
        "name": "Moribila",
        "country": "Mali",
        "province": "Ségou",
        "population": -1,
        "latitude": 12.6595028,
        "longitude": -5.0470286
    },
    {
        "name": "Mora",
        "country": "Mali",
        "province": "Mopti",
        "population": -1,
        "latitude": 14.3282911,
        "longitude": -4.6044511
    },
    {
        "name": "Monkonkoro",
        "country": "Mali",
        "province": "Sikasso",
        "population": -1,
        "latitude": 11.448487,
        "longitude": -6.067004
    },
    {
        "name": "Monguéla",
        "country": "Mali",
        "province": "Ségou",
        "population": -1,
        "latitude": 12.848,
        "longitude": -6.1593
    },
    {
        "name": "Mondoro",
        "country": "Mali",
        "province": "Mopti",
        "population": -1,
        "latitude": 14.676187,
        "longitude": -1.951272
    },
    {
        "name": "Moabougou",
        "country": "Mali",
        "province": "Kayes",
        "population": -1,
        "latitude": 13.0221,
        "longitude": -8.751
    },
    {
        "name": "Missirikoro",
        "country": "Mali",
        "province": "Sikasso",
        "population": -1,
        "latitude": 11.265523,
        "longitude": -5.750881
    },
    {
        "name": "Misséni",
        "country": "Mali",
        "province": "Mali",
        "population": -1,
        "latitude": 10.316667,
        "longitude": -6.066667
    },
    {
        "name": "Misala",
        "country": "Mali",
        "province": "Ségou",
        "population": -1,
        "latitude": 12.823564,
        "longitude": -6.119136
    },
    {
        "name": "Minkiri",
        "country": "Mali",
        "province": "Tombouctou",
        "population": -1,
        "latitude": 16.755797,
        "longitude": -2.441778
    },
    {
        "name": "Minanba",
        "country": "Mali",
        "province": "Sikasso",
        "population": -1,
        "latitude": 12.394628,
        "longitude": -4.671615
    },
    {
        "name": "Miena",
        "country": "Mali",
        "province": "Sikasso",
        "population": -1,
        "latitude": 12.6296798,
        "longitude": -5.9904366
    },
    {
        "name": "Merkoya",
        "country": "Mali",
        "province": "Koulikoro",
        "population": -1,
        "latitude": 13.9245,
        "longitude": -8.2005
    },
    {
        "name": "Méridiala",
        "country": "Mali",
        "province": "Sikasso",
        "population": -1,
        "latitude": 12.091605,
        "longitude": -7.259302
    },
    {
        "name": "Mininko",
        "country": "Mali",
        "province": "Sikasso",
        "population": -1,
        "latitude": 11.174933,
        "longitude": -6.333747
    },
    {
        "name": "Mèna",
        "country": "Mali",
        "province": "Koulikoro",
        "population": -1,
        "latitude": 12.2165,
        "longitude": -6.2043
    },
    {
        "name": "Ména",
        "country": "Mali",
        "province": "Sikasso",
        "population": -1,
        "latitude": 11.247911,
        "longitude": -6.784403
    },
    {
        "name": "Médine",
        "country": "Mali",
        "province": "Kayes",
        "population": -1,
        "latitude": 14.375194,
        "longitude": -11.366396
    },
    {
        "name": "Mbérédyoula",
        "country": "Mali",
        "province": "Ségou",
        "population": -1,
        "latitude": 12.81446,
        "longitude": -6.47099
    },
    {
        "name": "Bassian",
        "country": "Mali",
        "province": "Koulikoro",
        "population": -1,
        "latitude": 12.336656,
        "longitude": -7.475205
    },
    {
        "name": "Matomo",
        "country": "Mali",
        "province": "Ségou",
        "population": -1,
        "latitude": 13.84776,
        "longitude": -4.96584
    },
    {
        "name": "Massigui",
        "country": "Mali",
        "province": "Koulikoro",
        "population": -1,
        "latitude": 11.858757,
        "longitude": -6.770803
    },
    {
        "name": "Masaransama",
        "country": "Mali",
        "province": "Ségou",
        "population": -1,
        "latitude": 14.60789,
        "longitude": -6.04305
    },
    {
        "name": "Massantola",
        "country": "Mali",
        "province": "Koulikoro",
        "population": -1,
        "latitude": 13.494118,
        "longitude": -7.805048
    },
    {
        "name": "Massala",
        "country": "Mali",
        "province": "Ségou",
        "population": -1,
        "latitude": 13.2827,
        "longitude": -6.5012
    },
    {
        "name": "Masakoni",
        "country": "Mali",
        "province": "Koulikoro",
        "population": -1,
        "latitude": 12.1342,
        "longitude": -6.8015
    },
    {
        "name": "Markanibougou",
        "country": "Mali",
        "province": "Ségou",
        "population": -1,
        "latitude": 13.5978,
        "longitude": -6.1555
    },
    {
        "name": "Moribabougou",
        "country": "Mali",
        "province": "Koulikoro",
        "population": -1,
        "latitude": 12.686723,
        "longitude": -7.86378
    },
    {
        "name": "Mandiakui",
        "country": "Mali",
        "province": "Ségou",
        "population": -1,
        "latitude": 13.0197,
        "longitude": -4.4644
    },
    {
        "name": "Manantali",
        "country": "Mali",
        "province": "Kayes",
        "population": -1,
        "latitude": 13.2076,
        "longitude": -10.462
    },
    {
        "name": "Manankoro",
        "country": "Mali",
        "province": "Mali",
        "population": -1,
        "latitude": 10.4666667,
        "longitude": -7.45
    },
    {
        "name": "Manako",
        "country": "Mali",
        "province": "Mopti",
        "population": -1,
        "latitude": 14.6504004,
        "longitude": -4.0714295
    },
    {
        "name": "Maléa",
        "country": "Mali",
        "province": "Mali",
        "population": -1,
        "latitude": 12.2333333,
        "longitude": -10.4166667
    },
    {
        "name": "Mao",
        "country": "Mali",
        "province": "Sikasso",
        "population": -1,
        "latitude": 12.132128,
        "longitude": -4.62951
    },
    {
        "name": "Mahina",
        "country": "Mali",
        "province": "Kayes",
        "population": -1,
        "latitude": 13.9044,
        "longitude": -10.0986
    },
    {
        "name": "Mahina",
        "country": "Mali",
        "province": "Kayes",
        "population": -1,
        "latitude": 13.7625,
        "longitude": -10.8486
    },
    {
        "name": "Makana",
        "country": "Mali",
        "province": "Sikasso",
        "population": -1,
        "latitude": 11.199405,
        "longitude": -6.721367
    },
    {
        "name": "Mafuné",
        "country": "Mali",
        "province": "Ségou",
        "population": -1,
        "latitude": 12.786689,
        "longitude": -4.361463
    },
    {
        "name": "Madougou",
        "country": "Mali",
        "province": "Mopti",
        "population": -1,
        "latitude": 14.399149,
        "longitude": -3.078826
    },
    {
        "name": "Madina Sako",
        "country": "Mali",
        "province": "Koulikoro",
        "population": -1,
        "latitude": 13.783595,
        "longitude": -7.54566
    },
    {
        "name": "Madina",
        "country": "Mali",
        "province": "Kayes",
        "population": -1,
        "latitude": 13.3984,
        "longitude": -8.8619
    },
    {
        "name": "Madiga",
        "country": "Mali",
        "province": "Kayes",
        "population": -1,
        "latitude": 14.362,
        "longitude": -9.307
    },
    {
        "name": "Madiama",
        "country": "Mali",
        "province": "Mopti",
        "population": -1,
        "latitude": 13.7948,
        "longitude": -4.396
    },
    {
        "name": "Loutana",
        "country": "Mali",
        "province": "Sikasso",
        "population": -1,
        "latitude": 11.631096,
        "longitude": -5.651743
    },
    {
        "name": "Loulouni",
        "country": "Mali",
        "province": "Mali",
        "population": -1,
        "latitude": 10.9,
        "longitude": -5.6
    },
    {
        "name": "Lobougoula",
        "country": "Mali",
        "province": "Sikasso",
        "population": -1,
        "latitude": 11.044152403893785,
        "longitude": -5.980596542358398
    },
    {
        "name": "Léré",
        "country": "Mali",
        "province": "Tombouctou",
        "population": -1,
        "latitude": 15.7118,
        "longitude": -4.9118
    },
    {
        "name": "Lani Tounka",
        "country": "Mali",
        "province": "Kayes",
        "population": -1,
        "latitude": 14.7130208,
        "longitude": -12.0515295
    },
    {
        "name": "Lambidou",
        "country": "Mali",
        "province": "Kayes",
        "population": -1,
        "latitude": 14.3121,
        "longitude": -9.5509
    },
    {
        "name": "Lakamané",
        "country": "Mali",
        "province": "Kayes",
        "population": -1,
        "latitude": 14.5095,
        "longitude": -9.9099
    },
    {
        "name": "Labézanga",
        "country": "Mali",
        "province": "Gao",
        "population": -1,
        "latitude": 14.956342,
        "longitude": 0.696039
    },
    {
        "name": "Kwô",
        "country": "Mali",
        "province": "Sikasso",
        "population": -1,
        "latitude": 12.3739,
        "longitude": -6.0564
    },
    {
        "name": "Koussané",
        "country": "Mali",
        "province": "Kayes",
        "population": -1,
        "latitude": 14.88523,
        "longitude": -11.233979
    },
    {
        "name": "Kouri",
        "country": "Mali",
        "province": "Sikasso",
        "population": -1,
        "latitude": 12.183956,
        "longitude": -4.802841
    },
    {
        "name": "Kourouninkoto",
        "country": "Mali",
        "province": "Kayes",
        "population": -1,
        "latitude": 13.8587,
        "longitude": -9.5806
    },
    {
        "name": "Kourouma",
        "country": "Mali",
        "province": "Sikasso",
        "population": -1,
        "latitude": 11.8792,
        "longitude": -5.838566
    },
    {
        "name": "Kouroukoto",
        "country": "Mali",
        "province": "Mali",
        "population": -1,
        "latitude": 12.6,
        "longitude": -10.4
    },
    {
        "name": "Kourouba",
        "country": "Mali",
        "province": "Koulikoro",
        "population": -1,
        "latitude": 12.0098205,
        "longitude": -8.2861498
    },
    {
        "name": "Kouoro",
        "country": "Mali",
        "province": "Sikasso",
        "population": -1,
        "latitude": 12.0146028,
        "longitude": -5.7080286
    },
    {
        "name": "Kouniana",
        "country": "Mali",
        "province": "Sikasso",
        "population": -1,
        "latitude": 12.5683028,
        "longitude": -5.1262286
    },
    {
        "name": "Kongoba",
        "country": "Mali",
        "province": "Sikasso",
        "population": -1,
        "latitude": 11.618344,
        "longitude": -6.426595
    },
    {
        "name": "Koundian",
        "country": "Mali",
        "province": "Kayes",
        "population": -1,
        "latitude": 13.159,
        "longitude": -10.6803
    },
    {
        "name": "Koumantou",
        "country": "Mali",
        "province": "Sikasso",
        "population": -1,
        "latitude": 11.406003,
        "longitude": -6.849842
    },
    {
        "name": "Koumankou",
        "country": "Mali",
        "province": "Sikasso",
        "population": -1,
        "latitude": 12.0947,
        "longitude": -6.1405
    },
    {
        "name": "Koumaïra",
        "country": "Mali",
        "province": "Tombouctou",
        "population": -1,
        "latitude": 15.7834,
        "longitude": -3.8645
    },
    {
        "name": "Kouloudyènhé",
        "country": "Mali",
        "province": "Kayes",
        "population": -1,
        "latitude": 14.44681,
        "longitude": -8.372867
    },
    {
        "name": "Koula",
        "country": "Mali",
        "province": "Ségou",
        "population": -1,
        "latitude": 13.2419485,
        "longitude": -4.274123
    },
    {
        "name": "Koubi",
        "country": "Mali",
        "province": "Mopti",
        "population": -1,
        "latitude": 14.3927758,
        "longitude": -4.8709943
    },
    {
        "name": "Kouakourou",
        "country": "Mali",
        "province": "Mopti",
        "population": -1,
        "latitude": 14.2223011,
        "longitude": -4.4959314
    },
    {
        "name": "Kotouba",
        "country": "Mali",
        "province": "Kayes",
        "population": -1,
        "latitude": 13.4743,
        "longitude": -8.7236
    },
    {
        "name": "Koféba",
        "country": "Mali",
        "province": "Kayes",
        "population": -1,
        "latitude": 13.02891,
        "longitude": -9.58331
    },
    {
        "name": "Kononi Sirakoro",
        "country": "Mali",
        "province": "Koulikoro",
        "population": -1,
        "latitude": 13.2806,
        "longitude": -8.1702
    },
    {
        "name": "Koronga",
        "country": "Mali",
        "province": "Koulikoro",
        "population": -1,
        "latitude": 15.3318865,
        "longitude": -7.6042581
    },
    {
        "name": "Kolomba",
        "country": "Mali",
        "province": "Sikasso",
        "population": -1,
        "latitude": 11.19429,
        "longitude": -6.822287
    },
    {
        "name": "Korodougou-Markala",
        "country": "Mali",
        "province": "Koulikoro",
        "population": -1,
        "latitude": 12.4285,
        "longitude": -6.2874
    },
    {
        "name": "Korientzé",
        "country": "Mali",
        "province": "Mopti",
        "population": -1,
        "latitude": 15.394306,
        "longitude": -3.78176
    },
    {
        "name": "Koréra-Koré",
        "country": "Mali",
        "province": "Koulikoro",
        "population": -1,
        "latitude": 15.1377432,
        "longitude": -8.9597372
    },
    {
        "name": "Kora",
        "country": "Mali",
        "province": "Mopti",
        "population": -1,
        "latitude": 15.5238,
        "longitude": -4.6753
    },
    {
        "name": "Kora",
        "country": "Mali",
        "province": "Mopti",
        "population": -1,
        "latitude": 14.5335604,
        "longitude": -4.8880357
    },
    {
        "name": "Koporo-Kénié-na",
        "country": "Mali",
        "province": "Mopti",
        "population": -1,
        "latitude": 14.1308405,
        "longitude": -3.353906
    },
    {
        "name": "Kontéla",
        "country": "Mali",
        "province": "Kayes",
        "population": -1,
        "latitude": 14.767105,
        "longitude": -11.100171
    },
    {
        "name": "Konséguéla",
        "country": "Mali",
        "province": "Sikasso",
        "population": -1,
        "latitude": 12.4094743,
        "longitude": -5.8766456
    },
    {
        "name": "Konosourou",
        "country": "Mali",
        "province": "Koulikoro",
        "population": -1,
        "latitude": 12.2826,
        "longitude": -6.0584
    },
    {
        "name": "Konodimini",
        "country": "Mali",
        "province": "Ségou",
        "population": -1,
        "latitude": 13.32462,
        "longitude": -6.4213
    },
    {
        "name": "Konobougou",
        "country": "Mali",
        "province": "Ségou",
        "population": -1,
        "latitude": 12.917027,
        "longitude": -6.757884
    },
    {
        "name": "Kominkomi",
        "country": "Mali",
        "province": "Koulikoro",
        "population": -1,
        "latitude": 12.7994444,
        "longitude": -8.3344444
    },
    {
        "name": "Koniakari",
        "country": "Mali",
        "province": "Kayes",
        "population": -1,
        "latitude": 14.5797,
        "longitude": -10.9012
    },
    {
        "name": "Kongou",
        "country": "Mali",
        "province": "Ségou",
        "population": -1,
        "latitude": 12.9459,
        "longitude": -6.4311
    },
    {
        "name": "Kondo",
        "country": "Mali",
        "province": "Mopti",
        "population": -1,
        "latitude": 14.5450223,
        "longitude": -4.8567203
    },
    {
        "name": "Kondi",
        "country": "Mali",
        "province": "Tombouctou",
        "population": -1,
        "latitude": 16.363265,
        "longitude": -3.479543
    },
    {
        "name": "Kona",
        "country": "Mali",
        "province": "Mopti",
        "population": -1,
        "latitude": 14.94329217583282,
        "longitude": -3.8947391510009766
    },
    {
        "name": "Kominé",
        "country": "Mali",
        "province": "Ségou",
        "population": -1,
        "latitude": 13.660735,
        "longitude": -5.871429
    },
    {
        "name": "Komara",
        "country": "Mali",
        "province": "Mopti",
        "population": -1,
        "latitude": 14.1166,
        "longitude": -5.1487
    },
    {
        "name": "Kolosso",
        "country": "Mali",
        "province": "Sikasso",
        "population": -1,
        "latitude": 11.119018,
        "longitude": -6.549896
    },
    {
        "name": "Koloni",
        "country": "Mali",
        "province": "Sikasso",
        "population": -1,
        "latitude": 11.156235,
        "longitude": -6.842844
    },
    {
        "name": "Kolongotomo",
        "country": "Mali",
        "province": "Ségou",
        "population": -1,
        "latitude": 13.881731,
        "longitude": -5.685952
    },
    {
        "name": "Kolongo",
        "country": "Mali",
        "province": "Ségou",
        "population": -1,
        "latitude": 14.1695385,
        "longitude": -5.47621
    },
    {
        "name": "Kolonpérébougou",
        "country": "Mali",
        "province": "Sikasso",
        "population": -1,
        "latitude": 11.744125,
        "longitude": -6.128317
    },
    {
        "name": "Kologo",
        "country": "Mali",
        "province": "Sikasso",
        "population": -1,
        "latitude": 11.222563,
        "longitude": -7.491477
    },
    {
        "name": "Kola-Foulala",
        "country": "Mali",
        "province": "Koulikoro",
        "population": -1,
        "latitude": 12.60695,
        "longitude": -6.85616
    },
    {
        "name": "Kola",
        "country": "Mali",
        "province": "Koulikoro",
        "population": -1,
        "latitude": 14.616,
        "longitude": -7.2598
    },
    {
        "name": "Kola",
        "country": "Mali",
        "province": "Sikasso",
        "population": -1,
        "latitude": 11.341344,
        "longitude": -7.47441
    },
    {
        "name": "Kokri",
        "country": "Mali",
        "province": "Ségou",
        "population": -1,
        "latitude": 13.960352,
        "longitude": -5.51542
    },
    {
        "name": "Kokélé",
        "country": "Mali",
        "province": "Sikasso",
        "population": -1,
        "latitude": 11.528886,
        "longitude": -7.541597
    },
    {
        "name": "Koïma",
        "country": "Mali",
        "province": "Gao",
        "population": -1,
        "latitude": 16.3222222,
        "longitude": -0.0652778
    },
    {
        "name": "Koboroto",
        "country": "Mali",
        "province": "Kayes",
        "population": -1,
        "latitude": 14.0902,
        "longitude": -9.6315
    },
    {
        "name": "Kobiri",
        "country": "Mali",
        "province": "Kayes",
        "population": -1,
        "latitude": 13.119104,
        "longitude": -9.900957
    },
    {
        "name": "Kléla",
        "country": "Mali",
        "province": "Sikasso",
        "population": -1,
        "latitude": 11.687494,
        "longitude": -5.664094
    },
    {
        "name": "Kita",
        "country": "Mali",
        "province": "Kayes",
        "population": 5769,
        "latitude": 13.0349,
        "longitude": -9.4895
    },
    {
        "name": "Kirchamba",
        "country": "Mali",
        "province": "Tombouctou",
        "population": -1,
        "latitude": 16.356512,
        "longitude": -3.249611
    },
    {
        "name": "Kirané",
        "country": "Mali",
        "province": "Kayes",
        "population": -1,
        "latitude": 15.4084472,
        "longitude": -10.2225171
    },
    {
        "name": "Kignan",
        "country": "Mali",
        "province": "Sikasso",
        "population": -1,
        "latitude": 11.851936,
        "longitude": -6.013983
    },
    {
        "name": "Kikara",
        "country": "Mali",
        "province": "Mopti",
        "population": -1,
        "latitude": 15.210789,
        "longitude": -2.748255
    },
    {
        "name": "Kifosso",
        "country": "Mali",
        "province": "Sikasso",
        "population": -1,
        "latitude": 12.5015,
        "longitude": -4.8992
    },
    {
        "name": "Kiban",
        "country": "Mali",
        "province": "Koulikoro",
        "population": -1,
        "latitude": 13.579034,
        "longitude": -7.353694
    },
    {
        "name": "Krèmiss",
        "country": "Mali",
        "province": "Kayes",
        "population": -1,
        "latitude": 15.350479,
        "longitude": -10.345763
    },
    {
        "name": "Kersiniané",
        "country": "Mali",
        "province": "Kayes",
        "population": -1,
        "latitude": 14.991774,
        "longitude": -11.018049
    },
    {
        "name": "Kersignané",
        "country": "Mali",
        "province": "Kayes",
        "population": -1,
        "latitude": 14.9916,
        "longitude": -10.9837
    },
    {
        "name": "Kéréla",
        "country": "Mali",
        "province": "Koulikoro",
        "population": -1,
        "latitude": 12.74226,
        "longitude": -6.8381
    },
    {
        "name": "Kérano",
        "country": "Mali",
        "province": "Mopti",
        "population": -1,
        "latitude": 15.030756,
        "longitude": -2.686322
    },
    {
        "name": "Kéniéba",
        "country": "Mali",
        "province": "Koulikoro",
        "population": -1,
        "latitude": 12.0443895,
        "longitude": -8.6348023
    },
    {
        "name": "Kenndié",
        "country": "Mali",
        "province": "Mopti",
        "population": -1,
        "latitude": 14.700598,
        "longitude": -3.417687
    },
    {
        "name": "Kendé",
        "country": "Mali",
        "province": "Mopti",
        "population": -1,
        "latitude": 14.7262053,
        "longitude": -4.1376682
    },
    {
        "name": "Kemeni",
        "country": "Mali",
        "province": "Ségou",
        "population": -1,
        "latitude": 12.9787028,
        "longitude": -5.5433286
    },
    {
        "name": "Kéléya",
        "country": "Mali",
        "province": "Sikasso",
        "population": -1,
        "latitude": 11.827706,
        "longitude": -7.7878344
    },
    {
        "name": "Kébila",
        "country": "Mali",
        "province": "Sikasso",
        "population": -1,
        "latitude": 11.275722,
        "longitude": -7.042741
    },
    {
        "name": "Kaïa",
        "country": "Mali",
        "province": "Tombouctou",
        "population": -1,
        "latitude": 15.9071,
        "longitude": -3.5421
    },
    {
        "name": "Kaya",
        "country": "Mali",
        "province": "Koulikoro",
        "population": -1,
        "latitude": 12.1273,
        "longitude": -6.7144
    },
    {
        "name": "Kawinza",
        "country": "Mali",
        "province": "Tombouctou",
        "population": -1,
        "latitude": 15.7797,
        "longitude": -4.5224
    },
    {
        "name": "Katiéna",
        "country": "Mali",
        "province": "Ségou",
        "population": -1,
        "latitude": 13.323138,
        "longitude": -5.641774
    },
    {
        "name": "Kassonbougou",
        "country": "Mali",
        "province": "Sikasso",
        "population": -1,
        "latitude": 11.546964,
        "longitude": -6.34489
    },
    {
        "name": "Kassaro",
        "country": "Mali",
        "province": "Kayes",
        "population": -1,
        "latitude": 12.9515925,
        "longitude": -8.8779738
    },
    {
        "name": "Kassama",
        "country": "Mali",
        "province": "Kayes",
        "population": -1,
        "latitude": 13.0543846,
        "longitude": -11.1238002
    },
    {
        "name": "Kassa",
        "country": "Mali",
        "province": "Mopti",
        "population": -1,
        "latitude": 14.7246985,
        "longitude": -3.066287
    },
    {
        "name": "Karangasso",
        "country": "Mali",
        "province": "Sikasso",
        "population": -1,
        "latitude": 12.2844028,
        "longitude": -5.2575286
    },
    {
        "name": "Kanrangana",
        "country": "Mali",
        "province": "Sikasso",
        "population": -1,
        "latitude": 12.2296028,
        "longitude": -5.0352286
    },
    {
        "name": "Karan",
        "country": "Mali",
        "province": "Koulikoro",
        "population": -1,
        "latitude": 12.1324925,
        "longitude": -8.5220738
    },
    {
        "name": "Karaba",
        "country": "Mali",
        "province": "Ségou",
        "population": -1,
        "latitude": 12.915022,
        "longitude": -4.891009
    },
    {
        "name": "Kapala",
        "country": "Mali",
        "province": "Sikasso",
        "population": -1,
        "latitude": 12.2146028,
        "longitude": -5.4592286
    },
    {
        "name": "Kapala",
        "country": "Mali",
        "province": "Sikasso",
        "population": -1,
        "latitude": 11.11686,
        "longitude": -5.720599
    },
    {
        "name": "Kanzangasso",
        "country": "Mali",
        "province": "Ségou",
        "population": -1,
        "latitude": 13.046937,
        "longitude": -5.567915
    },
    {
        "name": "Kani-Kombolé",
        "country": "Mali",
        "province": "Mopti",
        "population": -1,
        "latitude": 14.145798,
        "longitude": -3.594587
    },
    {
        "name": "Kani-Gogouna",
        "country": "Mali",
        "province": "Mopti",
        "population": -1,
        "latitude": 14.5587985,
        "longitude": -3.388887
    },
    {
        "name": "Kani-Bonzon",
        "country": "Mali",
        "province": "Mopti",
        "population": -1,
        "latitude": 14.13548,
        "longitude": -3.63044
    },
    {
        "name": "Kangaré",
        "country": "Mali",
        "province": "Mali",
        "population": -1,
        "latitude": 11.583333,
        "longitude": -8.166667
    },
    {
        "name": "Kambila",
        "country": "Mali",
        "province": "Koulikoro",
        "population": -1,
        "latitude": 12.7930925,
        "longitude": -8.1050738
    },
    {
        "name": "Kalifabougou",
        "country": "Mali",
        "province": "Koulikoro",
        "population": -1,
        "latitude": 12.9487925,
        "longitude": -8.1743738
    },
    {
        "name": "Kalana",
        "country": "Mali",
        "province": "Mali",
        "population": -1,
        "latitude": 10.7833333,
        "longitude": -8.2
    },
    {
        "name": "Kalabougou",
        "country": "Mali",
        "province": "Ségou",
        "population": -1,
        "latitude": 13.4393,
        "longitude": -6.3355
    },
    {
        "name": "Kalaban Koro",
        "country": "Mali",
        "province": "Koulikoro",
        "population": -1,
        "latitude": 12.5732925,
        "longitude": -8.0290738
    },
    {
        "name": "Kakoulou",
        "country": "Mali",
        "province": "Kayes",
        "population": -1,
        "latitude": 14.282274,
        "longitude": -11.265811
    },
    {
        "name": "Kaï",
        "country": "Mali",
        "province": "Mali",
        "population": -1,
        "latitude": 10.966667,
        "longitude": -5.7
    },
    {
        "name": "Kadiana",
        "country": "Mali",
        "province": "Mali",
        "population": -1,
        "latitude": 10.75,
        "longitude": -6.5
    },
    {
        "name": "Kaboïla",
        "country": "Mali",
        "province": "Sikasso",
        "population": -1,
        "latitude": 11.213186,
        "longitude": -5.635247
    },
    {
        "name": "Kabaté",
        "country": "Mali",
        "province": "Kayes",
        "population": -1,
        "latitude": 14.511335,
        "longitude": -11.210278
    },
    {
        "name": "Kabarasso",
        "country": "Mali",
        "province": "Sikasso",
        "population": -1,
        "latitude": 12.0173028,
        "longitude": -5.9406286
    },
    {
        "name": "Kabara",
        "country": "Mali",
        "province": "Tombouctou",
        "population": -1,
        "latitude": 16.704308,
        "longitude": -2.983019
    },
    {
        "name": "Isèy",
        "country": "Mali",
        "province": "Mopti",
        "population": -1,
        "latitude": 14.872772,
        "longitude": -2.025588
    },
    {
        "name": "Iringasso",
        "country": "Mali",
        "province": "Sikasso",
        "population": -1,
        "latitude": 11.705846,
        "longitude": -6.088057
    },
    {
        "name": "I-n-Tebezas",
        "country": "Mali",
        "province": "Gao",
        "population": -1,
        "latitude": 17.8027778,
        "longitude": 1.8586111
    },
    {
        "name": "Horokoto",
        "country": "Mali",
        "province": "Kayes",
        "population": -1,
        "latitude": 13.6220181,
        "longitude": -11.3522921
    },
    {
        "name": "Hombori",
        "country": "Mali",
        "province": "Mopti",
        "population": -1,
        "latitude": 15.278981,
        "longitude": -1.700373
    },
    {
        "name": "Haoussa Foulan",
        "country": "Mali",
        "province": "Gao",
        "population": -1,
        "latitude": 15.9858,
        "longitude": 0.1395
    },
    {
        "name": "Hamdallay Timbou",
        "country": "Mali",
        "province": "Mali",
        "population": -1,
        "latitude": 12.05,
        "longitude": -10.6166667
    },
    {
        "name": "Guiré",
        "country": "Mali",
        "province": "Koulikoro",
        "population": -1,
        "latitude": 14.6432,
        "longitude": -6.6909
    },
    {
        "name": "Guioyo",
        "country": "Mali",
        "province": "Koulikoro",
        "population": -1,
        "latitude": 13.503399,
        "longitude": -8.245306
    },
    {
        "name": "Guindio Saré",
        "country": "Mali",
        "province": "Mopti",
        "population": -1,
        "latitude": 15.3548,
        "longitude": -4.0775
    },
    {
        "name": "Guidibine",
        "country": "Mali",
        "province": "Kayes",
        "population": -1,
        "latitude": 14.627907,
        "longitude": -11.280498
    },
    {
        "name": "Guétéma",
        "country": "Mali",
        "province": "Kayes",
        "population": -1,
        "latitude": 15.1207463,
        "longitude": -9.5830562
    },
    {
        "name": "Guarana",
        "country": "Mali",
        "province": "Ségou",
        "population": -1,
        "latitude": 13.3348,
        "longitude": -6.7921
    },
    {
        "name": "Gouérékélé",
        "country": "Mali",
        "province": "Sikasso",
        "population": -1,
        "latitude": 11.432994,
        "longitude": -6.747152
    },
    {
        "name": "Guénou Goré",
        "country": "Mali",
        "province": "Kayes",
        "population": -1,
        "latitude": 12.7282341,
        "longitude": -11.0239913
    },
    {
        "name": "Génèybé",
        "country": "Mali",
        "province": "Koulikoro",
        "population": -1,
        "latitude": 15.2766759,
        "longitude": -7.0797346
    },
    {
        "name": "Gouendo",
        "country": "Mali",
        "province": "Ségou",
        "population": -1,
        "latitude": 12.795,
        "longitude": -6.32071
    },
    {
        "name": "Guénakoro",
        "country": "Mali",
        "province": "Ségou",
        "population": -1,
        "latitude": 12.8806,
        "longitude": -6.7514
    },
    {
        "name": "Guémoukouraba",
        "country": "Mali",
        "province": "Kayes",
        "population": -1,
        "latitude": 14.26391,
        "longitude": -9.320843
    },
    {
        "name": "Guéléninkoro",
        "country": "Mali",
        "province": "Mali",
        "population": -1,
        "latitude": 11.15,
        "longitude": -8.5166667
    },
    {
        "name": "Gouni",
        "country": "Mali",
        "province": "Koulikoro",
        "population": -1,
        "latitude": 12.872028,
        "longitude": -7.534093
    },
    {
        "name": "Gounfan",
        "country": "Mali",
        "province": "Kayes",
        "population": -1,
        "latitude": 13.4924276,
        "longitude": -11.0901796
    },
    {
        "name": "Goundara",
        "country": "Mali",
        "province": "Kayes",
        "population": -1,
        "latitude": 14.0371,
        "longitude": -10.3633
    },
    {
        "name": "Goundam",
        "country": "Mali",
        "province": "Tombouctou",
        "population": 8456,
        "latitude": 16.41453,
        "longitude": -3.670749
    },
    {
        "name": "Goundaka",
        "country": "Mali",
        "province": "Mopti",
        "population": -1,
        "latitude": 14.4997985,
        "longitude": -3.946487
    },
    {
        "name": "Cinzana Gare",
        "country": "Mali",
        "province": "Ségou",
        "population": -1,
        "latitude": 13.252509,
        "longitude": -5.964546
    },
    {
        "name": "Ziéna",
        "country": "Mali",
        "province": "Sikasso",
        "population": -1,
        "latitude": 12.207203,
        "longitude": -5.692329
    },
    {
        "name": "Zinyébougou",
        "country": "Mali",
        "province": "Sikasso",
        "population": -1,
        "latitude": 11.328573,
        "longitude": -6.088332
    },
    {
        "name": "Zampiéla",
        "country": "Mali",
        "province": "Sikasso",
        "population": -1,
        "latitude": 11.145825,
        "longitude": -6.913756
    },
    {
        "name": "Zégoua",
        "country": "Mali",
        "province": "Mali",
        "population": -1,
        "latitude": 10.5,
        "longitude": -5.666667
    },
    {
        "name": "Zébala",
        "country": "Mali",
        "province": "Sikasso",
        "population": -1,
        "latitude": 12.3115458,
        "longitude": -5.1532001
    },
    {
        "name": "Zanzouni",
        "country": "Mali",
        "province": "Sikasso",
        "population": -1,
        "latitude": 12.6071973,
        "longitude": -5.5658146
    },
    {
        "name": "Zantiébougou",
        "country": "Mali",
        "province": "Sikasso",
        "population": -1,
        "latitude": 11.383751,
        "longitude": -7.254622
    },
    {
        "name": "Zaniéna",
        "country": "Mali",
        "province": "Sikasso",
        "population": -1,
        "latitude": 11.812512,
        "longitude": -5.887312
    },
    {
        "name": "Zangaradougou",
        "country": "Mali",
        "province": "Sikasso",
        "population": -1,
        "latitude": 11.386609,
        "longitude": -5.599153
    },
    {
        "name": "Zanférébougou",
        "country": "Mali",
        "province": "Sikasso",
        "population": -1,
        "latitude": 11.285555,
        "longitude": -6.069528
    },
    {
        "name": "Zanbouroula",
        "country": "Mali",
        "province": "Sikasso",
        "population": -1,
        "latitude": 11.582487,
        "longitude": -7.564129
    },
    {
        "name": "Zinbougou",
        "country": "Mali",
        "province": "Koulikoro",
        "population": -1,
        "latitude": 11.835132,
        "longitude": -6.774154
    },
    {
        "name": "Youri",
        "country": "Mali",
        "province": "Kayes",
        "population": -1,
        "latitude": 15.1046698,
        "longitude": -9.8139286
    },
    {
        "name": "Youdiou",
        "country": "Mali",
        "province": "Mopti",
        "population": -1,
        "latitude": 14.277271,
        "longitude": -3.170229
    },
    {
        "name": "Yorobougoula",
        "country": "Mali",
        "province": "Mali",
        "population": -1,
        "latitude": 10.9166667,
        "longitude": -8
    },
    {
        "name": "Yoro",
        "country": "Mali",
        "province": "Mopti",
        "population": -1,
        "latitude": 14.279343,
        "longitude": -2.135418
    },
    {
        "name": "Yolo",
        "country": "Mali",
        "province": "Mopti",
        "population": -1,
        "latitude": 13.9016,
        "longitude": -3.7452
    },
    {
        "name": "Yéréré",
        "country": "Mali",
        "province": "Kayes",
        "population": -1,
        "latitude": 15.2571238,
        "longitude": -9.4294897
    },
    {
        "name": "Yélékébougou",
        "country": "Mali",
        "province": "Koulikoro",
        "population": -1,
        "latitude": 12.974515,
        "longitude": -8.0397403
    },
    {
        "name": "Yasso",
        "country": "Mali",
        "province": "Ségou",
        "population": -1,
        "latitude": 13.1371,
        "longitude": -4.674
    },
    {
        "name": "Yangasso",
        "country": "Mali",
        "province": "Ségou",
        "population": -1,
        "latitude": 13.073077,
        "longitude": -5.321352
    },
    {
        "name": "Yaguiné",
        "country": "Mali",
        "province": "Kayes",
        "population": -1,
        "latitude": 15.1228887,
        "longitude": -10.7277348
    },
    {
        "name": "Ouonian",
        "country": "Mali",
        "province": "Koulikoro",
        "population": -1,
        "latitude": 13.236311,
        "longitude": -7.318932
    },
    {
        "name": "Ouendia",
        "country": "Mali",
        "province": "Ségou",
        "population": -1,
        "latitude": 13.29054,
        "longitude": -6.00605
    },
    {
        "name": "Vinkala",
        "country": "Mali",
        "province": "Sikasso",
        "population": -1,
        "latitude": 11.318957,
        "longitude": -6.851632
    },
    {
        "name": "Weina",
        "country": "Mali",
        "province": "Ségou",
        "population": -1,
        "latitude": 12.876,
        "longitude": -6.6416
    },
    {
        "name": "Warké",
        "country": "Mali",
        "province": "Ségou",
        "population": -1,
        "latitude": 12.9933,
        "longitude": -6.7842
    },
    {
        "name": "Tyésola",
        "country": "Mali",
        "province": "Koulikoro",
        "population": -1,
        "latitude": 12.1132,
        "longitude": -6.9789
    },
    {
        "name": "Tyènfala",
        "country": "Mali",
        "province": "Koulikoro",
        "population": -1,
        "latitude": 12.7357,
        "longitude": -7.7548
    },
    {
        "name": "Tiendo",
        "country": "Mali",
        "province": "Koulikoro",
        "population": -1,
        "latitude": 12.5511,
        "longitude": -6.81763
    },
    {
        "name": "Tyénabougou",
        "country": "Mali",
        "province": "Ségou",
        "population": -1,
        "latitude": 12.6844,
        "longitude": -6.3141
    },
    {
        "name": "Tyèlè",
        "country": "Mali",
        "province": "Koulikoro",
        "population": -1,
        "latitude": 12.3003,
        "longitude": -7.5678
    },
    {
        "name": "Toutiala",
        "country": "Mali",
        "province": "Mali",
        "population": -1,
        "latitude": 10.9666667,
        "longitude": -7.1
    },
    {
        "name": "Torodo",
        "country": "Mali",
        "province": "Koulikoro",
        "population": -1,
        "latitude": 12.8011,
        "longitude": -7.9496
    },
    {
        "name": "Touna",
        "country": "Mali",
        "province": "Ségou",
        "population": -1,
        "latitude": 13.115716,
        "longitude": -5.832256
    },
    {
        "name": "Toukoto",
        "country": "Mali",
        "province": "Kayes",
        "population": -1,
        "latitude": 13.4477,
        "longitude": -9.8765
    },
    {
        "name": "Toukabangou",
        "country": "Mali",
        "province": "Tombouctou",
        "population": -1,
        "latitude": 16.718972,
        "longitude": -3.787074
    },
    {
        "name": "Tougouni",
        "country": "Mali",
        "province": "Koulikoro",
        "population": -1,
        "latitude": 13.219031,
        "longitude": -7.206643
    },
    {
        "name": "Toubakoro",
        "country": "Mali",
        "province": "Koulikoro",
        "population": -1,
        "latitude": 13.87602,
        "longitude": -7.18266
    },
    {
        "name": "Touba",
        "country": "Mali",
        "province": "Ségou",
        "population": -1,
        "latitude": 12.8516,
        "longitude": -4.5397
    },
    {
        "name": "Tosséguéla",
        "country": "Mali",
        "province": "Sikasso",
        "population": -1,
        "latitude": 11.065437,
        "longitude": -6.627577
    },
    {
        "name": "Toroli",
        "country": "Mali",
        "province": "Mopti",
        "population": -1,
        "latitude": 13.9197,
        "longitude": -3.2205
    },
    {
        "name": "Toukoroba",
        "country": "Mali",
        "province": "Koulikoro",
        "population": -1,
        "latitude": 13.610723,
        "longitude": -7.039126
    },
    {
        "name": "Tori",
        "country": "Mali",
        "province": "Mopti",
        "population": -1,
        "latitude": 13.6163,
        "longitude": -3.7062
    },