[
    {
        "name": "Ulaanbaatar",
        "country": "Mongolia",
        "province": "Ulaanbaatar",
        "population": 844818,
        "latitude": 47.9077125688913,
        "longitude": 106.883239746094
    },
    {
        "name": "Ölgii",
        "country": "Mongolia",
        "province": "Bayan-Ölgiy",
        "population": 28400,
        "latitude": 48.9683333,
        "longitude": 89.9625
    },
    {
        "name": "Hovd",
        "country": "Mongolia",
        "province": "Övörhangay",
        "population": 27924,
        "latitude": 44.67023992771752,
        "longitude": 102.17491149902344
    },
    {
        "name": "Erdenet",
        "country": "Mongolia",
        "province": "Orhon",
        "population": 97814,
        "latitude": 49.0333333,
        "longitude": 104.0833333
    },
    {
        "name": "Darhan",
        "country": "Mongolia",
        "province": "Darhan Uul",
        "population": 83883,
        "latitude": 49.4866667,
        "longitude": 105.9227778
    },
    {
        "name": "Arvayheer",
        "country": "Mongolia",
        "province": "Övörhangay",
        "population": 29420,
        "latitude": 46.2638889,
        "longitude": 102.775
    },
    {
        "name": "Javkhlant",
        "country": "Mongolia",
        "province": "Dzabkhan",
        "population": 16265,
        "latitude": 47.7416667,
        "longitude": 96.8444444
    },
    {
        "name": "Khovd",
        "country": "Mongolia",
        "province": "Hovd",
        "population": 29800,
        "latitude": 48.0055556,
        "longitude": 91.6419444
    },
    {
        "name": "Cecerleg",
        "country": "Mongolia",
        "province": "Arkhangai Province",
        "population": 21620,
        "latitude": 47.475,
        "longitude": 101.4541667
    },
    {
        "name": "Mörön",
        "country": "Mongolia",
        "province": "Khövsgöl Province",
        "population": 39404,
        "latitude": 49.634167,
        "longitude": 100.1625
    },
    {
        "name": "Dalandzadgad",
        "country": "Mongolia",
        "province": "Ömnögovĭ",
        "population": 24863,
        "latitude": 43.5708333,
        "longitude": 104.425
    },
    {
        "name": "Bulgan",
        "country": "Mongolia",
        "province": "Bulgan",
        "population": 17348,
        "latitude": 48.8125,
        "longitude": 103.5347222
    },
    {
        "name": "Bayanhongor",
        "country": "Mongolia",
        "province": "Bayanhongor",
        "population": 30931,
        "latitude": 46.1944444,
        "longitude": 100.7180556
    },
    {
        "name": "Baruun-Urt",
        "country": "Mongolia",
        "province": "Sühbaatar",
        "population": 18190,
        "latitude": 46.6805556,
        "longitude": 113.2791667
    },
    {
        "name": "Ulaangom",
        "country": "Mongolia",
        "province": "Uvs Province",
        "population": 30092,
        "latitude": 49.9811111,
        "longitude": 92.0666667
    },
    {
        "name": "Sühbaatar",
        "country": "Mongolia",
        "province": "Selenge",
        "population": 22741,
        "latitude": 50.231389,
        "longitude": 106.207778
    },
    {
        "name": "Undurkhaan",
        "country": "Mongolia",
        "province": "Hentiy",
        "population": 22741,
        "latitude": 47.319444,
        "longitude": 110.655556
    },
    {
        "name": "Mandalgovi",
        "country": "Mongolia",
        "province": "Middle Govĭ",
        "population": 12339,
        "latitude": 45.7625,
        "longitude": 106.2708333
    },
    {
        "name": "Dzuunmod",
        "country": "Mongolia",
        "province": "Central Aimak",
        "population": 16953,
        "latitude": 47.7069444,
        "longitude": 106.9527778
    },
    {
        "name": "Choyr",
        "country": "Mongolia",
        "province": "Govĭ-Sumber",
        "population": 10434,
        "latitude": 46.3611111,
        "longitude": 108.3611111
    },
    {
        "name": "Choibalsan",
        "country": "Mongolia",
        "province": "East Aimak",
        "population": 23,
        "latitude": 48.07257,
        "longitude": 114.53264
    },
    {
        "name": "Saynshand",
        "country": "Mongolia",
        "province": "East Gobi Aymag",
        "population": 19891,
        "latitude": 44.88239065605275,
        "longitude": 110.1163101196289
    },
    {
        "name": "Altai",
        "country": "Mongolia",
        "province": "Govi-Altai Province",
        "population": 17617,
        "latitude": 46.3722222,
        "longitude": 96.2583333
    },
    {
        "name": "Turt",
        "country": "Mongolia",
        "province": "Khövsgöl Province",
        "population": 2140,
        "latitude": 51.5072466571743,
        "longitude": 100.662574768066
    },
    {
        "name": "Lamaiin Hüryee",
        "country": "Mongolia",
        "province": "Hentiy",
        "population": -1,
        "latitude": 48.6,
        "longitude": 110.633333
    },
    {
        "name": "Ihjargalan",
        "country": "Mongolia",
        "province": "East Gobi Aymag",
        "population": -1,
        "latitude": 45.5166667,
        "longitude": 108.8
    },
    {
        "name": "Hujirt",
        "country": "Mongolia",
        "province": "Hentiy",
        "population": -1,
        "latitude": 46.5833333,
        "longitude": 110.7666667
    },
    {
        "name": "Honichin Hural",
        "country": "Mongolia",
        "province": "East Gobi Aymag",
        "population": -1,
        "latitude": 43.7333333,
        "longitude": 108.6333333
    },
    {
        "name": "Khatgal",
        "country": "Mongolia",
        "province": "Khövsgöl Province",
        "population": -1,
        "latitude": 50.44477,
        "longitude": 100.15806
    },
    {
        "name": "Erdene-Dzuu",
        "country": "Mongolia",
        "province": "Övörhangay",
        "population": -1,
        "latitude": 47.20149345746034,
        "longitude": 102.84250259399414
    },
    {
        "name": "Dzuunmod",
        "country": "Mongolia",
        "province": "Ulaanbaatar",
        "population": -1,
        "latitude": 47.7833333,
        "longitude": 106.85
    },
    {
        "name": "Dzüünharaa",
        "country": "Mongolia",
        "province": "Selenge",
        "population": 18830,
        "latitude": 48.852291406043825,
        "longitude": 106.4578628540039
    },
    {
        "name": "Borhoyn Tal",
        "country": "Mongolia",
        "province": "East Gobi Aymag",
        "population": -1,
        "latitude": 43.718388345893146,
        "longitude": 111.90523624420166
    },
    {
        "name": "Baraybang Hiid",
        "country": "Mongolia",
        "province": "Hentiy",
        "population": -1,
        "latitude": 48.2,
        "longitude": 109.4333333
    },
    {
        "name": "Tosontsengel",
        "country": "Mongolia",
        "province": "Dzabkhan",
        "population": 9526,
        "latitude": 48.7566667,
        "longitude": 98.2838889
    },
    {
        "name": "Zuunmod",
        "country": "Mongolia",
        "province": "Central Aimak",
        "population": 16953,
        "latitude": 47.70693150460002,
        "longitude": 106.95276260375977
    },
    {
        "name": "Ürteiin Suma",
        "country": "Mongolia",
        "province": "Sühbaatar",
        "population": -1,
        "latitude": 46.116667,
        "longitude": 115.55
    },
    {
        "name": "Ulaanhudag",
        "country": "Mongolia",
        "province": "Central Aimak",
        "population": 1500,
        "latitude": 47.333333,
        "longitude": 104.5
    },
    {
        "name": "Tüyin Goliin Hüryee",
        "country": "Mongolia",
        "province": "Bayanhongor",
        "population": -1,
        "latitude": 46.416667,
        "longitude": 100.8
    },
    {
        "name": "Tsonholong Suma",
        "country": "Mongolia",
        "province": "Bulgan",
        "population": -1,
        "latitude": 49.3,
        "longitude": 103.6666667
    },
    {
        "name": "Tsengel",
        "country": "Mongolia",
        "province": "Khövsgöl Province",
        "population": 8348,
        "latitude": 49.478333,
        "longitude": 100.889444
    },
    {
        "name": "Tsagaan-Ovoo",
        "country": "Mongolia",
        "province": "Middle Govĭ",
        "population": -1,
        "latitude": 45.7833333,
        "longitude": 105.2333333
    },
    {
        "name": "Tsagaannuur",
        "country": "Mongolia",
        "province": "Selenge",
        "population": -1,
        "latitude": 50.3333333,
        "longitude": 105.05
    },
    {
        "name": "Tsagaan Burgaasanii Hüryee",
        "country": "Mongolia",
        "province": "Khövsgöl Province",
        "population": -1,
        "latitude": 49.998056,
        "longitude": 100.333333
    },
    {
        "name": "Töhömiin Süme",
        "country": "Mongolia",
        "province": "Central Aimak",
        "population": -1,
        "latitude": 46.916667,
        "longitude": 105.033333
    },
    {
        "name": "Tavin",
        "country": "Mongolia",
        "province": "Selenge",
        "population": -1,
        "latitude": 49.75,
        "longitude": 106.6666667
    },
    {
        "name": "Tamsagbulag",
        "country": "Mongolia",
        "province": "East Aimak",
        "population": -1,
        "latitude": 47.25,
        "longitude": 117.3
    },
    {
        "name": "Sula Obootoyn Suma",
        "country": "Mongolia",
        "province": "Hentiy",
        "population": -1,
        "latitude": 48.0333333,
        "longitude": 111.3666667
    },
    {
        "name": "Shuluutayn Hiid",
        "country": "Mongolia",
        "province": "Ömnögovĭ",
        "population": -1,
        "latitude": 43.2,
        "longitude": 104
    },
    {
        "name": "Shara Hulasa Hiid",
        "country": "Mongolia",
        "province": "Ömnögovĭ",
        "population": -1,
        "latitude": 44.65,
        "longitude": 104.0666667
    },
    {
        "name": "Sayr Usa",
        "country": "Mongolia",
        "province": "Middle Govĭ",
        "population": -1,
        "latitude": 44.8,
        "longitude": 106.8166667
    },
    {
        "name": "Sangiin Dalay Hiid",
        "country": "Mongolia",
        "province": "Middle Govĭ",
        "population": -1,
        "latitude": 46,
        "longitude": 104.966667
    },
    {
        "name": "Ongiin Hiid",
        "country": "Mongolia",
        "province": "Övörhangay",
        "population": -1,
        "latitude": 45.9666667,
        "longitude": 103.2666667
    },
    {
        "name": "Öndör-Önts",
        "country": "Mongolia",
        "province": "Övörhangay",
        "population": -1,
        "latitude": 45.85,
        "longitude": 103.183333
    },
    {
        "name": "Omolgon Baatar",
        "country": "Mongolia",
        "province": "Ulaanbaatar",
        "population": -1,
        "latitude": 47.9,
        "longitude": 107
    },
    {
        "name": "Öldziyt",
        "country": "Mongolia",
        "province": "Sühbaatar",
        "population": -1,
        "latitude": 46.4,
        "longitude": 111.616667
    },
    {
        "name": "Uruzeito",
        "country": "Mongolia",
        "province": "Middle Govĭ",
        "population": -1,
        "latitude": 44.4,
        "longitude": 106.3
    },
    {
        "name": "Noyon Hutagtayn Hiid",
        "country": "Mongolia",
        "province": "Övörhangay",
        "population": -1,
        "latitude": 44.7666667,
        "longitude": 101.8166667
    },
    {
        "name": "Nomon Haan Lamaiin Hiid",
        "country": "Mongolia",
        "province": "Selenge",
        "population": -1,
        "latitude": 49.9166667,
        "longitude": 105.1166667
    },
    {
        "name": "Nalayh",
        "country": "Mongolia",
        "province": "Ulaanbaatar",
        "population": -1,
        "latitude": 47.7666667,
        "longitude": 107.2833333
    },
    {
        "name": "Moltsog Hiid",
        "country": "Mongolia",
        "province": "Sühbaatar",
        "population": -1,
        "latitude": 45.1666667,
        "longitude": 113.8
    },
    {
        "name": "Lamaiin Hiid",
        "country": "Mongolia",
        "province": "Orhon",
        "population": -1,
        "latitude": 49.0833333,
        "longitude": 104.0833333
    },
    {
        "name": "Lamaiin Gegeenii Hüryee",
        "country": "Mongolia",
        "province": "Bayanhongor",
        "population": -1,
        "latitude": 46.3,
        "longitude": 100.983333
    },
    {
        "name": "Jirgalantayn Suma",
        "country": "Mongolia",
        "province": "East Aimak",
        "population": -1,
        "latitude": 48.2166667,
        "longitude": 114.9
    },
    {
        "name": "Jaraahayn Örtöö",
        "country": "Mongolia",
        "province": "East Aimak",
        "population": -1,
        "latitude": 49.466667,
        "longitude": 114.133333
    },
    {
        "name": "Ihbulag",
        "country": "Mongolia",
        "province": "Sühbaatar",
        "population": -1,
        "latitude": 45.35,
        "longitude": 113.1333333
    },
    {
        "name": "Ibitseg",
        "country": "Mongolia",
        "province": "Selenge",
        "population": -1,
        "latitude": 50.0833333,
        "longitude": 106.6
    },
    {
        "name": "Hutag",
        "country": "Mongolia",
        "province": "Bulgan",
        "population": -1,
        "latitude": 49.395,
        "longitude": 102.693333
    },
    {
        "name": "Hushuu Hiid",
        "country": "Mongolia",
        "province": "Middle Govĭ",
        "population": -1,
        "latitude": 45.1666667,
        "longitude": 104.1166667
    },
    {
        "name": "Hurimta",
        "country": "Mongolia",
        "province": "Central Aimak",
        "population": -1,
        "latitude": 48.616667,
        "longitude": 106.3
    },
    {
        "name": "Khujirt",
        "country": "Mongolia",
        "province": "Övörhangay",
        "population": -1,
        "latitude": 46.897035300912016,
        "longitude": 102.7690315246582
    },
    {
        "name": "Hötöl Hiid",
        "country": "Mongolia",
        "province": "Middle Govĭ",
        "population": -1,
        "latitude": 44.683333,
        "longitude": 107.033333
    },
    {
        "name": "Hoolt",
        "country": "Mongolia",
        "province": "Övörhangay",
        "population": -1,
        "latitude": 45.533333,
        "longitude": 102.983333
    },
    {
        "name": "Hongor",
        "country": "Mongolia",
        "province": "East Gobi Aymag",
        "population": -1,
        "latitude": 45.8,
        "longitude": 111.2
    },
    {
        "name": "Höhöö",
        "country": "Mongolia",
        "province": "Khövsgöl Province",
        "population": -1,
        "latitude": 50.472778,
        "longitude": 100.927778
    },
    {
        "name": "Högnö",
        "country": "Mongolia",
        "province": "East Aimak",
        "population": -1,
        "latitude": 48.65,
        "longitude": 113.966667
    },
    {
        "name": "Hentiy",
        "country": "Mongolia",
        "province": "Hentiy",
        "population": -1,
        "latitude": 48.0833333,
        "longitude": 109.8166667
    },
    {
        "name": "Har-Ayrag",
        "country": "Mongolia",
        "province": "East Gobi Aymag",
        "population": -1,
        "latitude": 45.8,
        "longitude": 109.3166667
    },
    {
        "name": "Hantay",
        "country": "Mongolia",
        "province": "Bulgan",
        "population": -1,
        "latitude": 49.55,
        "longitude": 103.25
    },
    {
        "name": "Han-Oyuut",
        "country": "Mongolia",
        "province": "Arkhangai Province",
        "population": -1,
        "latitude": 48.4408333,
        "longitude": 101.5208333
    },
    {
        "name": "Halhaiin Süme",
        "country": "Mongolia",
        "province": "East Aimak",
        "population": -1,
        "latitude": 48,
        "longitude": 117.8
    },
    {
        "name": "Hadasan",
        "country": "Mongolia",
        "province": "Bulgan",
        "population": -1,
        "latitude": 47.8,
        "longitude": 103.8166667
    },
    {
        "name": "Galuut",
        "country": "Mongolia",
        "province": "East Aimak",
        "population": -1,
        "latitude": 48.5666667,
        "longitude": 113.2333333
    },
    {
        "name": "Ergel",
        "country": "Mongolia",
        "province": "East Gobi Aymag",
        "population": -1,
        "latitude": 43.15,
        "longitude": 109.133333
    },
    {
        "name": "Eren Suma",
        "country": "Mongolia",
        "province": "Middle Govĭ",
        "population": -1,
        "latitude": 45.9166667,
        "longitude": 108.4666667
    },
    {
        "name": "Engershand",
        "country": "Mongolia",
        "province": "Ulaanbaatar",
        "population": -1,
        "latitude": 47.8166667,
        "longitude": 107.1666667
    },
    {
        "name": "Dzüün Hüryee",
        "country": "Mongolia",
        "province": "Central Aimak",
        "population": -1,
        "latitude": 48,
        "longitude": 108.5
    },
    {
        "name": "Dzüün Choyroiin Hiid",
        "country": "Mongolia",
        "province": "Middle Govĭ",
        "population": -1,
        "latitude": 46.266667,
        "longitude": 108.116667
    },
    {
        "name": "Dzegstey",
        "country": "Mongolia",
        "province": "Arkhangai Province",
        "population": -1,
        "latitude": 47.66804624809708,
        "longitude": 102.54999160766602
    },
    {
        "name": "Turugen-hairuhan",
        "country": "Mongolia",
        "province": "Övörhangay",
        "population": -1,
        "latitude": 46.433333,
        "longitude": 103.05
    },
    {
        "name": "Delgerhet",
        "country": "Mongolia",
        "province": "East Gobi Aymag",
        "population": -1,
        "latitude": 45.8166667,
        "longitude": 110.45
    },
    {
        "name": "Darhan",
        "country": "Mongolia",
        "province": "Selenge",
        "population": -1,
        "latitude": 49.6166667,
        "longitude": 106.35
    },
    {
        "name": "Dalay",
        "country": "Mongolia",
        "province": "Ömnögovĭ",
        "population": -1,
        "latitude": 43.46787094300573,
        "longitude": 103.5128402709961
    },
    {
        "name": "Choyroiin Jisa Hiid",
        "country": "Mongolia",
        "province": "Middle Govĭ",
        "population": -1,
        "latitude": 46.2166667,
        "longitude": 106.0666667
    },
    {
        "name": "Choyr",
        "country": "Mongolia",
        "province": "Govĭ-Sumber",
        "population": -1,
        "latitude": 46.1333333,
        "longitude": 108.65
    },
    {
        "name": "Chonogol",
        "country": "Mongolia",
        "province": "Sühbaatar",
        "population": -1,
        "latitude": 45.9,
        "longitude": 115.366667
    },
    {
        "name": "Bayshinta Süme",
        "country": "Mongolia",
        "province": "Sühbaatar",
        "population": -1,
        "latitude": 45.716667,
        "longitude": 112.666667
    },
    {
        "name": "Bayasgalant",
        "country": "Mongolia",
        "province": "Sühbaatar",
        "population": -1,
        "latitude": 46.983333,
        "longitude": 112.05
    },
    {
        "name": "Bayan Mönhö Suma",
        "country": "Mongolia",
        "province": "East Gobi Aymag",
        "population": -1,
        "latitude": 45.066667,
        "longitude": 111.133333
    },
    {
        "name": "Bayan Dobo Suma",
        "country": "Mongolia",
        "province": "Middle Govĭ",
        "population": -1,
        "latitude": 44.55,
        "longitude": 107.2
    },
    {
        "name": "Bayan",
        "country": "Mongolia",
        "province": "East Gobi Aymag",
        "population": -1,
        "latitude": 46.25,
        "longitude": 110.166667
    },
    {
        "name": "Arigiin Hüryee",
        "country": "Mongolia",
        "province": "Khövsgöl Province",
        "population": -1,
        "latitude": 50.45,
        "longitude": 100.9
    },
    {
        "name": "Ara Jirgalanta Hiid",
        "country": "Mongolia",
        "province": "East Aimak",
        "population": -1,
        "latitude": 47.05,
        "longitude": 115.05
    },
    {
        "name": "Altanbulag",
        "country": "Mongolia",
        "province": "Selenge",
        "population": 500,
        "latitude": 50.315556,
        "longitude": 106.498611
    },
    {
        "name": "Agaruut",
        "country": "Mongolia",
        "province": "East Gobi Aymag",
        "population": -1,
        "latitude": 43.1666667,
        "longitude": 109.4333333
    },
    {
        "name": "Abarahaiin Hiid",
        "country": "Mongolia",
        "province": "East Gobi Aymag",
        "population": -1,
        "latitude": 45.766667,
        "longitude": 111.2
    },
    {
        "name": "Taylag Suma",
        "country": "Mongolia",
        "province": "Bayan-Ölgiy",
        "population": -1,
        "latitude": 47.25,
        "longitude": 90.9666667
    },
    {
        "name": "Suoku",
        "country": "Mongolia",
        "province": "Bayan-Ölgiy",
        "population": -1,
        "latitude": 49.383333,
        "longitude": 89
    },
    {
        "name": "Narabanchinii Hüryee",
        "country": "Mongolia",
        "province": "Govi-Altai Province",
        "population": -1,
        "latitude": 46.7,
        "longitude": 96.833333
    },
    {
        "name": "Hasagt",
        "country": "Mongolia",
        "province": "Govi-Altai Province",
        "population": -1,
        "latitude": 46.55,
        "longitude": 95.6666667
    },
    {
        "name": "Buyanbat",
        "country": "Mongolia",
        "province": "Govi-Altai Province",
        "population": -1,
        "latitude": 46.97837846572262,
        "longitude": 95.92532157897949
    },
    {
        "name": "Bürenhayrhan",
        "country": "Mongolia",
        "province": "Hovd",
        "population": -1,
        "latitude": 46.09237,
        "longitude": 91.54796
    },
    {
        "name": "Bürenhaan",
        "country": "Mongolia",
        "province": "Khövsgöl Province",
        "population": -1,
        "latitude": 49.500833,
        "longitude": 99.156667
    },
    {
        "name": "Boro Burgaasa",
        "country": "Mongolia",
        "province": "Bayan-Ölgiy",
        "population": -1,
        "latitude": 49.2,
        "longitude": 89.2
    },
    {
        "name": "Bilüü",
        "country": "Mongolia",
        "province": "Bayan-Ölgiy",
        "population": -1,
        "latitude": 49.04371938712366,
        "longitude": 89.43798065185547
    },
    {
        "name": "Balgatay",
        "country": "Mongolia",
        "province": "Dzabkhan",
        "population": -1,
        "latitude": 46.9,
        "longitude": 97.15
    },
    {
        "name": "Amar Buyantayn Hüryee",
        "country": "Mongolia",
        "province": "Bayanhongor",
        "population": -1,
        "latitude": 44.616667,
        "longitude": 98.7
    },
    {
        "name": "Bor-Öndör",
        "country": "Mongolia",
        "province": "Hentiy",
        "population": -1,
        "latitude": 46.26712153493066,
        "longitude": 109.43824768066406
    },
    {
        "name": "Hötöl",
        "country": "Mongolia",
        "province": "Selenge",
        "population": -1,
        "latitude": 49.095901776531434,
        "longitude": 105.5592155456543
    },
    {
        "name": "Jargalant",
        "country": "Mongolia",
        "province": "Orhon",
        "population": -1,
        "latitude": 49.0566576309837,
        "longitude": 104.401702880859
    },
    {
        "name": "Uylgaiin Dugang",
        "country": "Mongolia",
        "province": "Selenge",
        "population": -1,
        "latitude": 49.8166667,
        "longitude": 107.7333333
    },
    {
        "name": "Üydzen",
        "country": "Mongolia",
        "province": "Ömnögovĭ",
        "population": -1,
        "latitude": 44.082159560468,
        "longitude": 106.869850158691
    },
    {
        "name": "Uubulan",
        "country": "Mongolia",
        "province": "Arkhangai Province",
        "population": -1,
        "latitude": 48.608851934845234,
        "longitude": 101.93424224853516
    },
    {
        "name": "Ulaanjirem",
        "country": "Mongolia",
        "province": "Middle Govĭ",
        "population": -1,
        "latitude": 45.05,
        "longitude": 105.566667
    },
    {
        "name": "Ulaan Ergiin Hural",
        "country": "Mongolia",
        "province": "Ömnögovĭ",
        "population": -1,
        "latitude": 42.2725,
        "longitude": 105.1963889
    },
    {
        "name": "Ulaan-Ereg",
        "country": "Mongolia",
        "province": "Hentiy",
        "population": -1,
        "latitude": 46.9,
        "longitude": 109.75
    },
    {
        "name": "Ugtamiin Hiid",
        "country": "Mongolia",
        "province": "East Aimak",
        "population": -1,
        "latitude": 49.3,
        "longitude": 113.7833333
    },
    {
        "name": "Üdlegiin Dugang",
        "country": "Mongolia",
        "province": "Central Aimak",
        "population": -1,
        "latitude": 48.283333,
        "longitude": 106.816667
    },
    {
        "name": "Tushaalta Hiid",
        "country": "Mongolia",
        "province": "Arkhangai Province",
        "population": -1,
        "latitude": 47.0666667,
        "longitude": 101.0333333
    },
    {
        "name": "Tugiin Süme",
        "country": "Mongolia",
        "province": "East Aimak",
        "population": -1,
        "latitude": 47.983333,
        "longitude": 113.416667
    },
    {
        "name": "Tsoohoriin-Hural",
        "country": "Mongolia",
        "province": "Arkhangai Province",
        "population": -1,
        "latitude": 47.5,
        "longitude": 102.8833333
    },
    {
        "name": "Tsoohoriin Hiid",
        "country": "Mongolia",
        "province": "Central Aimak",
        "population": -1,
        "latitude": 47.35,
        "longitude": 105.2
    },
    {
        "name": "Tsoohor",
        "country": "Mongolia",
        "province": "Ömnögovĭ",
        "population": -1,
        "latitude": 43.306567899933356,
        "longitude": 104.07417297363281
    },
    {
        "name": "Tsogtchandmanĭ",
        "country": "Mongolia",
        "province": "Middle Govĭ",
        "population": -1,
        "latitude": 45.866667,
        "longitude": 104.466667
    },
    {
        "name": "Tsenher",
        "country": "Mongolia",
        "province": "Arkhangai Province",
        "population": -1,
        "latitude": 47.2166667,
        "longitude": 101.75
    },
    {
        "name": "Tsahir Jisa Hiid",
        "country": "Mongolia",
        "province": "Middle Govĭ",
        "population": -1,
        "latitude": 46.366667,
        "longitude": 106.35
    },
    {
        "name": "Tsahiriin Jisa",
        "country": "Mongolia",
        "province": "Middle Govĭ",
        "population": -1,
        "latitude": 46.5333333,
        "longitude": 106.3833333
    },
    {
        "name": "Tsagaan Toyrimiin Hiid",
        "country": "Mongolia",
        "province": "Central Aimak",
        "population": -1,
        "latitude": 46.85,
        "longitude": 104.6
    },
    {
        "name": "Tsagaan Tologoy",
        "country": "Mongolia",
        "province": "Bayanhongor",
        "population": -1,
        "latitude": 44.5333333,
        "longitude": 100.7
    },
    {
        "name": "Tsagaan Subarga Hural",
        "country": "Mongolia",
        "province": "Ömnögovĭ",
        "population": -1,
        "latitude": 43.6008333,
        "longitude": 102.1922222
    },
    {
        "name": "Tsagaan-Ovoo",
        "country": "Mongolia",
        "province": "Övörhangay",
        "population": -1,
        "latitude": 45.9640381228458,
        "longitude": 101.459770202637
    },
    {
        "name": "Tsagaan-Ovoo",
        "country": "Mongolia",
        "province": "Middle Govĭ",
        "population": -1,
        "latitude": 45.5071890331844,
        "longitude": 105.75593948364258
    },
    {
        "name": "Tsagaan Hudagiin Hiid",
        "country": "Mongolia",
        "province": "Sühbaatar",
        "population": -1,
        "latitude": 45.5,
        "longitude": 112.75
    },
    {
        "name": "Tsagaan Ergin Hiid",
        "country": "Mongolia",
        "province": "Middle Govĭ",
        "population": -1,
        "latitude": 46.25,
        "longitude": 107.7333333
    },
    {
        "name": "Tsabchiriin Hural",
        "country": "Mongolia",
        "province": "East Gobi Aymag",
        "population": -1,
        "latitude": 43.35,
        "longitude": 108.0666667
    },
    {
        "name": "Tsabchiriin Hiid",
        "country": "Mongolia",
        "province": "Middle Govĭ",
        "population": -1,
        "latitude": 45.65,
        "longitude": 104.7666667
    },
    {
        "name": "Toyrim",
        "country": "Mongolia",
        "province": "Middle Govĭ",
        "population": -1,
        "latitude": 46.0333333,
        "longitude": 106.6333333
    },
    {
        "name": "Töhöm",
        "country": "Mongolia",
        "province": "East Gobi Aymag",
        "population": -1,
        "latitude": 44.4,
        "longitude": 108.25
    },
    {
        "name": "Tödögteyn Suma",
        "country": "Mongolia",
        "province": "Hentiy",
        "population": -1,
        "latitude": 46.75,
        "longitude": 111.3
    },
    {
        "name": "Teel",
        "country": "Mongolia",
        "province": "Arkhangai Province",
        "population": -1,
        "latitude": 48.046389,
        "longitude": 100.509167
    },
    {
        "name": "Tabuy Modonii Hural",
        "country": "Mongolia",
        "province": "East Gobi Aymag",
        "population": -1,
        "latitude": 42.5,
        "longitude": 109.35
    },
    {
        "name": "Tabin Jisa",
        "country": "Mongolia",
        "province": "Middle Govĭ",
        "population": -1,
        "latitude": 46.4166667,
        "longitude": 105.7666667
    },
    {
        "name": "Süüjiin Örtöö",
        "country": "Mongolia",
        "province": "East Aimak",
        "population": -1,
        "latitude": 47.833333,
        "longitude": 114.8
    },
    {
        "name": "Süüji Hiid",
        "country": "Mongolia",
        "province": "East Gobi Aymag",
        "population": -1,
        "latitude": 42.9,
        "longitude": 109.6
    },
    {
        "name": "Dashinchilling",
        "country": "Mongolia",
        "province": "Bulgan",
        "population": -1,
        "latitude": 47.85,
        "longitude": 104.05
    },
    {
        "name": "Suugaant",
        "country": "Mongolia",
        "province": "Middle Govĭ",
        "population": -1,
        "latitude": 45.5325673874825,
        "longitude": 107.045459747314
    },
    {
        "name": "Sümiyn Bulag",
        "country": "Mongolia",
        "province": "East Aimak",
        "population": -1,
        "latitude": 49.133333,
        "longitude": 114.883333
    },
    {
        "name": "Sört",
        "country": "Mongolia",
        "province": "Bulgan",
        "population": -1,
        "latitude": 49.317513356758184,
        "longitude": 104.38196182250977
    },
    {
        "name": "Shubuutayn Dugang",
        "country": "Mongolia",
        "province": "Selenge",
        "population": -1,
        "latitude": 49.3333333,
        "longitude": 104.75
    },
    {
        "name": "Shoroytoyn Jisa",
        "country": "Mongolia",
        "province": "Middle Govĭ",
        "population": -1,
        "latitude": 46.4,
        "longitude": 105.25
    },
    {
        "name": "Shireeteyn Hiid",
        "country": "Mongolia",
        "province": "Ömnögovĭ",
        "population": -1,
        "latitude": 43.5666667,
        "longitude": 106.0166667
    },
    {
        "name": "Shireet",
        "country": "Mongolia",
        "province": "Sühbaatar",
        "population": -1,
        "latitude": 45.72727377526009,
        "longitude": 112.35563278198242
    },
    {
        "name": "Shine Shabaiin Jisa",
        "country": "Mongolia",
        "province": "Middle Govĭ",
        "population": -1,
        "latitude": 46.2833333,
        "longitude": 105.8666667
    },
    {
        "name": "Shatsaiin Dugang",
        "country": "Mongolia",
        "province": "Arkhangai Province",
        "population": -1,
        "latitude": 47.85,
        "longitude": 100.8333333
    },
    {
        "name": "Sharga",
        "country": "Mongolia",
        "province": "Bulgan",
        "population": -1,
        "latitude": 49.04191901681832,
        "longitude": 102.08925247192383
    },
    {
        "name": "Shara-Höbiin-Dugang",
        "country": "Mongolia",
        "province": "Ulaanbaatar",
        "population": -1,
        "latitude": 47.883333,
        "longitude": 106.6
    },
    {
        "name": "Shanh",
        "country": "Mongolia",
        "province": "Övörhangay",
        "population": -1,
        "latitude": 47.05,
        "longitude": 102.95
    },
    {
        "name": "Sergelen",
        "country": "Mongolia",
        "province": "Sühbaatar",
        "population": -1,
        "latitude": 46.2,
        "longitude": 111.816667
    },
    {
        "name": "Selenge",
        "country": "Mongolia",
        "province": "Khövsgöl Province",
        "population": -1,
        "latitude": 49.433333,
        "longitude": 101.466667
    },
    {
        "name": "Sayriin Hashaatayn Süme",
        "country": "Mongolia",
        "province": "Övörhangay",
        "population": -1,
        "latitude": 44.583333,
        "longitude": 102.916667
    },
    {
        "name": "Saynshand",
        "country": "Mongolia",
        "province": "Ömnögovĭ",
        "population": -1,
        "latitude": 43.616667,
        "longitude": 102.533333
    },
    {
        "name": "Sayn Hudagiin Hiid",
        "country": "Mongolia",
        "province": "Sühbaatar",
        "population": -1,
        "latitude": 44.8833333,
        "longitude": 113.4666667
    },
    {
        "name": "Sangiyn Dalay",
        "country": "Mongolia",
        "province": "Övörhangay",
        "population": -1,
        "latitude": 46.65,
        "longitude": 103.316667
    },
    {
        "name": "Rashaant",
        "country": "Mongolia",
        "province": "Khövsgöl Province",
        "population": -1,
        "latitude": 49.126667,
        "longitude": 101.428056
    },
    {
        "name": "Övör-Ereen",
        "country": "Mongolia",
        "province": "East Aimak",
        "population": -1,
        "latitude": 49.27329289319553,
        "longitude": 112.4919319152832
    },
    {
        "name": "Ovoot",
        "country": "Mongolia",
        "province": "Sühbaatar",
        "population": -1,
        "latitude": 45.30423304421709,
        "longitude": 113.84977340698242
    },
    {
        "name": "Orhontuul",
        "country": "Mongolia",
        "province": "Selenge",
        "population": -1,
        "latitude": 48.949722,
        "longitude": 104.975833
    },
    {
        "name": "Onon",
        "country": "Mongolia",
        "province": "Hentiy",
        "population": -1,
        "latitude": 48.616667,
        "longitude": 110.6
    },
    {
        "name": "Undzhul",
        "country": "Mongolia",
        "province": "Central Aimak",
        "population": -1,
        "latitude": 46.783333,
        "longitude": 105.566667
    },
    {
        "name": "Ongi",
        "country": "Mongolia",
        "province": "Övörhangay",
        "population": -1,
        "latitude": 46.466667,
        "longitude": 102.283333
    },
    {
        "name": "Ongi",
        "country": "Mongolia",
        "province": "Middle Govĭ",
        "population": -1,
        "latitude": 45.45,
        "longitude": 103.9
    },
    {
        "name": "Öndör Maydariin Hiid",
        "country": "Mongolia",
        "province": "Sühbaatar",
        "population": -1,
        "latitude": 47.15,
        "longitude": 112.4
    },
    {
        "name": "Öldziyt",
        "country": "Mongolia",
        "province": "Arkhangai Province",
        "population": -1,
        "latitude": 48.52842870533195,
        "longitude": 101.37393951416016
    },
    {
        "name": "Öldziyt",
        "country": "Mongolia",
        "province": "East Gobi Aymag",
        "population": -1,
        "latitude": 44.683333,
        "longitude": 109.016667
    },
    {
        "name": "Öldzey Delgerehe Suma",
        "country": "Mongolia",
        "province": "Middle Govĭ",
        "population": -1,
        "latitude": 45.533333,
        "longitude": 104.516667
    },
    {
        "name": "Oldoho Hiid",
        "country": "Mongolia",
        "province": "Middle Govĭ",
        "population": -1,
        "latitude": 44.8166667,
        "longitude": 105.4
    },
    {
        "name": "Ochir Wangiin Dugang",
        "country": "Mongolia",
        "province": "Arkhangai Province",
        "population": -1,
        "latitude": 48.0666667,
        "longitude": 101.0333333
    },
    {
        "name": "Öbör Urtaiin Örtöö",
        "country": "Mongolia",
        "province": "East Aimak",
        "population": -1,
        "latitude": 47.583333,
        "longitude": 114.083333
    },
    {
        "name": "Obooto Hural",
        "country": "Mongolia",
        "province": "Ömnögovĭ",
        "population": -1,
        "latitude": 42.9666667,
        "longitude": 101.5
    },
    {
        "name": "Nüdengiin Hural",
        "country": "Mongolia",
        "province": "East Gobi Aymag",
        "population": -1,
        "latitude": 45.983333,
        "longitude": 110.1
    },
    {
        "name": "Nüden",
        "country": "Mongolia",
        "province": "East Gobi Aymag",
        "population": -1,
        "latitude": 43.583333,
        "longitude": 110.466667
    },
    {
        "name": "Noyotoyn Süme",
        "country": "Mongolia",
        "province": "Central Aimak",
        "population": -1,
        "latitude": 47.283333,
        "longitude": 105.4
    },
    {
        "name": "Norboiin Salbari Horshoo",
        "country": "Mongolia",
        "province": "Ömnögovĭ",
        "population": -1,
        "latitude": 43.8722222,
        "longitude": 103.6297222
    },
    {
        "name": "Nilga Suma",
        "country": "Mongolia",
        "province": "Central Aimak",
        "population": -1,
        "latitude": 46.9666667,
        "longitude": 108.3
    },
    {
        "name": "Naringiin Örtöö",
        "country": "Mongolia",
        "province": "Hentiy",
        "population": -1,
        "latitude": 47.7,
        "longitude": 110.55
    },
    {
        "name": "Narasatayn Oros",
        "country": "Mongolia",
        "province": "Selenge",
        "population": -1,
        "latitude": 48.7,
        "longitude": 106.75
    },
    {
        "name": "Naranbulag",
        "country": "Mongolia",
        "province": "East Aimak",
        "population": -1,
        "latitude": 49.243603762131194,
        "longitude": 113.37427139282227
    },
    {
        "name": "Namnang Suma",
        "country": "Mongolia",
        "province": "Bulgan",
        "population": -1,
        "latitude": 49.383333,
        "longitude": 102.333333
    },
    {
        "name": "Mörön",
        "country": "Mongolia",
        "province": "Arkhangai Province",
        "population": -1,
        "latitude": 48.264444,
        "longitude": 100.374167
    },
    {
        "name": "Moroks Shoroo Ayl",
        "country": "Mongolia",
        "province": "East Aimak",
        "population": -1,
        "latitude": 47.2666667,
        "longitude": 119.0666667
    },
    {
        "name": "Moltsog Suma",
        "country": "Mongolia",
        "province": "Sühbaatar",
        "population": -1,
        "latitude": 45.3333333,
        "longitude": 113.6666667
    },
    {
        "name": "Modot",
        "country": "Mongolia",
        "province": "Hentiy",
        "population": -1,
        "latitude": 47.75,
        "longitude": 109.05
    },
    {
        "name": "Mingat Süme",
        "country": "Mongolia",
        "province": "Middle Govĭ",
        "population": -1,
        "latitude": 45.45,
        "longitude": 105.083333
    },
    {
        "name": "Mardzad",
        "country": "Mongolia",
        "province": "Övörhangay",
        "population": -1,
        "latitude": 45.95,
        "longitude": 102.05
    },
    {
        "name": "Manhan",
        "country": "Mongolia",
        "province": "Khövsgöl Province",
        "population": -1,
        "latitude": 50.121389,
        "longitude": 100.043056
    },
    {
        "name": "Mandal Suma",
        "country": "Mongolia",
        "province": "Hentiy",
        "population": -1,
        "latitude": 46.45,
        "longitude": 109.8666667
    },
    {
        "name": "Mandaliin Hüryee",
        "country": "Mongolia",
        "province": "Hentiy",
        "population": -1,
        "latitude": 47.816667,
        "longitude": 110.116667
    },
    {
        "name": "Mandaliin Hiid",
        "country": "Mongolia",
        "province": "Sühbaatar",
        "population": -1,
        "latitude": 46.6333333,
        "longitude": 113.1333333
    },
    {
        "name": "Dzüünkharaa",
        "country": "Mongolia",
        "province": "Selenge",
        "population": -1,
        "latitude": 48.633333,
        "longitude": 106.733333
    },
    {
        "name": "Mandal",
        "country": "Mongolia",
        "province": "Central Aimak",
        "population": -1,
        "latitude": 48.370619630298435,
        "longitude": 106.74076080322266
    },
    {
        "name": "Maanĭt",
        "country": "Mongolia",
        "province": "Central Aimak",
        "population": -1,
        "latitude": 47.25,
        "longitude": 107.533333
    },
    {
        "name": "Luusiin Hural",
        "country": "Mongolia",
        "province": "Middle Govĭ",
        "population": -1,
        "latitude": 45.2166667,
        "longitude": 105.5666667
    },
    {
        "name": "Lün",
        "country": "Mongolia",
        "province": "Central Aimak",
        "population": -1,
        "latitude": 47.866667,
        "longitude": 105.25
    },
    {
        "name": "Lün",
        "country": "Mongolia",
        "province": "Arkhangai Province",
        "population": -1,
        "latitude": 47.4,
        "longitude": 102.866667
    },
    {
        "name": "Lamaiin Jisa",
        "country": "Mongolia",
        "province": "Middle Govĭ",
        "population": -1,
        "latitude": 46.4166667,
        "longitude": 108.0833333
    },
    {
        "name": "Lamaiin Hiid",
        "country": "Mongolia",
        "province": "Hentiy",
        "population": -1,
        "latitude": 47.5833333,
        "longitude": 111.5
    },
    {
        "name": "Jisa Hural",
        "country": "Mongolia",
        "province": "East Gobi Aymag",
        "population": -1,
        "latitude": 46.1666667,
        "longitude": 109.05
    },
    {
        "name": "Jirgalanta",
        "country": "Mongolia",
        "province": "Central Aimak",
        "population": -1,
        "latitude": 47.1666667,
        "longitude": 106.6833333
    },
    {
        "name": "Javarthushuu",
        "country": "Mongolia",
        "province": "East Aimak",
        "population": -1,
        "latitude": 49.15,
        "longitude": 112.733333
    },
    {
        "name": "Ingettolgoy",
        "country": "Mongolia",
        "province": "Bulgan",
        "population": -1,
        "latitude": 49.461667,
        "longitude": 103.974167
    },
    {
        "name": "Ihbulag",
        "country": "Mongolia",
        "province": "Ömnögovĭ",
        "population": -1,
        "latitude": 43.2,
        "longitude": 107.2
    },
    {
        "name": "Huyhaiin Jisaiin Hural",
        "country": "Mongolia",
        "province": "Hentiy",
        "population": -1,
        "latitude": 46.3,
        "longitude": 109.55
    },
    {
        "name": "Hüremt",
        "country": "Mongolia",
        "province": "Bulgan",
        "population": -1,
        "latitude": 48.663056,
        "longitude": 102.622778
    },
    {
        "name": "Hüremt",
        "country": "Mongolia",
        "province": "Övörhangay",
        "population": -1,
        "latitude": 46.3024142007246,
        "longitude": 102.44553565979004
    },
    {
        "name": "Huraiin Süme",
        "country": "Mongolia",
        "province": "Hentiy",
        "population": -1,
        "latitude": 46.716667,
        "longitude": 110.583333
    },
    {
        "name": "Hunta Suma",
        "country": "Mongolia",
        "province": "East Aimak",
        "population": -1,
        "latitude": 47.1333333,
        "longitude": 117.4666667
    },
    {
        "name": "Hündelengiin Shüteen",
        "country": "Mongolia",
        "province": "Hentiy",
        "population": -1,
        "latitude": 47.533333,
        "longitude": 110.3
    },
    {
        "name": "Hujirta",
        "country": "Mongolia",
        "province": "East Aimak",
        "population": -1,
        "latitude": 49.3666667,
        "longitude": 112.7
    },
    {
        "name": "Hujirt",
        "country": "Mongolia",
        "province": "Central Aimak",
        "population": -1,
        "latitude": 46.6,
        "longitude": 104.583333
    },
    {
        "name": "Hudagiin Hiid",
        "country": "Mongolia",
        "province": "Sühbaatar",
        "population": -1,
        "latitude": 44.95,
        "longitude": 113.5
    },
    {
        "name": "Noyon Suma",
        "country": "Mongolia",
        "province": "Ömnögovĭ",
        "population": -1,
        "latitude": 43.173611,
        "longitude": 102.131944
    },
    {
        "name": "Hövsgöl",
        "country": "Mongolia",
        "province": "East Gobi Aymag",
        "population": -1,
        "latitude": 43.606389,
        "longitude": 109.638056
    },
    {
        "name": "Hovd",
        "country": "Mongolia",
        "province": "Övörhangay",
        "population": -1,
        "latitude": 44.666667,
        "longitude": 102.383333
    },
    {
        "name": "Höshöö Süme",
        "country": "Mongolia",
        "province": "East Aimak",
        "population": -1,
        "latitude": 47.3,
        "longitude": 119.05
    },
    {
        "name": "Höshöö Ergetsegiin Suurin",
        "country": "Mongolia",
        "province": "Hentiy",
        "population": -1,
        "latitude": 46.966667,
        "longitude": 109.233333
    },
    {
        "name": "Horiult",
        "country": "Mongolia",
        "province": "Bayanhongor",
        "population": -1,
        "latitude": 45.2,
        "longitude": 100.766667
    },
    {
        "name": "Bayan Uula Sumu",
        "country": "Mongolia",
        "province": "Övörhangay",
        "population": -1,
        "latitude": 45.166667,
        "longitude": 101.4
    },
    {
        "name": "Hongor Uula Suma",
        "country": "Mongolia",
        "province": "Sühbaatar",
        "population": -1,
        "latitude": 45.35,
        "longitude": 113.15
    },
    {
        "name": "Hongor Suma",
        "country": "Mongolia",
        "province": "East Gobi Aymag",
        "population": -1,
        "latitude": 45.983333,
        "longitude": 108.833333
    },
    {
        "name": "Hongor Oboo Suma",
        "country": "Mongolia",
        "province": "Ömnögovĭ",
        "population": -1,
        "latitude": 43.4666667,
        "longitude": 103.5
    },
    {
        "name": "Hongoriin Hoyolin Hural",
        "country": "Mongolia",
        "province": "East Gobi Aymag",
        "population": -1,
        "latitude": 45.8333333,
        "longitude": 109.4666667
    },
    {
        "name": "Hongor",
        "country": "Mongolia",
        "province": "Sühbaatar",
        "population": -1,
        "latitude": 45.7833333,
        "longitude": 112.7333333
    },
    {
        "name": "Hitiin Bayshing",
        "country": "Mongolia",
        "province": "Selenge",
        "population": -1,
        "latitude": 49.75,
        "longitude": 105.5666667
    },
    {
        "name": "Hirang",
        "country": "Mongolia",
        "province": "Selenge",
        "population": -1,
        "latitude": 50.2833333,
        "longitude": 106.6
    },
    {
        "name": "Hilbariin Hiid",
        "country": "Mongolia",
        "province": "Hentiy",
        "population": -1,
        "latitude": 49.1833333,
        "longitude": 111.4333333
    },
    {
        "name": "Hereleng Dugang",
        "country": "Mongolia",
        "province": "Central Aimak",
        "population": -1,
        "latitude": 48.35,
        "longitude": 108.9666667
    },
    {
        "name": "Hebtelüy Süme",
        "country": "Mongolia",
        "province": "Middle Govĭ",
        "population": -1,
        "latitude": 45.45,
        "longitude": 105.2
    },
    {
        "name": "Hayrhan Suma",
        "country": "Mongolia",
        "province": "Bulgan",
        "population": -1,
        "latitude": 48.3,
        "longitude": 103.3833333
    },
    {
        "name": "Haylaastay",
        "country": "Mongolia",
        "province": "Sühbaatar",
        "population": -1,
        "latitude": 46.770759,
        "longitude": 113.882476
    },
    {
        "name": "Haylaasatayn Süme",
        "country": "Mongolia",
        "province": "Sühbaatar",
        "population": -1,
        "latitude": 46.883333,
        "longitude": 113.95
    },
    {
        "name": "Havirga",
        "country": "Mongolia",
        "province": "Sühbaatar",
        "population": -1,
        "latitude": 45.666667,
        "longitude": 113.083333
    },
    {
        "name": "Hatabchin Hiid",
        "country": "Mongolia",
        "province": "Sühbaatar",
        "population": -1,
        "latitude": 46.1666667,
        "longitude": 112.9666667
    },
    {
        "name": "Hashaatayn Hural",
        "country": "Mongolia",
        "province": "East Gobi Aymag",
        "population": -1,
        "latitude": 46.25,
        "longitude": 109.9166667
    },
    {
        "name": "Hashaat",
        "country": "Mongolia",
        "province": "Middle Govĭ",
        "population": -1,
        "latitude": 45.2432282279829,
        "longitude": 104.80510711669922
    },
    {
        "name": "Haryaata Suma",
        "country": "Mongolia",
        "province": "Sühbaatar",
        "population": -1,
        "latitude": 46.2166667,
        "longitude": 112.8
    },
    {
        "name": "Orhon",
        "country": "Mongolia",
        "province": "Darhan Uul",
        "population": -1,
        "latitude": 49.8325,
        "longitude": 106.136389
    },
    {
        "name": "Hardzatayn Dugang",
        "country": "Mongolia",
        "province": "Övörhangay",
        "population": -1,
        "latitude": 46.5833333,
        "longitude": 104
    },
    {
        "name": "Hardzanii Hiid",
        "country": "Mongolia",
        "province": "Hentiy",
        "population": -1,
        "latitude": 48.25,
        "longitude": 111.7166667
    },
    {
        "name": "Hamariin Hural",
        "country": "Mongolia",
        "province": "East Gobi Aymag",
        "population": -1,
        "latitude": 44.5833333,
        "longitude": 110.3
    },
    {
        "name": "Halha Horoo",
        "country": "Mongolia",
        "province": "East Aimak",
        "population": -1,
        "latitude": 46.6666667,
        "longitude": 117.2
    },
    {
        "name": "Hadaiin Lamaiin Dugang",
        "country": "Mongolia",
        "province": "Selenge",
        "population": -1,
        "latitude": 49.8333333,
        "longitude": 106.5833333
    },
    {
        "name": "Habhagtayn Hiid",
        "country": "Mongolia",
        "province": "Sühbaatar",
        "population": -1,
        "latitude": 47.1166667,
        "longitude": 111.8
    },
    {
        "name": "Habchil Örtöö",
        "country": "Mongolia",
        "province": "Ömnögovĭ",
        "population": -1,
        "latitude": 43.416667,
        "longitude": 104.300833
    },
    {
        "name": "Gurban Bayan Suma",
        "country": "Mongolia",
        "province": "Hentiy",
        "population": -1,
        "latitude": 48.4333333,
        "longitude": 112.25
    },
    {
        "name": "Günnariyn",
        "country": "Mongolia",
        "province": "Övörhangay",
        "population": -1,
        "latitude": 45.633333,
        "longitude": 102.016667
    },
    {
        "name": "Gol Daychin Choyro Hiid",
        "country": "Mongolia",
        "province": "Hentiy",
        "population": -1,
        "latitude": 46.9666667,
        "longitude": 109.5
    },
    {
        "name": "Godoli Balgasanii Hiid",
        "country": "Mongolia",
        "province": "Ömnögovĭ",
        "population": -1,
        "latitude": 43.3333333,
        "longitude": 104.7333333
    },
    {
        "name": "Gindeliin Hüryee",
        "country": "Mongolia",
        "province": "Central Aimak",
        "population": -1,
        "latitude": 47.45,
        "longitude": 105.816667
    },
    {
        "name": "Gal Badaraha Suma",
        "country": "Mongolia",
        "province": "Central Aimak",
        "population": -1,
        "latitude": 48.2,
        "longitude": 104.7
    },
    {
        "name": "Erhet",
        "country": "Mongolia",
        "province": "Bulgan",
        "population": -1,
        "latitude": 48.27393926940438,
        "longitude": 102.98120498657227
    },
    {
        "name": "Ereencav",
        "country": "Mongolia",
        "province": "East Aimak",
        "population": 23,
        "latitude": 49.880698870001915,
        "longitude": 115.72525978088379
    },
    {
        "name": "Erdeni Wangiin Hüryee",
        "country": "Mongolia",
        "province": "Selenge",
        "population": -1,
        "latitude": 49.916667,
        "longitude": 105.416667
    },
    {
        "name": "Erdeni Guunii Hiid",
        "country": "Mongolia",
        "province": "East Aimak",
        "population": -1,
        "latitude": 48.3666667,
        "longitude": 112.6166667
    },
    {
        "name": "Erdenebulgan",
        "country": "Mongolia",
        "province": "Khövsgöl Province",
        "population": -1,
        "latitude": 50.109444,
        "longitude": 101.575278
    },
    {
        "name": "Elesenii Tsagaan Oboo Hural",
        "country": "Mongolia",
        "province": "East Gobi Aymag",
        "population": -1,
        "latitude": 43.3666667,
        "longitude": 110.75
    },
    {
        "name": "Dzüünbulag",
        "country": "Mongolia",
        "province": "East Aimak",
        "population": -1,
        "latitude": 46.95342605504743,
        "longitude": 115.29396057128906
    },
    {
        "name": "Dzüünbulag",
        "country": "Mongolia",
        "province": "Sühbaatar",
        "population": -1,
        "latitude": 46.383333,
        "longitude": 112.183333
    },
    {
        "name": "Te-tsu-pan",
        "country": "Mongolia",
        "province": "East Gobi Aymag",
        "population": -1,
        "latitude": 44.496106,
        "longitude": 110.04568
    },
    {
        "name": "Dzalaata",
        "country": "Mongolia",
        "province": "East Gobi Aymag",
        "population": -1,
        "latitude": 44.3166667,
        "longitude": 107.9
    },
    {
        "name": "Dzagiin Jisa Hiid",
        "country": "Mongolia",
        "province": "Middle Govĭ",
        "population": -1,
        "latitude": 45.7833333,
        "longitude": 106.25
    },
    {
        "name": "Dzabilgaiin Hiid",
        "country": "Mongolia",
        "province": "Hentiy",
        "population": -1,
        "latitude": 47.3,
        "longitude": 109.7833333
    },
    {
        "name": "Dzaanhoshuu",
        "country": "Mongolia",
        "province": "Arkhangai Province",
        "population": -1,
        "latitude": 47.4933127049955,
        "longitude": 100.878009796143
    },
    {
        "name": "Duraliin Hiid",
        "country": "Mongolia",
        "province": "Middle Govĭ",
        "population": -1,
        "latitude": 46.0833333,
        "longitude": 107.4833333
    },
    {
        "name": "Dundbürd",
        "country": "Mongolia",
        "province": "Hentiy",
        "population": -1,
        "latitude": 47.945901448095746,
        "longitude": 111.49784088134766
    },
    {
        "name": "Dumda Bayan Suma",
        "country": "Mongolia",
        "province": "Hentiy",
        "population": -1,
        "latitude": 48.3833333,
        "longitude": 110.3
    },
    {
        "name": "Dulaanhaan",
        "country": "Mongolia",
        "province": "Darhan Uul",
        "population": -1,
        "latitude": 49.915,
        "longitude": 106.1866667
    },
    {
        "name": "Dörbön Derite Örtöö",
        "country": "Mongolia",
        "province": "Ömnögovĭ",
        "population": -1,
        "latitude": 44.383333,
        "longitude": 104.533333
    },
    {
        "name": "Doloo Sharadzagiin Süme",
        "country": "Mongolia",
        "province": "Ömnögovĭ",
        "population": -1,
        "latitude": 42.966667,
        "longitude": 106.116667
    },
    {
        "name": "Deresenii Usanii Hiid",
        "country": "Mongolia",
        "province": "East Gobi Aymag",
        "population": -1,
        "latitude": 46.3333333,
        "longitude": 110.0333333
    },
    {
        "name": "Deresen Hashaatayn Hiid",
        "country": "Mongolia",
        "province": "Sühbaatar",
        "population": -1,
        "latitude": 46.8333333,
        "longitude": 113.6666667
    },
    {
        "name": "Dashbalbar",
        "country": "Mongolia",
        "province": "East Aimak",
        "population": -1,
        "latitude": 49.54570674101651,
        "longitude": 114.40286636352539
    },
    {
        "name": "Dara Eheiin Dugang",
        "country": "Mongolia",
        "province": "Selenge",
        "population": -1,
        "latitude": 49.7333333,
        "longitude": 106.7
    },
    {
        "name": "Dalayn Hiid",
        "country": "Mongolia",
        "province": "East Gobi Aymag",
        "population": -1,
        "latitude": 44.3333333,
        "longitude": 110.75
    },
    {
        "name": "Dabasan Suma",
        "country": "Mongolia",
        "province": "East Aimak",
        "population": -1,
        "latitude": 48.4666667,
        "longitude": 114.7666667
    },
    {
        "name": "Daaga Yarimpil Hiid",
        "country": "Mongolia",
        "province": "Central Aimak",
        "population": -1,
        "latitude": 47.6833333,
        "longitude": 106.05
    },
    {
        "name": "Buyantayn Hural",
        "country": "Mongolia",
        "province": "Hentiy",
        "population": -1,
        "latitude": 46.2666667,
        "longitude": 110.8
    },
    {
        "name": "Buyant",
        "country": "Mongolia",
        "province": "Hentiy",
        "population": -1,
        "latitude": 46.25,
        "longitude": 110.833333
    },
    {
        "name": "Buyan Suma",
        "country": "Mongolia",
        "province": "East Gobi Aymag",
        "population": -1,
        "latitude": 45.6,
        "longitude": 110.9
    },
    {
        "name": "Butargamaiin Hiid",
        "country": "Mongolia",
        "province": "Sühbaatar",
        "population": -1,
        "latitude": 45.5166667,
        "longitude": 112.05
    },
    {
        "name": "Büriden Süme",
        "country": "Mongolia",
        "province": "East Gobi Aymag",
        "population": -1,
        "latitude": 44.25,
        "longitude": 110.8
    },
    {
        "name": "Burgaltay",
        "country": "Mongolia",
        "province": "Selenge",
        "population": -1,
        "latitude": 49.26500414063174,
        "longitude": 104.74348068237305
    },
    {
        "name": "Burgaltay",
        "country": "Mongolia",
        "province": "Central Aimak",
        "population": -1,
        "latitude": 48.3333333,
        "longitude": 106.6666667
    },
    {
        "name": "Bulgan",
        "country": "Mongolia",
        "province": "Khövsgöl Province",
        "population": -1,
        "latitude": 50.541944,
        "longitude": 101.514167
    },
    {
        "name": "Bulangiin Hural",
        "country": "Mongolia",
        "province": "East Gobi Aymag",
        "population": -1,
        "latitude": 44.9166667,
        "longitude": 111.1666667
    },
    {
        "name": "Bulang",
        "country": "Mongolia",
        "province": "East Gobi Aymag",
        "population": -1,
        "latitude": 42.7666667,
        "longitude": 109.9333333
    },
    {
        "name": "Bulagan Suma",
        "country": "Mongolia",
        "province": "East Aimak",
        "population": -1,
        "latitude": 48.05,
        "longitude": 113.4833333
    },
    {
        "name": "Bulag",
        "country": "Mongolia",
        "province": "Central Aimak",
        "population": -1,
        "latitude": 48.2,
        "longitude": 108.483333
    },
    {
        "name": "Bugat",
        "country": "Mongolia",
        "province": "Arkhangai Province",
        "population": -1,
        "latitude": 47.9166667,
        "longitude": 101.2666667
    },
    {
        "name": "Boroiin Dugang",
        "country": "Mongolia",
        "province": "Selenge",
        "population": -1,
        "latitude": 48.7666667,
        "longitude": 106.3
    },
    {
        "name": "Böhöt",
        "country": "Mongolia",
        "province": "Middle Govĭ",
        "population": -1,
        "latitude": 45.23222830769667,
        "longitude": 108.28245162963867
    },
    {
        "name": "Bodĭ",
        "country": "Mongolia",
        "province": "Bayanhongor",
        "population": -1,
        "latitude": 45.41170736599208,
        "longitude": 100.5739974975586
    },
    {
        "name": "Berh",
        "country": "Mongolia",
        "province": "Hentiy",
        "population": -1,
        "latitude": 47.78333,
        "longitude": 111.16667
    },
    {
        "name": "Belchir",
        "country": "Mongolia",
        "province": "Selenge",
        "population": -1,
        "latitude": 49.75,
        "longitude": 107.4666667
    },
    {
        "name": "Bayan-Uul",
        "country": "Mongolia",
        "province": "Arkhangai Province",
        "population": -1,
        "latitude": 47.7166667,
        "longitude": 101.85
    },
    {
        "name": "Bayan Tsogto Suma",
        "country": "Mongolia",
        "province": "East Gobi Aymag",
        "population": -1,
        "latitude": 46.1666667,
        "longitude": 109
    },
    {
        "name": "Bayantsagaan",
        "country": "Mongolia",
        "province": "Arkhangai Province",
        "population": -1,
        "latitude": 48.731667,
        "longitude": 100.76
    },
    {
        "name": "Bayanterem",
        "country": "Mongolia",
        "province": "Sühbaatar",
        "population": -1,
        "latitude": 47.1333333,
        "longitude": 112.3833333
    },
    {
        "name": "Bayanteeg",
        "country": "Mongolia",
        "province": "Övörhangay",
        "population": -1,
        "latitude": 45.6666667,
        "longitude": 101.5
    },
    {
        "name": "Bayan Suma",
        "country": "Mongolia",
        "province": "Hentiy",
        "population": -1,
        "latitude": 49.1333333,
        "longitude": 111.8666667
    },
    {
        "name": "Bayan-Ovoo",
        "country": "Mongolia",
        "province": "Hentiy",
        "population": -1,
        "latitude": 49.016667,
        "longitude": 111.633333
    },
    {
        "name": "Javhlant",
        "country": "Mongolia",
        "province": "Hentiy",
        "population": -1,
        "latitude": 47.7833333,
        "longitude": 112.1166667
    },
    {
        "name": "Bayan Mönhöiin Shandaiin Örtöö",
        "country": "Mongolia",
        "province": "Hentiy",
        "population": -1,
        "latitude": 47.4,
        "longitude": 110.666667
    },
    {
        "name": "Bayan Mönhöiin Salbar Horshoo",
        "country": "Mongolia",
        "province": "Hentiy",
        "population": -1,
        "latitude": 46.766667,
        "longitude": 109.833333
    },
    {
        "name": "Bayan Goliin Dugang",
        "country": "Mongolia",
        "province": "Selenge",
        "population": -1,
        "latitude": 49.0666667,
        "longitude": 106.15
    },
    {
        "name": "Bayan Dzürihe Suma",
        "country": "Mongolia",
        "province": "Bayanhongor",
        "population": -1,
        "latitude": 46.3,
        "longitude": 101
    },
    {
        "name": "Bayan Bulagiin Suurin",
        "country": "Mongolia",
        "province": "Govĭ-Sumber",
        "population": -1,
        "latitude": 46.6666667,
        "longitude": 108.9166667
    },
    {
        "name": "Bayan Bulagiin Hural",
        "country": "Mongolia",
        "province": "Ömnögovĭ",
        "population": -1,
        "latitude": 44.25,
        "longitude": 106.8
    },
    {
        "name": "Bayan Belhi",
        "country": "Mongolia",
        "province": "Middle Govĭ",
        "population": -1,
        "latitude": 45.4,
        "longitude": 106.75
    },
    {
        "name": "Bayanbaraat",
        "country": "Mongolia",
        "province": "Central Aimak",
        "population": -1,
        "latitude": 46.866667,
        "longitude": 106.25
    },
    {
        "name": "Bayan",
        "country": "Mongolia",
        "province": "Arkhangai Province",
        "population": -1,
        "latitude": 47.45,
        "longitude": 103.15
    },
    {
        "name": "Baruunsuu",
        "country": "Mongolia",
        "province": "Ömnögovĭ",
        "population": -1,
        "latitude": 43.655949912568225,
        "longitude": 105.75576782226562
    },
    {
        "name": "Hushaat",
        "country": "Mongolia",
        "province": "Selenge",
        "population": -1,
        "latitude": 49.5,
        "longitude": 105.616667
    },
    {
        "name": "Baruunharaa",
        "country": "Mongolia",
        "province": "Selenge",
        "population": -1,
        "latitude": 49.6166667,
        "longitude": 106.8833333
    },
    {
        "name": "Baruun Ganjir Hiid",
        "country": "Mongolia",
        "province": "Sühbaatar",
        "population": -1,
        "latitude": 46.8,
        "longitude": 111.9833333
    },
    {
        "name": "Balji Horshoo",
        "country": "Mongolia",
        "province": "Hentiy",
        "population": -1,
        "latitude": 49,
        "longitude": 110.55
    },
    {
        "name": "Badrah",
        "country": "Mongolia",
        "province": "Khövsgöl Province",
        "population": -1,
        "latitude": 49.618333,
        "longitude": 101.989722
    },
    {
        "name": "Avraga",
        "country": "Mongolia",
        "province": "Hentiy",
        "population": -1,
        "latitude": 47.1785122644391,
        "longitude": 109.189682006836
    },
    {
        "name": "Avdzaga",
        "country": "Mongolia",
        "province": "Bulgan",
        "population": -1,
        "latitude": 47.9,
        "longitude": 103.4166667
    },
    {
        "name": "Avdzaga",
        "country": "Mongolia",
        "province": "Bulgan",
        "population": -1,
        "latitude": 47.633333,
        "longitude": 103.516667
    },
    {
        "name": "Asahatay Suma",
        "country": "Mongolia",
        "province": "Sühbaatar",
        "population": -1,
        "latitude": 45.8166667,
        "longitude": 113.75
    },
    {
        "name": "Artsatayn Shiliin Hiid",
        "country": "Mongolia",
        "province": "Ömnögovĭ",
        "population": -1,
        "latitude": 43.8,
        "longitude": 104.6833333
    },
    {
        "name": "Arshaantayn Hüryee",
        "country": "Mongolia",
        "province": "East Gobi Aymag",
        "population": -1,
        "latitude": 44.966667,
        "longitude": 109.3
    },
    {
        "name": "Arigiin Dugang",
        "country": "Mongolia",
        "province": "Khövsgöl Province",
        "population": -1,
        "latitude": 50.3,
        "longitude": 102.2
    },
    {
        "name": "Arguut",
        "country": "Mongolia",
        "province": "Övörhangay",
        "population": -1,
        "latitude": 45.46277946850852,
        "longitude": 102.42055892944336
    },
    {
        "name": "Argatay",
        "country": "Mongolia",
        "province": "Middle Govĭ",
        "population": -1,
        "latitude": 45.766667,
        "longitude": 107.983333
    },
    {
        "name": "Argalinta Suma",
        "country": "Mongolia",
        "province": "Ömnögovĭ",
        "population": -1,
        "latitude": 43.4705556,
        "longitude": 104.6516667
    },
    {
        "name": "Ar-Asgat",
        "country": "Mongolia",
        "province": "Central Aimak",
        "population": -1,
        "latitude": 48.262222,
        "longitude": 105.411944
    },
    {
        "name": "Amardalay",
        "country": "Mongolia",
        "province": "Middle Govĭ",
        "population": -1,
        "latitude": 46.12572348533462,
        "longitude": 106.37426376342773
    },
    {
        "name": "Amaiin Usanii Hiid",
        "country": "Mongolia",
        "province": "Middle Govĭ",
        "population": -1,
        "latitude": 46.1333333,
        "longitude": 104.4333333
    },
    {
        "name": "Alata",
        "country": "Mongolia",
        "province": "East Aimak",
        "population": -1,
        "latitude": 48.6833333,
        "longitude": 115.9666667
    },
    {
        "name": "Alag Hötöliin Örtöö",
        "country": "Mongolia",
        "province": "Sühbaatar",
        "population": -1,
        "latitude": 47.233333,
        "longitude": 113.95
    },
    {
        "name": "Agatayn Hiid",
        "country": "Mongolia",
        "province": "Govĭ-Sumber",
        "population": -1,
        "latitude": 46.5833333,
        "longitude": 108.6166667
    },
    {
        "name": "Abdar Bayan Suma",
        "country": "Mongolia",
        "province": "Central Aimak",
        "population": -1,
        "latitude": 47.1666667,
        "longitude": 107.1666667
    },
    {
        "name": "Abarahaiin Süme",
        "country": "Mongolia",
        "province": "Ömnögovĭ",
        "population": -1,
        "latitude": 44.383333,
        "longitude": 105.55
    },
    {
        "name": "Abarahaiin Hural",
        "country": "Mongolia",
        "province": "Middle Govĭ",
        "population": -1,
        "latitude": 45.2166667,
        "longitude": 108.0333333
    },
    {
        "name": "Yihe Naratayn Hiid",
        "country": "Mongolia",
        "province": "East Gobi Aymag",
        "population": -1,
        "latitude": 45.5833333,
        "longitude": 108.6666667
    },
    {
        "name": "Yihe Ayl",
        "country": "Mongolia",
        "province": "East Aimak",
        "population": -1,
        "latitude": 46.2833333,
        "longitude": 116.7833333
    },
    {
        "name": "Urdgol",
        "country": "Mongolia",
        "province": "Hovd",
        "population": -1,
        "latitude": 47.833333,
        "longitude": 92.65
    },
    {
        "name": "Türgen",
        "country": "Mongolia",
        "province": "Govi-Altai Province",
        "population": -1,
        "latitude": 45.8166667,
        "longitude": 95.25
    },
    {
        "name": "Tsetsegnuur",
        "country": "Mongolia",
        "province": "Hovd",
        "population": -1,
        "latitude": 46.6,
        "longitude": 93.266667
    },
    {
        "name": "Tsenher",
        "country": "Mongolia",
        "province": "Hovd",
        "population": -1,
        "latitude": 46.916667,
        "longitude": 92.116667
    },
    {
        "name": "Tsengel Hayrhan Suma",
        "country": "Mongolia",
        "province": "Bayan-Ölgiy",
        "population": -1,
        "latitude": 48.75,
        "longitude": 88.9
    },
    {
        "name": "Tsalgar",
        "country": "Mongolia",
        "province": "Uvs Province",
        "population": -1,
        "latitude": 49.716667,
        "longitude": 93.266667
    },
    {
        "name": "Tsahir",
        "country": "Mongolia",
        "province": "Arkhangai Province",
        "population": -1,
        "latitude": 48.079722,
        "longitude": 98.851667
    },
    {
        "name": "Tsagaannuur",
        "country": "Mongolia",
        "province": "Bayan-Ölgiy",
        "population": 200,
        "latitude": 49.509383047398586,
        "longitude": 89.73289489746094
    },
    {
        "name": "Tsagaan Bulagiin Dugang",
        "country": "Mongolia",
        "province": "Khövsgöl Province",
        "population": -1,
        "latitude": 50.0666667,
        "longitude": 98.9833333
    },
    {
        "name": "Tolbo",
        "country": "Mongolia",
        "province": "Bayan-Ölgiy",
        "population": -1,
        "latitude": 48.416667,
        "longitude": 90.283333
    },
    {
        "name": "Tögrög",
        "country": "Mongolia",
        "province": "Hovd",
        "population": -1,
        "latitude": 47.42413864248645,
        "longitude": 92.2243881225586
    },
    {
        "name": "Tögrög",
        "country": "Mongolia",
        "province": "Govi-Altai Province",
        "population": -1,
        "latitude": 45.829756159282766,
        "longitude": 94.81544494628906
    },
    {
        "name": "Tögörigiin Süme",
        "country": "Mongolia",
        "province": "Hovd",
        "population": -1,
        "latitude": 47.416667,
        "longitude": 92.166667
    },
    {
        "name": "Tögöl",
        "country": "Mongolia",
        "province": "Khövsgöl Province",
        "population": -1,
        "latitude": 50.683333,
        "longitude": 99.233333
    },
    {
        "name": "Tarhatay",
        "country": "Mongolia",
        "province": "Bayan-Ölgiy",
        "population": -1,
        "latitude": 49.2666667,
        "longitude": 88.6
    },
    {
        "name": "Tamch",
        "country": "Mongolia",
        "province": "Govi-Altai Province",
        "population": -1,
        "latitude": 46.1,
        "longitude": 93.8833333
    },
    {
        "name": "Sudayn Hüryee",
        "country": "Mongolia",
        "province": "Hovd",
        "population": -1,
        "latitude": 46.8,
        "longitude": 93.633333
    },
    {
        "name": "Sharga",
        "country": "Mongolia",
        "province": "Khövsgöl Province",
        "population": -1,
        "latitude": 49.8,
        "longitude": 98.8
    },
    {
        "name": "Sharbulag",
        "country": "Mongolia",
        "province": "Uvs Province",
        "population": -1,
        "latitude": 48.816667,
        "longitude": 93.1
    },
    {
        "name": "Sayn-Ust",
        "country": "Mongolia",
        "province": "Govi-Altai Province",
        "population": -1,
        "latitude": 47.35731565715089,
        "longitude": 94.52447891235352
    },
    {
        "name": "Sangiin Dalayn Hüryee",
        "country": "Mongolia",
        "province": "Govi-Altai Province",
        "population": -1,
        "latitude": 45.15,
        "longitude": 97.766667
    },
    {
        "name": "Rashaant",
        "country": "Mongolia",
        "province": "Bayan-Ölgiy",
        "population": -1,
        "latitude": 47.766667,
        "longitude": 90.833333
    },
    {
        "name": "Övögdiy",
        "country": "Mongolia",
        "province": "Dzabkhan",
        "population": -1,
        "latitude": 48.642778,
        "longitude": 97.618611
    },
    {
        "name": "Orgil",
        "country": "Mongolia",
        "province": "Khövsgöl Province",
        "population": -1,
        "latitude": 48.587222,
        "longitude": 99.350833
    },
    {
        "name": "Naran",
        "country": "Mongolia",
        "province": "Dzabkhan",
        "population": -1,
        "latitude": 48.4736111,
        "longitude": 98.2902778
    },
    {
        "name": "Naran",
        "country": "Mongolia",
        "province": "Govi-Altai Province",
        "population": -1,
        "latitude": 46.1,
        "longitude": 96.5
    },
    {
        "name": "Namir",
        "country": "Mongolia",
        "province": "Uvs Province",
        "population": -1,
        "latitude": 49.10641034354367,
        "longitude": 91.71781539916992
    },
    {
        "name": "Mogoyn Hüryee",
        "country": "Mongolia",
        "province": "Dzabkhan",
        "population": -1,
        "latitude": 49.866667,
        "longitude": 95.75
    },
    {
        "name": "Mogoyn Hüryee",
        "country": "Mongolia",
        "province": "Govi-Altai Province",
        "population": -1,
        "latitude": 47.083333,
        "longitude": 95.083333
    },
    {
        "name": "Mandal",
        "country": "Mongolia",
        "province": "Khövsgöl Province",
        "population": -1,
        "latitude": 49.9,
        "longitude": 99.433333
    },
    {
        "name": "Huyagt",
        "country": "Mongolia",
        "province": "Dzabkhan",
        "population": -1,
        "latitude": 48.8647222,
        "longitude": 98.9611111
    },
    {
        "name": "Hunt",
        "country": "Mongolia",
        "province": "Arkhangai Province",
        "population": -1,
        "latitude": 47.866667,
        "longitude": 99.466667
    },
    {
        "name": "Hungiy",
        "country": "Mongolia",
        "province": "Dzabkhan",
        "population": -1,
        "latitude": 48.51671805774624,
        "longitude": 94.29428100585938
    },
    {
        "name": "Höviyn Am",
        "country": "Mongolia",
        "province": "Bayanhongor",
        "population": -1,
        "latitude": 47.2312259110729,
        "longitude": 98.5713958740234
    },
    {
        "name": "Hovd",
        "country": "Mongolia",
        "province": "Bayan-Ölgiy",
        "population": -1,
        "latitude": 49.3,
        "longitude": 90.5166667
    },
    {
        "name": "Hongo",
        "country": "Mongolia",
        "province": "Hovd",
        "population": -1,
        "latitude": 48.4,
        "longitude": 90.9333333
    },
    {
        "name": "Holboo",
        "country": "Mongolia",
        "province": "Dzabkhan",
        "population": -1,
        "latitude": 48.58875811801927,
        "longitude": 95.43256759643555
    },
    {
        "name": "Harmod",
        "country": "Mongolia",
        "province": "Uvs Province",
        "population": -1,
        "latitude": 50.34129744263508,
        "longitude": 91.60640716552734
    },
    {
        "name": "Hargana",
        "country": "Mongolia",
        "province": "Hovd",
        "population": -1,
        "latitude": 47.5333333,
        "longitude": 92.9333333
    },
    {
        "name": "Haltariin Hüryee",
        "country": "Mongolia",
        "province": "Dzabkhan",
        "population": -1,
        "latitude": 47.416667,
        "longitude": 97.666667
    },
    {
        "name": "Halban",
        "country": "Mongolia",
        "province": "Khövsgöl Province",
        "population": -1,
        "latitude": 49.52877389852215,
        "longitude": 97.74089813232422
    },
    {
        "name": "Gandan Hüryee",
        "country": "Mongolia",
        "province": "Dzabkhan",
        "population": -1,
        "latitude": 49.683333,
        "longitude": 95.983333
    },
    {
        "name": "Dzüyliin Hüryee",
        "country": "Mongolia",
        "province": "Govi-Altai Province",
        "population": -1,
        "latitude": 46.3,
        "longitude": 93.9
    },
    {
        "name": "Dzuunmod",
        "country": "Mongolia",
        "province": "Dzabkhan",
        "population": -1,
        "latitude": 48.21986918806164,
        "longitude": 97.3744010925293
    },
    {
        "name": "Dzüünhövöö",
        "country": "Mongolia",
        "province": "Uvs Province",
        "population": -1,
        "latitude": 50.60977003186492,
        "longitude": 92.40240097045898
    },
    {
        "name": "Dzöölön",
        "country": "Mongolia",
        "province": "Khövsgöl Province",
        "population": -1,
        "latitude": 51.107186616024556,
        "longitude": 99.67226028442383
    },
    {
        "name": "Dzeergeneiin Süme",
        "country": "Mongolia",
        "province": "Hovd",
        "population": -1,
        "latitude": 47.383333,
        "longitude": 92.5
    },
    {
        "name": "Dzagdza Dugang",
        "country": "Mongolia",
        "province": "Khövsgöl Province",
        "population": -1,
        "latitude": 49.6166667,
        "longitude": 99.5833333
    },
    {
        "name": "Dzag",
        "country": "Mongolia",
        "province": "Bayanhongor",
        "population": -1,
        "latitude": 46.94229329221879,
        "longitude": 99.16688919067383
    },
    {
        "name": "Dzadgay",
        "country": "Mongolia",
        "province": "Bayanhongor",
        "population": -1,
        "latitude": 46.21060597528391,
        "longitude": 99.59861755371094
    },
    {
        "name": "Duutayn Hüryee",
        "country": "Mongolia",
        "province": "Dzabkhan",
        "population": -1,
        "latitude": 47.5,
        "longitude": 96.916667
    },
    {
        "name": "Dordogoyn Hüryee",
        "country": "Mongolia",
        "province": "Khövsgöl Province",
        "population": -1,
        "latitude": 49.85,
        "longitude": 98.633333
    },
    {
        "name": "Darvi",
        "country": "Mongolia",
        "province": "Govi-Altai Province",
        "population": -1,
        "latitude": 46.45,
        "longitude": 94.116667
    },
    {
        "name": "Dara Eheiin Jisa",
        "country": "Mongolia",
        "province": "Bayanhongor",
        "population": -1,
        "latitude": 46.15,
        "longitude": 98.6833333
    },
    {
        "name": "Dalan Türüü Örtöö",
        "country": "Mongolia",
        "province": "Govi-Altai Province",
        "population": -1,
        "latitude": 46.75,
        "longitude": 94.5
    },
    {
        "name": "Chandmanĭ",
        "country": "Mongolia",
        "province": "Dzabkhan",
        "population": -1,
        "latitude": 48.11522506232188,
        "longitude": 96.76620483398438
    },
    {
        "name": "Buyant",
        "country": "Mongolia",
        "province": "Dzabkhan",
        "population": -1,
        "latitude": 47.21210577562242,
        "longitude": 97.60665893554688
    },
    {
        "name": "Darvi",
        "country": "Mongolia",
        "province": "Hovd",
        "population": -1,
        "latitude": 46.936784648146904,
        "longitude": 93.61673355102539
    },
    {
        "name": "Bulgan",
        "country": "Mongolia",
        "province": "Bayanhongor",
        "population": -1,
        "latitude": 44.783333,
        "longitude": 98.65
    },
    {
        "name": "Bügseyn Hüryee",
        "country": "Mongolia",
        "province": "Khövsgöl Province",
        "population": -1,
        "latitude": 49.533333,
        "longitude": 99.9
    },
    {
        "name": "Bugat",
        "country": "Mongolia",
        "province": "Uvs Province",
        "population": -1,
        "latitude": 49.533333,
        "longitude": 93.816667
    },
    {
        "name": "Bugat",
        "country": "Mongolia",
        "province": "Bayan-Ölgiy",
        "population": -1,
        "latitude": 48.9511410105913,
        "longitude": 90.0196552276611
    },
    {
        "name": "Bodonchiin Hüryee",
        "country": "Mongolia",
        "province": "Hovd",
        "population": -1,
        "latitude": 45.766667,
        "longitude": 92.183333
    },
    {
        "name": "Beltesiin Dugang",
        "country": "Mongolia",
        "province": "Khövsgöl Province",
        "population": -1,
        "latitude": 50.2666667,
        "longitude": 99.35
    },
    {
        "name": "Beleu",
        "country": "Mongolia",
        "province": "Bayan-Ölgiy",
        "population": -1,
        "latitude": 49.0666667,
        "longitude": 89.4666667
    },
    {
        "name": "Baydaragiin Hüryee",
        "country": "Mongolia",
        "province": "Bayanhongor",
        "population": -1,
        "latitude": 47.283333,
        "longitude": 99.666667
    },
    {
        "name": "Bayan-Uhaa",
        "country": "Mongolia",
        "province": "Dzabkhan",
        "population": -1,
        "latitude": 48.7190551996152,
        "longitude": 98.79180908203125
    },
    {
        "name": "Bayan Buuraliin Hüryee",
        "country": "Mongolia",
        "province": "Govi-Altai Province",
        "population": -1,
        "latitude": 45.816667,
        "longitude": 97
    },
    {
        "name": "Bayan",
        "country": "Mongolia",
        "province": "Khövsgöl Province",
        "population": -1,
        "latitude": 49.433333,
        "longitude": 99.6
    },
    {
        "name": "Baruunturuun",
        "country": "Mongolia",
        "province": "Uvs Province",
        "population": -1,
        "latitude": 49.65962776497079,
        "longitude": 94.40414428710938
    },
    {
        "name": "Altay",
        "country": "Mongolia",
        "province": "Dzabkhan",
        "population": -1,
        "latitude": 49.703167720179884,
        "longitude": 96.35919570922852
    },
    {
        "name": "Altanteel",
        "country": "Mongolia",
        "province": "Hovd",
        "population": -1,
        "latitude": 47.110443629452654,
        "longitude": 92.84374237060547
    },
    {
        "name": "Altanbulag",
        "country": "Mongolia",
        "province": "Dzabkhan",
        "population": -1,
        "latitude": 49.30688167864632,
        "longitude": 96.34237289428711
    },
    {
        "name": "Aldar",
        "country": "Mongolia",
        "province": "Dzabkhan",
        "population": -1,
        "latitude": 47.642260848473,
        "longitude": 96.536865234375
    },
    {
        "name": "Bayantsogt",
        "country": "Mongolia",
        "province": "Central Aimak",
        "population": -1,
        "latitude": 48.12553866602598,
        "longitude": 105.81155776977539
    },
    {
        "name": "Kharkhorin",
        "country": "Mongolia",
        "province": "Övörhangay",
        "population": 8977,
        "latitude": 47.192453820096,
        "longitude": 102.813491821289
    },
    {
        "name": "Orkhon",
        "country": "Mongolia",
        "province": "Darhan Uul",
        "population": -1,
        "latitude": 49.63395,
        "longitude": 105.88752
    },
    {
        "name": "Ulaanshiveet",
        "country": "Mongolia",
        "province": "Bulgan",
        "population": -1,
        "latitude": 47.37644,
        "longitude": 103.94809
    },
    {
        "name": "Yanchin Hiid",
        "country": "Mongolia",
        "province": "Central Aimak",
        "population": -1,
        "latitude": 47.2166667,
        "longitude": 108.0833333
    },
    {
        "name": "Uylgan Dugang",
        "country": "Mongolia",
        "province": "Khövsgöl Province",
        "population": -1,
        "latitude": 50.5333333,
        "longitude": 101.7833333
    },
    {
        "name": "Uylga",
        "country": "Mongolia",
        "province": "Selenge",
        "population": -1,
        "latitude": 49.8333333,
        "longitude": 107.7166667
    },
    {
        "name": "Üydzen Örtöö",
        "country": "Mongolia",
        "province": "Ömnögovĭ",
        "population": -1,
        "latitude": 44.166667,
        "longitude": 104.5
    },
    {
        "name": "Üydzengiin Hural",
        "country": "Mongolia",
        "province": "Bulgan",
        "population": -1,
        "latitude": 47.8,
        "longitude": 103.25
    },
    {
        "name": "Uula Hural",
        "country": "Mongolia",
        "province": "Middle Govĭ",
        "population": -1,
        "latitude": 45.5666667,
        "longitude": 107.6833333
    },
    {
        "name": "Uula Hiid",
        "country": "Mongolia",
        "province": "East Gobi Aymag",
        "population": -1,
        "latitude": 44.1166667,
        "longitude": 107.9833333
    },
    {
        "name": "Urt",
        "country": "Mongolia",
        "province": "Ömnögovĭ",
        "population": -1,
        "latitude": 43.232446999693074,
        "longitude": 101.04812622070312
    },
    {
        "name": "Unĭt",
        "country": "Mongolia",
        "province": "Bulgan",
        "population": -1,
        "latitude": 49.1333333,
        "longitude": 102.8166667
    },
    {
        "name": "Üneseteyn Hiid",
        "country": "Mongolia",
        "province": "Middle Govĭ",
        "population": -1,
        "latitude": 45.733333,
        "longitude": 105.183333
    },
    {
        "name": "Ulyaasata Dugang",
        "country": "Mongolia",
        "province": "Selenge",
        "population": -1,
        "latitude": 50.0833333,
        "longitude": 106.1666667
    },
    {
        "name": "Uldz",
        "country": "Mongolia",
        "province": "Hentiy",
        "population": -1,
        "latitude": 48.690280483493154,
        "longitude": 111.99462890625
    },
    {
        "name": "Ulaan-Uul",
        "country": "Mongolia",
        "province": "Bayanhongor",
        "population": -1,
        "latitude": 46.06739500051761,
        "longitude": 100.81724166870117
    },
    {
        "name": "Ulaan-Uul",
        "country": "Mongolia",
        "province": "East Gobi Aymag",
        "population": -1,
        "latitude": 44.333333,
        "longitude": 111.233333
    },
    {
        "name": "Ulaan Dzüleg",
        "country": "Mongolia",
        "province": "East Aimak",
        "population": -1,
        "latitude": 47.5,
        "longitude": 115.333333
    },
    {
        "name": "Ulaan Dabaa",
        "country": "Mongolia",
        "province": "Central Aimak",
        "population": -1,
        "latitude": 48.0166667,
        "longitude": 107.6666667
    },
    {
        "name": "Ulaan Chuluutayn Hüryee",
        "country": "Mongolia",
        "province": "Arkhangai Province",
        "population": -1,
        "latitude": 48.016667,
        "longitude": 102.133333
    },
    {
        "name": "Uhaa Hushuunii Hiid",
        "country": "Mongolia",
        "province": "Hentiy",
        "population": -1,
        "latitude": 48.7666667,
        "longitude": 111.9833333
    },
    {
        "name": "Ugtamiin Araiin Örtöö",
        "country": "Mongolia",
        "province": "East Aimak",
        "population": -1,
        "latitude": 49.4,
        "longitude": 113.766667
    },
    {
        "name": "Tunhiliin Hüryee",
        "country": "Mongolia",
        "province": "Selenge",
        "population": -1,
        "latitude": 48.65,
        "longitude": 106.733333
    },
    {
        "name": "Tümelteyn Süme",
        "country": "Mongolia",
        "province": "Övörhangay",
        "population": -1,
        "latitude": 47.15,
        "longitude": 104.033333
    },
    {
        "name": "Tulgaiin Jisa",
        "country": "Mongolia",
        "province": "Middle Govĭ",
        "population": -1,
        "latitude": 46.5,
        "longitude": 107.866667
    },
    {
        "name": "Tsulhur-Dugan",
        "country": "Mongolia",
        "province": "Bulgan",
        "population": -1,
        "latitude": 49.5,
        "longitude": 104.35
    },
    {
        "name": "Tsoohoriin Hural",
        "country": "Mongolia",
        "province": "Bulgan",
        "population": -1,
        "latitude": 47.633333,
        "longitude": 104.416667
    },
    {
        "name": "Tsomog",
        "country": "Mongolia",
        "province": "East Gobi Aymag",
        "population": -1,
        "latitude": 45.916667,
        "longitude": 109.066667
    },
    {
        "name": "Tsohyootoyn Hiid",
        "country": "Mongolia",
        "province": "Ömnögovĭ",
        "population": -1,
        "latitude": 43.6666667,
        "longitude": 107.2166667
    },
    {
        "name": "Tseregiin Dugang",
        "country": "Mongolia",
        "province": "Selenge",
        "population": -1,
        "latitude": 50.25,
        "longitude": 106.4166667
    },
    {
        "name": "Tsegeenii Hüryee",
        "country": "Mongolia",
        "province": "Övörhangay",
        "population": -1,
        "latitude": 46.683333,
        "longitude": 102.8
    },
    {
        "name": "Tsatsaiin Hural",
        "country": "Mongolia",
        "province": "East Gobi Aymag",
        "population": -1,
        "latitude": 44.6,
        "longitude": 109.0166667
    },
    {
        "name": "Tsasaiin Horshoo",
        "country": "Mongolia",
        "province": "Bulgan",
        "population": -1,
        "latitude": 49.7,
        "longitude": 104.6166667
    },
    {
        "name": "Tsasaiin Dugang",
        "country": "Mongolia",
        "province": "Bulgan",
        "population": -1,
        "latitude": 49.7666667,
        "longitude": 104.6
    },
    {
        "name": "Tsant",
        "country": "Mongolia",
        "province": "Middle Govĭ",
        "population": -1,
        "latitude": 46.183333,
        "longitude": 106.716667
    },
    {
        "name": "Tsamba Lunduubiin Hiid",
        "country": "Mongolia",
        "province": "Hentiy",
        "population": -1,
        "latitude": 46.7833333,
        "longitude": 109.3333333
    },
    {
        "name": "Tsagaan Uulaiin Süme",
        "country": "Mongolia",
        "province": "Ömnögovĭ",
        "population": -1,
        "latitude": 41.983333,
        "longitude": 103.25
    },
    {
        "name": "Tsagaan Usanii Örtöö",
        "country": "Mongolia",
        "province": "East Aimak",
        "population": -1,
        "latitude": 47.616667,
        "longitude": 115.4
    },
    {
        "name": "Tsagaan Usanii Hural",
        "country": "Mongolia",
        "province": "East Gobi Aymag",
        "population": -1,
        "latitude": 46.25,
        "longitude": 109.2
    },
    {
        "name": "Tsagaan Tologoy Dugang",
        "country": "Mongolia",
        "province": "Selenge",
        "population": -1,
        "latitude": 49.2666667,
        "longitude": 105.4166667
    },
    {
        "name": "Tsagaan Süme",
        "country": "Mongolia",
        "province": "Arkhangai Province",
        "population": -1,
        "latitude": 47.083333,
        "longitude": 102.083333
    },
    {
        "name": "Tsagaan Geriin Hural",
        "country": "Mongolia",
        "province": "East Gobi Aymag",
        "population": -1,
        "latitude": 42.95,
        "longitude": 110.3333333
    },
    {
        "name": "Tsagaan Ergiin Jisa",
        "country": "Mongolia",
        "province": "Hentiy",
        "population": -1,
        "latitude": 47.2166667,
        "longitude": 108.7333333
    },
    {
        "name": "Tsagaanders",
        "country": "Mongolia",
        "province": "East Aimak",
        "population": -1,
        "latitude": 48.05,
        "longitude": 114.366667
    },
    {
        "name": "Tsagaan Chuluutayn Hiid",
        "country": "Mongolia",
        "province": "Sühbaatar",
        "population": -1,
        "latitude": 47.0833333,
        "longitude": 112.9166667
    },
    {
        "name": "Tsagaan Chuluutayn Hiid",
        "country": "Mongolia",
        "province": "East Gobi Aymag",
        "population": -1,
        "latitude": 45.6333333,
        "longitude": 111.3
    },
    {
        "name": "Tsagaan Bulagiin Hural",
        "country": "Mongolia",
        "province": "East Gobi Aymag",
        "population": -1,
        "latitude": 42.5333333,
        "longitude": 109.2166667
    },
    {
        "name": "Tömör Usatanii Panja",
        "country": "Mongolia",
        "province": "Central Aimak",
        "population": -1,
        "latitude": 47.25,
        "longitude": 108.333333
    },
    {
        "name": "Tömöriin Bagiin Dugang",
        "country": "Mongolia",
        "province": "Arkhangai Province",
        "population": -1,
        "latitude": 47.633333,
        "longitude": 100.3
    },
    {
        "name": "Toliin Dzoo Hiid",
        "country": "Mongolia",
        "province": "East Gobi Aymag",
        "population": -1,
        "latitude": 43.0166667,
        "longitude": 109.3833333
    },
    {
        "name": "Togootoyn Shüteen",
        "country": "Mongolia",
        "province": "Hentiy",
        "population": -1,
        "latitude": 47.133333,
        "longitude": 110.7
    },
    {
        "name": "Togootoyn Dugang",
        "country": "Mongolia",
        "province": "Darhan Uul",
        "population": -1,
        "latitude": 49.8,
        "longitude": 106.0833333
    },
    {
        "name": "Teshig",
        "country": "Mongolia",
        "province": "Bulgan",
        "population": -1,
        "latitude": 49.94669109314266,
        "longitude": 102.66122817993164
    },
    {
        "name": "Teregen Bayan Süme",
        "country": "Mongolia",
        "province": "East Aimak",
        "population": -1,
        "latitude": 46.9,
        "longitude": 115.55
    },
    {
        "name": "Tengelig Hiid",
        "country": "Mongolia",
        "province": "Middle Govĭ",
        "population": -1,
        "latitude": 46.2833333,
        "longitude": 104.85
    },
    {
        "name": "Teegiin Süme",
        "country": "Mongolia",
        "province": "East Aimak",
        "population": -1,
        "latitude": 47,
        "longitude": 115.75
    },
    {
        "name": "Taryaatayn Süme",
        "country": "Mongolia",
        "province": "Central Aimak",
        "population": -1,
        "latitude": 47.666667,
        "longitude": 106
    },
    {
        "name": "Tarihaiin Süme",
        "country": "Mongolia",
        "province": "Hentiy",
        "population": -1,
        "latitude": 48.483333,
        "longitude": 109.666667
    },
    {
        "name": "Tamsagiin Hiid",
        "country": "Mongolia",
        "province": "East Aimak",
        "population": -1,
        "latitude": 47.2,
        "longitude": 117.35
    },
    {
        "name": "Talaiin Jisa Hural",
        "country": "Mongolia",
        "province": "Middle Govĭ",
        "population": -1,
        "latitude": 44.8333333,
        "longitude": 106.75
    },
    {
        "name": "Tahiltayn Hiid",
        "country": "Mongolia",
        "province": "Hentiy",
        "population": -1,
        "latitude": 47.5833333,
        "longitude": 109.5
    },
    {
        "name": "Süüjiin Horshoo",
        "country": "Mongolia",
        "province": "Bulgan",
        "population": -1,
        "latitude": 47.833333,
        "longitude": 104.016667
    },
    {
        "name": "Süüji Hiid",
        "country": "Mongolia",
        "province": "East Gobi Aymag",
        "population": -1,
        "latitude": 44.3,
        "longitude": 107.933333
    },
    {
        "name": "Süteyn Hiid",
        "country": "Mongolia",
        "province": "Sühbaatar",
        "population": -1,
        "latitude": 45.066667,
        "longitude": 113.9
    },
    {
        "name": "Suran Bulagiin Hural",
        "country": "Mongolia",
        "province": "Central Aimak",
        "population": -1,
        "latitude": 47.9333333,
        "longitude": 107.7166667
    },
    {
        "name": "Subsal Bürideiin Horshoo",
        "country": "Mongolia",
        "province": "East Aimak",
        "population": -1,
        "latitude": 49.316667,
        "longitude": 114.316667
    },
    {
        "name": "Subiin Chuluu",
        "country": "Mongolia",
        "province": "Central Aimak",
        "population": -1,
        "latitude": 48.5833333,
        "longitude": 107.4166667
    },
    {
        "name": "Subarganii Suurin",
        "country": "Mongolia",
        "province": "Hentiy",
        "population": -1,
        "latitude": 46.8833333,
        "longitude": 109.9833333
    },