[
    {
        "name": "Brades",
        "country": "Montserrat",
        "province": "Saint Peter",
        "population": 1000,
        "latitude": 16.791825550852,
        "longitude": -62.2105765342712
    },
    {
        "name": "Cork Hill",
        "country": "Montserrat",
        "province": "Saint Anthony",
        "population": 732,
        "latitude": 16.729254,
        "longitude": -62.21883
    },
    {
        "name": "Salem",
        "country": "Montserrat",
        "province": "Saint Peter",
        "population": 680,
        "latitude": 16.75095,
        "longitude": -62.22175
    },
    {
        "name": "Saint John's Village",
        "country": "Montserrat",
        "province": "Saint Peter",
        "population": 627,
        "latitude": 16.782149677346112,
        "longitude": -62.1910285949707
    },
    {
        "name": "Plymouth",
        "country": "Montserrat",
        "province": "Saint Anthony",
        "population": -1,
        "latitude": 16.7055470527598,
        "longitude": -62.2129154205322
    },
    {
        "name": "Gerald's",
        "country": "Montserrat",
        "province": "Saint Peter",
        "population": 314,
        "latitude": 16.7957491722196,
        "longitude": -62.19356060028076
    },
    {
        "name": "Saint Peters",
        "country": "Montserrat",
        "province": "Saint Peter",
        "population": -1,
        "latitude": 16.772699303972555,
        "longitude": -62.21729278564453
    },
    {
        "name": "Rendezvous",
        "country": "Montserrat",
        "province": "Saint Peter",
        "population": -1,
        "latitude": 16.808939,
        "longitude": -62.199584
    },
    {
        "name": "Harris",
        "country": "Montserrat",
        "province": "Saint Georges",
        "population": -1,
        "latitude": 16.74172,
        "longitude": -62.17124
    },
    {
        "name": "Farm",
        "country": "Montserrat",
        "province": "Saint Georges",
        "population": -1,
        "latitude": 16.7353,
        "longitude": -62.16506
    },
    {
        "name": "Cudjoe Head",
        "country": "Montserrat",
        "province": "Saint Peter",
        "population": -1,
        "latitude": 16.78440947960596,
        "longitude": -62.208194732666016
    },
    {
        "name": "Weekes",
        "country": "Montserrat",
        "province": "Saint Anthony",
        "population": -1,
        "latitude": 16.729344835629096,
        "longitude": -62.217421531677246
    },
    {
        "name": "Virgin Islands",
        "country": "Montserrat",
        "province": "Saint Peter",
        "population": -1,
        "latitude": 16.77874,
        "longitude": -62.21734
    },
    {
        "name": "Tuitt's",
        "country": "Montserrat",
        "province": "Saint Georges",
        "population": -1,
        "latitude": 16.72137147054792,
        "longitude": -62.16888427734375
    },
    {
        "name": "Trant's",
        "country": "Montserrat",
        "province": "Saint Georges",
        "population": -1,
        "latitude": 16.765344123053026,
        "longitude": -62.16407775878906
    },
    {
        "name": "Soldier Ghaut",
        "country": "Montserrat",
        "province": "Saint Peter",
        "population": -1,
        "latitude": 16.782696,
        "longitude": -62.211167
    },
    {
        "name": "Saint Patrick's",
        "country": "Montserrat",
        "province": "Saint Anthony",
        "population": -1,
        "latitude": 16.688077016358875,
        "longitude": -62.1976375579834
    },
    {
        "name": "Roche’s Yard",
        "country": "Montserrat",
        "province": "Saint Anthony",
        "population": -1,
        "latitude": 16.70155,
        "longitude": -62.156883
    },
    {
        "name": "Old Norwood",
        "country": "Montserrat",
        "province": "Saint Peter",
        "population": -1,
        "latitude": 16.786071,
        "longitude": -62.198421
    },
    {
        "name": "Morris’",
        "country": "Montserrat",
        "province": "Saint Anthony",
        "population": -1,
        "latitude": 16.68524,
        "longitude": -62.18193
    },
    {
        "name": "Molyneux",
        "country": "Montserrat",
        "province": "Saint Georges",
        "population": -1,
        "latitude": 16.72683778254724,
        "longitude": -62.19712257385254
    },
    {
        "name": "Mango Hill",
        "country": "Montserrat",
        "province": "Saint Georges",
        "population": -1,
        "latitude": 16.776164,
        "longitude": -62.196729
    },
    {
        "name": "Lee’s",
        "country": "Montserrat",
        "province": "Saint Georges",
        "population": -1,
        "latitude": 16.72355,
        "longitude": -62.199564
    },
    {
        "name": "Kinsale",
        "country": "Montserrat",
        "province": "Saint Anthony",
        "population": -1,
        "latitude": 16.695928453923266,
        "longitude": -62.20858097076416
    },
    {
        "name": "Judy Piece",
        "country": "Montserrat",
        "province": "Saint Georges",
        "population": -1,
        "latitude": 16.78086,
        "longitude": -62.193089
    },
    {
        "name": "Happy Hill",
        "country": "Montserrat",
        "province": "Saint Peter",
        "population": -1,
        "latitude": 16.741888,
        "longitude": -62.223012
    },
    {
        "name": "Gun Hill",
        "country": "Montserrat",
        "province": "Saint Georges",
        "population": -1,
        "latitude": 16.72972,
        "longitude": -62.191708
    },
    {
        "name": "Gages",
        "country": "Montserrat",
        "province": "Saint Anthony",
        "population": -1,
        "latitude": 16.726139089748436,
        "longitude": -62.19677925109863
    },
    {
        "name": "Frith",
        "country": "Montserrat",
        "province": "Saint Peter",
        "population": -1,
        "latitude": 16.744797418268742,
        "longitude": -62.217979431152344
    },
    {
        "name": "Fogarty",
        "country": "Montserrat",
        "province": "Saint Peter",
        "population": -1,
        "latitude": 16.773343,
        "longitude": -62.213827
    },
    {
        "name": "Drummond’s",
        "country": "Montserrat",
        "province": "Saint Peter",
        "population": -1,
        "latitude": 16.800652,
        "longitude": -62.197365
    },
    {
        "name": "Dick Hill",
        "country": "Montserrat",
        "province": "Saint Georges",
        "population": -1,
        "latitude": 16.778793,
        "longitude": -62.193145
    },
    {
        "name": "Davy Hill",
        "country": "Montserrat",
        "province": "Saint Peter",
        "population": -1,
        "latitude": 16.794434459957277,
        "longitude": -62.20510482788086
    },
    {
        "name": "Cavalla Hill",
        "country": "Montserrat",
        "province": "Saint Peter",
        "population": -1,
        "latitude": 16.776581,
        "longitude": -62.20574
    },
    {
        "name": "Banks",
        "country": "Montserrat",
        "province": "Saint Peter",
        "population": -1,
        "latitude": 16.783745,
        "longitude": -62.214638
    },
    {
        "name": "Baker Hill",
        "country": "Montserrat",
        "province": "Saint Peter",
        "population": -1,
        "latitude": 16.777399,
        "longitude": -62.209391
    },
    {
        "name": "Elberton",
        "country": "Montserrat",
        "province": "Montserrat",
        "population": -1,
        "latitude": 16.72511,
        "longitude": -62.22781
    },
    {
        "name": "Garibaldi Hill",
        "country": "Montserrat",
        "province": "Montserrat",
        "population": -1,
        "latitude": 16.73958,
        "longitude": -62.23042
    },
    {
        "name": "Zion Hill",
        "country": "Montserrat",
        "province": "Saint Peter",
        "population": -1,
        "latitude": 16.768087,
        "longitude": -62.217926
    },
    {
        "name": "Woodlands",
        "country": "Montserrat",
        "province": "Saint Peter",
        "population": -1,
        "latitude": 16.75741,
        "longitude": -62.22433
    },
    {
        "name": "Windy Hill",
        "country": "Montserrat",
        "province": "Saint Georges",
        "population": -1,
        "latitude": 16.73370127566691,
        "longitude": -62.19317436218262
    },
    {
        "name": "Webbs",
        "country": "Montserrat",
        "province": "Saint Anthony",
        "population": -1,
        "latitude": 16.705486,
        "longitude": -62.216992
    },
    {
        "name": "Victoria",
        "country": "Montserrat",
        "province": "Saint Anthony",
        "population": -1,
        "latitude": 16.700053,
        "longitude": -62.218093
    },
    {
        "name": "Trials",
        "country": "Montserrat",
        "province": "Saint Anthony",
        "population": -1,
        "latitude": 16.692665,
        "longitude": -62.210877
    },
    {
        "name": "Streatham",
        "country": "Montserrat",
        "province": "Saint Georges",
        "population": -1,
        "latitude": 16.730391,
        "longitude": -62.190481
    },
    {
        "name": "Shooters Hill",
        "country": "Montserrat",
        "province": "Saint Anthony",
        "population": -1,
        "latitude": 16.677901,
        "longitude": -62.192658
    },
    {
        "name": "Saint George’s Hill",
        "country": "Montserrat",
        "province": "Saint Anthony",
        "population": -1,
        "latitude": 16.723989,
        "longitude": -62.208614
    },
    {
        "name": "Ryners",
        "country": "Montserrat",
        "province": "Saint Anthony",
        "population": -1,
        "latitude": 16.709707,
        "longitude": -62.218712
    },
    {
        "name": "Rocklands",
        "country": "Montserrat",
        "province": "Saint Peter",
        "population": -1,
        "latitude": 16.74193,
        "longitude": -62.21965
    },
    {
        "name": "Richmond Hill",
        "country": "Montserrat",
        "province": "Saint Anthony",
        "population": -1,
        "latitude": 16.718576603878695,
        "longitude": -62.22433090209961
    },
    {
        "name": "Richmond",
        "country": "Montserrat",
        "province": "Saint Anthony",
        "population": -1,
        "latitude": 16.715966,
        "longitude": -62.226688
    },
    {
        "name": "Pond Bottom",
        "country": "Montserrat",
        "province": "Saint Peter",
        "population": -1,
        "latitude": 16.781385,
        "longitude": -62.209894
    },
    {
        "name": "Parsons",
        "country": "Montserrat",
        "province": "Saint Anthony",
        "population": -1,
        "latitude": 16.705886,
        "longitude": -62.209107
    },
    {
        "name": "Olveston",
        "country": "Montserrat",
        "province": "Saint Peter",
        "population": -1,
        "latitude": 16.75433,
        "longitude": -62.22884
    },
    {
        "name": "Old Towne",
        "country": "Montserrat",
        "province": "Saint Peter",
        "population": -1,
        "latitude": 16.746934378906072,
        "longitude": -62.233686447143555
    },
    {
        "name": "Nixons",
        "country": "Montserrat",
        "province": "Saint Peter",
        "population": -1,
        "latitude": 16.780014,
        "longitude": -62.212661
    },
    {
        "name": "Marko Bottom",
        "country": "Montserrat",
        "province": "Saint Peter",
        "population": -1,
        "latitude": 16.784816,
        "longitude": -62.21242
    },
    {
        "name": "Long Ground Village (Destroyed)",
        "country": "Montserrat",
        "province": "Saint Georges",
        "population": -1,
        "latitude": 16.70941,
        "longitude": -62.16498
    },
    {
        "name": "Jubilee Town",
        "country": "Montserrat",
        "province": "Saint Anthony",
        "population": -1,
        "latitude": 16.704146,
        "longitude": -62.217401
    },
    {
        "name": "Iles Bay",
        "country": "Montserrat",
        "province": "Saint Peter",
        "population": -1,
        "latitude": 16.736596,
        "longitude": -62.230116
    },
    {
        "name": "Iles Bay",
        "country": "Montserrat",
        "province": "Saint Peter",
        "population": -1,
        "latitude": 16.73514,
        "longitude": -62.21785
    },
    {
        "name": "Hope",
        "country": "Montserrat",
        "province": "Saint Peter",
        "population": -1,
        "latitude": 16.748541,
        "longitude": -62.217657
    },
    {
        "name": "Hodge’s Hill",
        "country": "Montserrat",
        "province": "Saint Georges",
        "population": -1,
        "latitude": 16.730748,
        "longitude": -62.199177
    },
    {
        "name": "Glen Mhor",
        "country": "Montserrat",
        "province": "Saint Anthony",
        "population": -1,
        "latitude": 16.715795,
        "longitude": -62.204958
    },
    {
        "name": "Gingoes",
        "country": "Montserrat",
        "province": "Saint Anthony",
        "population": -1,
        "latitude": 16.688684,
        "longitude": -62.209485
    },
    {
        "name": "Gerald’s Bottom",
        "country": "Montserrat",
        "province": "Saint Peter",
        "population": -1,
        "latitude": 16.790424,
        "longitude": -62.1977
    },
    {
        "name": "Fox's Bay",
        "country": "Montserrat",
        "province": "Saint Anthony",
        "population": -1,
        "latitude": 16.72873,
        "longitude": -62.23317
    },
    {
        "name": "Fleming",
        "country": "Montserrat",
        "province": "Saint Peter",
        "population": -1,
        "latitude": 16.74499,
        "longitude": -62.216848
    },
    {
        "name": "Fairfield",
        "country": "Montserrat",
        "province": "Saint Anthony",
        "population": -1,
        "latitude": 16.695866,
        "longitude": -62.211543
    },
    {
        "name": "Dyer’s",
        "country": "Montserrat",
        "province": "Saint Georges",
        "population": -1,
        "latitude": 16.727981,
        "longitude": -62.196479
    },
    {
        "name": "Duberry Hill",
        "country": "Montserrat",
        "province": "Saint Peter",
        "population": -1,
        "latitude": 16.7584,
        "longitude": -62.221736
    },
    {
        "name": "Delvins",
        "country": "Montserrat",
        "province": "Saint Anthony",
        "population": -1,
        "latitude": 16.725103,
        "longitude": -62.224541
    },
    {
        "name": "Cheapend",
        "country": "Montserrat",
        "province": "Saint Peter",
        "population": -1,
        "latitude": 16.74203,
        "longitude": -62.21975
    },
    {
        "name": "Bramble (Destroyed)",
        "country": "Montserrat",
        "province": "Saint Georges",
        "population": -1,
        "latitude": 16.71792,
        "longitude": -62.16515
    },
    {
        "name": "Black Ghaut Basin",
        "country": "Montserrat",
        "province": "Saint Peter",
        "population": -1,
        "latitude": 16.788477,
        "longitude": -62.214436
    },
    {
        "name": "Bethel (Destroyed)",
        "country": "Montserrat",
        "province": "Saint Georges",
        "population": -1,
        "latitude": 16.746934378906072,
        "longitude": -62.15463638305664
    },
    {
        "name": "Beech Hill",
        "country": "Montserrat",
        "province": "Saint Georges",
        "population": -1,
        "latitude": 16.734936,
        "longitude": -62.193202
    },
    {
        "name": "Banks Level",
        "country": "Montserrat",
        "province": "Saint Peter",
        "population": -1,
        "latitude": 16.786125,
        "longitude": -62.216114
    },
    {
        "name": "Amersham",
        "country": "Montserrat",
        "province": "Saint Anthony",
        "population": -1,
        "latitude": 16.70159,
        "longitude": -62.212653
    },
    {
        "name": "Hell's Gate",
        "country": "Montserrat",
        "province": "Montserrat",
        "population": -1,
        "latitude": 16.818303285778338,
        "longitude": -62.18437671661377
    },
    {
        "name": "Old Town",
        "country": "Montserrat",
        "province": "Montserrat",
        "population": -1,
        "latitude": 16.72339,
        "longitude": -62.23489
    }
]