[
    {
        "name": "Windhoek",
        "country": "Namibia",
        "province": "Khomas",
        "population": 268132,
        "latitude": -22.559409406709573,
        "longitude": 17.08322525024414
    },
    {
        "name": "Walvis Bay",
        "country": "Namibia",
        "province": "Erongo",
        "population": 52058,
        "latitude": -22.9575,
        "longitude": 14.505278
    },
    {
        "name": "Swakopmund",
        "country": "Namibia",
        "province": "Erongo",
        "population": 25047,
        "latitude": -22.67842,
        "longitude": 14.52663
    },
    {
        "name": "Rundu",
        "country": "Namibia",
        "province": "Kavango East",
        "population": 58172,
        "latitude": -17.917965,
        "longitude": 19.773143
    },
    {
        "name": "Oshakati",
        "country": "Namibia",
        "province": "Oshana",
        "population": 33618,
        "latitude": -17.78833,
        "longitude": 15.70436
    },
    {
        "name": "Katima Mulilo",
        "country": "Namibia",
        "province": "Zambezi",
        "population": 25027,
        "latitude": -17.504675,
        "longitude": 24.275735
    },
    {
        "name": "Grootfontein",
        "country": "Namibia",
        "province": "Otjozondjupa",
        "population": 24099,
        "latitude": -19.5666667,
        "longitude": 18.1166667
    },
    {
        "name": "Otjiwarongo",
        "country": "Namibia",
        "province": "Otjozondjupa",
        "population": 21224,
        "latitude": -20.4636860904718,
        "longitude": 16.647720336914062
    },
    {
        "name": "Rehoboth",
        "country": "Namibia",
        "province": "Hardap",
        "population": 21377,
        "latitude": -23.317,
        "longitude": 17.09
    },
    {
        "name": "Keetmanshoop",
        "country": "Namibia",
        "province": "Karas",
        "population": 15608,
        "latitude": -26.576545,
        "longitude": 18.133586
    },
    {
        "name": "Katutura",
        "country": "Namibia",
        "province": "Khomas",
        "population": 21243,
        "latitude": -22.523056,
        "longitude": 17.060278
    },
    {
        "name": "Okahandja",
        "country": "Namibia",
        "province": "Otjozondjupa",
        "population": 20879,
        "latitude": -21.9833333,
        "longitude": 16.9166667
    },
    {
        "name": "Mariental",
        "country": "Namibia",
        "province": "Hardap",
        "population": 13380,
        "latitude": -24.62705,
        "longitude": 17.964714
    },
    {
        "name": "Lüderitz",
        "country": "Namibia",
        "province": "Karas",
        "population": 15137,
        "latitude": -26.64807,
        "longitude": 15.15383
    },
    {
        "name": "Gobabis",
        "country": "Namibia",
        "province": "Omaheke",
        "population": 16321,
        "latitude": -22.453378,
        "longitude": 18.971592
    },
    {
        "name": "Tsumeb",
        "country": "Namibia",
        "province": "Oshikoto",
        "population": 12190,
        "latitude": -19.233333,
        "longitude": 17.716667
    },
    {
        "name": "Omuthiya",
        "country": "Namibia",
        "province": "Oshikoto",
        "population": 5000,
        "latitude": -18.36463,
        "longitude": 16.58146
    },
    {
        "name": "Omaruru",
        "country": "Namibia",
        "province": "Erongo",
        "population": 11547,
        "latitude": -21.4333333,
        "longitude": 15.9333333
    },
    {
        "name": "Nkurenkuru",
        "country": "Namibia",
        "province": "Kavango West",
        "population": -1,
        "latitude": -17.641815,
        "longitude": 18.619656
    },
    {
        "name": "Khorixas",
        "country": "Namibia",
        "province": "Kunene",
        "population": 12021,
        "latitude": -20.3666667,
        "longitude": 14.9666667
    },
    {
        "name": "Karasburg",
        "country": "Namibia",
        "province": "Karas",
        "population": 6054,
        "latitude": -28.0165767,
        "longitude": 18.74796826
    },
    {
        "name": "Eenhana",
        "country": "Namibia",
        "province": "Ohangwena",
        "population": -1,
        "latitude": -17.485354,
        "longitude": 16.329402
    },
    {
        "name": "Bethanie",
        "country": "Namibia",
        "province": "Karas",
        "population": 10363,
        "latitude": -26.4833333,
        "longitude": 17.15
    },
    {
        "name": "Outapi",
        "country": "Namibia",
        "province": "Omusati",
        "population": 2640,
        "latitude": -17.503749,
        "longitude": 14.983826
    },
    {
        "name": "Oranjemund",
        "country": "Namibia",
        "province": "Karas",
        "population": 8496,
        "latitude": -28.55,
        "longitude": 16.4333333
    },
    {
        "name": "Opuwo",
        "country": "Namibia",
        "province": "Kunene",
        "population": 5101,
        "latitude": -18.060680278128107,
        "longitude": 13.839983940124512
    },
    {
        "name": "Ondangwa",
        "country": "Namibia",
        "province": "Oshana",
        "population": 9124,
        "latitude": -17.9166667,
        "longitude": 15.95
    },
    {
        "name": "Okakarara",
        "country": "Namibia",
        "province": "Otjozondjupa",
        "population": 5255,
        "latitude": -20.5833333,
        "longitude": 17.4333333
    },
    {
        "name": "Maltahöhe",
        "country": "Namibia",
        "province": "Hardap",
        "population": 2329,
        "latitude": -24.8333333,
        "longitude": 16.9833333
    },
    {
        "name": "Karibib",
        "country": "Namibia",
        "province": "Erongo",
        "population": 6898,
        "latitude": -21.9333333,
        "longitude": 15.8333333
    },
    {
        "name": "Hoachanas",
        "country": "Namibia",
        "province": "Hardap",
        "population": 3000,
        "latitude": -23.9166667,
        "longitude": 18.05
    },
    {
        "name": "Henties Bay",
        "country": "Namibia",
        "province": "Erongo",
        "population": 3837,
        "latitude": -22.1166667,
        "longitude": 14.2833333
    },
    {
        "name": "Aranos",
        "country": "Namibia",
        "province": "Hardap",
        "population": 3430,
        "latitude": -24.1333333,
        "longitude": 19.1166667
    },
    {
        "name": "Arandis",
        "country": "Namibia",
        "province": "Erongo",
        "population": 4507,
        "latitude": -22.4166667,
        "longitude": 14.9666667
    },
    {
        "name": "Warmbad",
        "country": "Namibia",
        "province": "Karas",
        "population": 6700,
        "latitude": -28.4461132,
        "longitude": 18.73568908
    },
    {
        "name": "Usakos",
        "country": "Namibia",
        "province": "Erongo",
        "population": 9147,
        "latitude": -22,
        "longitude": 15.6
    },
    {
        "name": "Tses",
        "country": "Namibia",
        "province": "Karas",
        "population": 2000,
        "latitude": -25.8833333,
        "longitude": 18
    },
    {
        "name": "Outjo",
        "country": "Namibia",
        "province": "Kunene",
        "population": 6557,
        "latitude": -20.1166667,
        "longitude": 16.15
    },
    {
        "name": "Otjimbingwe",
        "country": "Namibia",
        "province": "Erongo",
        "population": 7677,
        "latitude": -22.35,
        "longitude": 16.1333333
    },
    {
        "name": "Otavi",
        "country": "Namibia",
        "province": "Otjozondjupa",
        "population": 4562,
        "latitude": -19.65,
        "longitude": 17.3333333
    },
    {
        "name": "Oshikango",
        "country": "Namibia",
        "province": "Ohangwena",
        "population": 2658,
        "latitude": -17.4,
        "longitude": 15.8833333
    },
    {
        "name": "Ongwediva",
        "country": "Namibia",
        "province": "Oshana",
        "population": 9654,
        "latitude": -17.7833333,
        "longitude": 15.7666667
    },
    {
        "name": "Ongandjera",
        "country": "Namibia",
        "province": "Omusati",
        "population": 2719,
        "latitude": -17.8833333,
        "longitude": 15.0666667
    },
    {
        "name": "Bagani",
        "country": "Namibia",
        "province": "Zambezi",
        "population": 2000,
        "latitude": -18.11065420485844,
        "longitude": 21.616448163986206
    },
    {
        "name": "Omuntele",
        "country": "Namibia",
        "province": "Oshikoto",
        "population": -1,
        "latitude": -18.2333333,
        "longitude": 16.2333333
    },
    {
        "name": "Omawewozonyanda",
        "country": "Namibia",
        "province": "Omaheke",
        "population": -1,
        "latitude": -21.6,
        "longitude": 19.4166667
    },
    {
        "name": "Omatjete",
        "country": "Namibia",
        "province": "Erongo",
        "population": -1,
        "latitude": -21.05,
        "longitude": 15.5
    },
    {
        "name": "Olupandu",
        "country": "Namibia",
        "province": "Omusati",
        "population": -1,
        "latitude": -17.5666667,
        "longitude": 15.5833333
    },
    {
        "name": "Olukonda",
        "country": "Namibia",
        "province": "Oshikoto",
        "population": -1,
        "latitude": -17.9833333,
        "longitude": 16.0166667
    },
    {
        "name": "Okongo",
        "country": "Namibia",
        "province": "Ohangwena",
        "population": -1,
        "latitude": -17.5666667,
        "longitude": 17.2166667
    },
    {
        "name": "Okombahe",
        "country": "Namibia",
        "province": "Erongo",
        "population": -1,
        "latitude": -21.3666667,
        "longitude": 15.3833333
    },
    {
        "name": "Okauva",
        "country": "Namibia",
        "province": "Ohangwena",
        "population": -1,
        "latitude": -17.5333333,
        "longitude": 17.0166667
    },
    {
        "name": "Okaukuejo",
        "country": "Namibia",
        "province": "Outjo",
        "population": -1,
        "latitude": -19.176301302579162,
        "longitude": 15.916099548339844
    },
    {
        "name": "Okambonde",
        "country": "Namibia",
        "province": "Kunene",
        "population": -1,
        "latitude": -19.0833333,
        "longitude": 13.9666667
    },
    {
        "name": "Okamatapati",
        "country": "Namibia",
        "province": "Otjozondjupa",
        "population": -1,
        "latitude": -20.4,
        "longitude": 18.2166667
    },
    {
        "name": "Okalongo",
        "country": "Namibia",
        "province": "Omusati",
        "population": -1,
        "latitude": -17.4333333,
        "longitude": 15.3333333
    },
    {
        "name": "Okahao",
        "country": "Namibia",
        "province": "Omusati",
        "population": 7000,
        "latitude": -17.88758,
        "longitude": 15.06677
    },
    {
        "name": "Ogongo",
        "country": "Namibia",
        "province": "Omusati",
        "population": -1,
        "latitude": -17.6666667,
        "longitude": 15.2833333
    },
    {
        "name": "Noordoewer",
        "country": "Namibia",
        "province": "Karas",
        "population": -1,
        "latitude": -28.71816589,
        "longitude": 17.621465
    },
    {
        "name": "Narubis",
        "country": "Namibia",
        "province": "Karas",
        "population": -1,
        "latitude": -26.9,
        "longitude": 18.6
    },
    {
        "name": "Namutoni",
        "country": "Namibia",
        "province": "Kunene",
        "population": -1,
        "latitude": -18.8,
        "longitude": 16.9833333
    },
    {
        "name": "Nakayale",
        "country": "Namibia",
        "province": "Omusati",
        "population": -1,
        "latitude": -17.5666667,
        "longitude": 15
    },
    {
        "name": "Mupini",
        "country": "Namibia",
        "province": "Kavango East",
        "population": -1,
        "latitude": -17.866667,
        "longitude": 19.616667
    },
    {
        "name": "Mpungu",
        "country": "Namibia",
        "province": "Kavango West",
        "population": -1,
        "latitude": -17.666667,
        "longitude": 18.233333
    },
    {
        "name": "Leonardville",
        "country": "Namibia",
        "province": "Omaheke",
        "population": -1,
        "latitude": -23.5,
        "longitude": 18.8
    },
    {
        "name": "Kosis",
        "country": "Namibia",
        "province": "Karas",
        "population": -1,
        "latitude": -26.7,
        "longitude": 17.3
    },
    {
        "name": "Kombat",
        "country": "Namibia",
        "province": "Otjozondjupa",
        "population": -1,
        "latitude": -19.7166667,
        "longitude": 17.7166667
    },
    {
        "name": "Koës",
        "country": "Namibia",
        "province": "Karas",
        "population": -1,
        "latitude": -25.95,
        "longitude": 19.1166667
    },
    {
        "name": "Klein Aub",
        "country": "Namibia",
        "province": "Hardap",
        "population": -1,
        "latitude": -23.7833333,
        "longitude": 16.6333333
    },
    {
        "name": "Kamanjab",
        "country": "Namibia",
        "province": "Kunene",
        "population": -1,
        "latitude": -19.6333333,
        "longitude": 14.8333333
    },
    {
        "name": "Kalkfeld",
        "country": "Namibia",
        "province": "Otjozondjupa",
        "population": -1,
        "latitude": -20.8833333,
        "longitude": 16.1833333
    },
    {
        "name": "Kaisosi",
        "country": "Namibia",
        "province": "Kavango East",
        "population": -1,
        "latitude": -17.9,
        "longitude": 19.816667
    },
    {
        "name": "Kahenge",
        "country": "Namibia",
        "province": "Kavango West",
        "population": -1,
        "latitude": -17.683333,
        "longitude": 18.683333
    },
    {
        "name": "Iihongo",
        "country": "Namibia",
        "province": "Oshikoto",
        "population": -1,
        "latitude": -18.05,
        "longitude": 16.1666667
    },
    {
        "name": "Hochfeld",
        "country": "Namibia",
        "province": "Otjozondjupa",
        "population": -1,
        "latitude": -21.5,
        "longitude": 17.85
    },
    {
        "name": "Helmeringhausen",
        "country": "Namibia",
        "province": "Karas",
        "population": -1,
        "latitude": -25.8833333,
        "longitude": 16.8166667
    },
    {
        "name": "Halali",
        "country": "Namibia",
        "province": "Kunene",
        "population": -1,
        "latitude": -19.03616,
        "longitude": 16.47031
    },
    {
        "name": "Grünau",
        "country": "Namibia",
        "province": "Karas",
        "population": -1,
        "latitude": -27.73369716,
        "longitude": 18.38012296
    },
    {
        "name": "Gross Barmen",
        "country": "Namibia",
        "province": "Otjozondjupa",
        "population": -1,
        "latitude": -22.1,
        "longitude": 16.75
    },
    {
        "name": "Groot Aub",
        "country": "Namibia",
        "province": "Hardap",
        "population": -1,
        "latitude": -22.9333333,
        "longitude": 17.1833333
    },
    {
        "name": "Gochas",
        "country": "Namibia",
        "province": "Hardap",
        "population": -1,
        "latitude": -24.7833333,
        "longitude": 18.8166667
    },
    {
        "name": "Gobabeb",
        "country": "Namibia",
        "province": "Erongo",
        "population": -1,
        "latitude": -23.55,
        "longitude": 15.0333333
    },
    {
        "name": "Gibeon",
        "country": "Namibia",
        "province": "Hardap",
        "population": -1,
        "latitude": -25.1333333,
        "longitude": 17.7666667
    },
    {
        "name": "Fransfontein",
        "country": "Namibia",
        "province": "Kunene",
        "population": -1,
        "latitude": -20.2166667,
        "longitude": 15.0166667
    },
    {
        "name": "Etomba",
        "country": "Namibia",
        "province": "Ohangwena",
        "population": -1,
        "latitude": -17.4333333,
        "longitude": 16.0666667
    },
    {
        "name": "Epuku",
        "country": "Namibia",
        "province": "Ohangwena",
        "population": -1,
        "latitude": -17.55,
        "longitude": 15.75
    },
    {
        "name": "Epukiro",
        "country": "Namibia",
        "province": "Omaheke",
        "population": -1,
        "latitude": -21.7,
        "longitude": 19.1166667
    },
    {
        "name": "Epinga",
        "country": "Namibia",
        "province": "Ohangwena",
        "population": -1,
        "latitude": -17.4166667,
        "longitude": 16.4166667
    },
    {
        "name": "Epembe",
        "country": "Namibia",
        "province": "Ohangwena",
        "population": -1,
        "latitude": -17.7666667,
        "longitude": 16.2
    },
    {
        "name": "Engela",
        "country": "Namibia",
        "province": "Ohangwena",
        "population": -1,
        "latitude": -17.4333333,
        "longitude": 15.8666667
    },
    {
        "name": "Elim",
        "country": "Namibia",
        "province": "Omusati",
        "population": -1,
        "latitude": -17.72866,
        "longitude": 15.49546
    },
    {
        "name": "Eheke",
        "country": "Namibia",
        "province": "Omusati",
        "population": -1,
        "latitude": -17.8333333,
        "longitude": 14.8666667
    },
    {
        "name": "Edundja",
        "country": "Namibia",
        "province": "Ohangwena",
        "population": -1,
        "latitude": -17.4166667,
        "longitude": 16
    },
    {
        "name": "Dordabis",
        "country": "Namibia",
        "province": "Khomas",
        "population": -1,
        "latitude": -22.95,
        "longitude": 17.6
    },
    {
        "name": "Döbra",
        "country": "Namibia",
        "province": "Khomas",
        "population": -1,
        "latitude": -22.333333,
        "longitude": 17.1
    },
    {
        "name": "Buitepos",
        "country": "Namibia",
        "province": "Omaheke",
        "population": -1,
        "latitude": -22.2666667,
        "longitude": 19.9833333
    },
    {
        "name": "Blouwes",
        "country": "Namibia",
        "province": "Karas",
        "population": -1,
        "latitude": -26.1333333,
        "longitude": 18.2666667
    },
    {
        "name": "Berseba",
        "country": "Namibia",
        "province": "Karas",
        "population": -1,
        "latitude": -25.9833333,
        "longitude": 17.7833333
    },
    {
        "name": "Aus",
        "country": "Namibia",
        "province": "Karas",
        "population": -1,
        "latitude": -26.6666667,
        "longitude": 16.2666667
    },
    {
        "name": "Aroab",
        "country": "Namibia",
        "province": "Karas",
        "population": -1,
        "latitude": -26.8,
        "longitude": 19.65
    },
    {
        "name": "Ariamsvlei",
        "country": "Namibia",
        "province": "Karas",
        "population": -1,
        "latitude": -28.1189488,
        "longitude": 19.83611679
    },
    {
        "name": "Anamulenge",
        "country": "Namibia",
        "province": "Omusati",
        "population": -1,
        "latitude": -17.4833333,
        "longitude": 15.0166667
    },
    {
        "name": "Aminuis",
        "country": "Namibia",
        "province": "Omaheke",
        "population": -1,
        "latitude": -23.6333333,
        "longitude": 19.3666667
    },
    {
        "name": "Ai-Ais",
        "country": "Namibia",
        "province": "Karas",
        "population": -1,
        "latitude": -27.9166667,
        "longitude": 17.4833333
    },
    {
        "name": "Abenab",
        "country": "Namibia",
        "province": "Otjozondjupa",
        "population": -1,
        "latitude": -19.2833333,
        "longitude": 18.0833333
    },
    {
        "name": "Wlotzkasbaken",
        "country": "Namibia",
        "province": "Erongo",
        "population": -1,
        "latitude": -22.4166667,
        "longitude": 14.45
    },
    {
        "name": "Witvlei",
        "country": "Namibia",
        "province": "Omaheke",
        "population": -1,
        "latitude": -22.4,
        "longitude": 18.4833333
    },
    {
        "name": "Uuvudhiya",
        "country": "Namibia",
        "province": "Omusati",
        "population": -1,
        "latitude": -18.1333333,
        "longitude": 15.4833333
    },
    {
        "name": "Uis",
        "country": "Namibia",
        "province": "Erongo",
        "population": -1,
        "latitude": -21.2166667,
        "longitude": 14.85
    },
    {
        "name": "Tsintsabis",
        "country": "Namibia",
        "province": "Oshikoto",
        "population": -1,
        "latitude": -18.7666667,
        "longitude": 17.9666667
    },
    {
        "name": "Tsandi",
        "country": "Namibia",
        "province": "Omusati",
        "population": -1,
        "latitude": -17.75,
        "longitude": 14.8833333
    },
    {
        "name": "Tondoro",
        "country": "Namibia",
        "province": "Kavango West",
        "population": -1,
        "latitude": -17.75,
        "longitude": 18.783333
    },
    {
        "name": "Stampriet",
        "country": "Namibia",
        "province": "Hardap",
        "population": -1,
        "latitude": -24.3333333,
        "longitude": 18.4
    },
    {
        "name": "Solitaire",
        "country": "Namibia",
        "province": "Khomas",
        "population": -1,
        "latitude": -23.883333,
        "longitude": 16
    },
    {
        "name": "Snyfontein",
        "country": "Namibia",
        "province": "Karas",
        "population": -1,
        "latitude": -26.45,
        "longitude": 17.8166667
    },
    {
        "name": "Sesfontein",
        "country": "Namibia",
        "province": "Kunene",
        "population": -1,
        "latitude": -19.1333333,
        "longitude": 13.6166667
    },
    {
        "name": "Sendelingsdrif",
        "country": "Namibia",
        "province": "Karas",
        "population": -1,
        "latitude": -28.16667,
        "longitude": 16.89
    },
    {
        "name": "Seeis",
        "country": "Namibia",
        "province": "Khomas",
        "population": -1,
        "latitude": -22.45,
        "longitude": 17.583333
    },
    {
        "name": "Seeheim",
        "country": "Namibia",
        "province": "Karas",
        "population": -1,
        "latitude": -26.8166667,
        "longitude": 17.7833333
    },
    {
        "name": "Schlip",
        "country": "Namibia",
        "province": "Hardap",
        "population": -1,
        "latitude": -24.0333333,
        "longitude": 17.1666667
    },
    {
        "name": "Ruacana",
        "country": "Namibia",
        "province": "Kunene",
        "population": -1,
        "latitude": -17.4333333,
        "longitude": 14.35
    },
    {
        "name": "Rietoog",
        "country": "Namibia",
        "province": "Hardap",
        "population": -1,
        "latitude": -23.9666667,
        "longitude": 16.55
    },
    {
        "name": "Pomona",
        "country": "Namibia",
        "province": "Karas",
        "population": -1,
        "latitude": -27.2,
        "longitude": 15.2833333
    },
    {
        "name": "Otjinene",
        "country": "Namibia",
        "province": "Omaheke",
        "population": -1,
        "latitude": -21.1333333,
        "longitude": 18.7666667
    },
    {
        "name": "Otjikondo",
        "country": "Namibia",
        "province": "Kunene",
        "population": -1,
        "latitude": -19.85,
        "longitude": 15.4666667
    },
    {
        "name": "Oshivelo",
        "country": "Namibia",
        "province": "Oshikoto",
        "population": -1,
        "latitude": -18.6166667,
        "longitude": 17.1666667
    },
    {
        "name": "Oshipumbu",
        "country": "Namibia",
        "province": "Oshana",
        "population": -1,
        "latitude": -18.0333333,
        "longitude": 15.7333333
    },
    {
        "name": "Oshikuku",
        "country": "Namibia",
        "province": "Omusati",
        "population": -1,
        "latitude": -17.65,
        "longitude": 15.4666667
    },
    {
        "name": "Oshigambo",
        "country": "Namibia",
        "province": "Oshikoto",
        "population": -1,
        "latitude": -17.7833333,
        "longitude": 16.0666667
    },
    {
        "name": "Oshandi",
        "country": "Namibia",
        "province": "Ohangwena",
        "population": -1,
        "latitude": -17.45,
        "longitude": 16.2
    },
    {
        "name": "Oniiwe",
        "country": "Namibia",
        "province": "Oshikoto",
        "population": -1,
        "latitude": -17.9333333,
        "longitude": 16.2666667
    },
    {
        "name": "Oniipa",
        "country": "Namibia",
        "province": "Oshikoto",
        "population": -1,
        "latitude": -17.9166667,
        "longitude": 16.0333333
    },
    {
        "name": "Onderombapa",
        "country": "Namibia",
        "province": "Omaheke",
        "population": -1,
        "latitude": -23.1833333,
        "longitude": 19.55
    },
    {
        "name": "Onankali",
        "country": "Namibia",
        "province": "Oshikoto",
        "population": -1,
        "latitude": -18.1666667,
        "longitude": 16.35
    },
    {
        "name": "Onamunhama",
        "country": "Namibia",
        "province": "Ohangwena",
        "population": -1,
        "latitude": -17.3833333,
        "longitude": 16.1
    },
    {
        "name": "Onamungundo",
        "country": "Namibia",
        "province": "Oshikoto",
        "population": -1,
        "latitude": -17.95,
        "longitude": 16.0166667
    },
    {
        "name": "Tsumkwe",
        "country": "Namibia",
        "province": "Otjozondjupa",
        "population": -1,
        "latitude": -19.6,
        "longitude": 20.5
    },
    {
        "name": "Sibinda",
        "country": "Namibia",
        "province": "Zambezi",
        "population": -1,
        "latitude": -17.7833333,
        "longitude": 23.8166667
    },
    {
        "name": "Shambyu",
        "country": "Namibia",
        "province": "Kavango East",
        "population": -1,
        "latitude": -17.9,
        "longitude": 20.016667
    },
    {
        "name": "Luhonono",
        "country": "Namibia",
        "province": "Zambezi",
        "population": -1,
        "latitude": -17.55,
        "longitude": 24.833333
    },
    {
        "name": "Sangwali",
        "country": "Namibia",
        "province": "Zambezi",
        "population": -1,
        "latitude": -18.2666667,
        "longitude": 23.6333333
    },
    {
        "name": "Nyangana",
        "country": "Namibia",
        "province": "Kavango East",
        "population": -1,
        "latitude": -18,
        "longitude": 20.683333
    },
    {
        "name": "Ngoma",
        "country": "Namibia",
        "province": "Zambezi",
        "population": -1,
        "latitude": -17.8833333,
        "longitude": 24.7166667
    },
    {
        "name": "Ndiyona",
        "country": "Namibia",
        "province": "Kavango East",
        "population": -1,
        "latitude": -18.033333,
        "longitude": 20.7
    },
    {
        "name": "Mutau",
        "country": "Namibia",
        "province": "Zambezi",
        "population": -1,
        "latitude": -18.2,
        "longitude": 23.8833333
    },
    {
        "name": "Mukwe",
        "country": "Namibia",
        "province": "Zambezi",
        "population": -1,
        "latitude": -18.0333333,
        "longitude": 21.4333333
    },
    {
        "name": "Lusikili",
        "country": "Namibia",
        "province": "Zambezi",
        "population": -1,
        "latitude": -17.55,
        "longitude": 24.4333333
    },
    {
        "name": "Linyanti",
        "country": "Namibia",
        "province": "Zambezi",
        "population": -1,
        "latitude": -18.072289,
        "longitude": 24.015656
    },
    {
        "name": "Kongola",
        "country": "Namibia",
        "province": "Zambezi",
        "population": -1,
        "latitude": -17.8,
        "longitude": 23.3833333
    },
    {
        "name": "Kabbe",
        "country": "Namibia",
        "province": "Zambezi",
        "population": -1,
        "latitude": -17.7,
        "longitude": 24.6333333
    },
    {
        "name": "Diyogha",
        "country": "Namibia",
        "province": "Zambezi",
        "population": -1,
        "latitude": -18.0833333,
        "longitude": 21.4666667
    },
    {
        "name": "Chinchimane",
        "country": "Namibia",
        "province": "Zambezi",
        "population": -1,
        "latitude": -17.9666667,
        "longitude": 24.1166667
    },
    {
        "name": "Bukalo",
        "country": "Namibia",
        "province": "Zambezi",
        "population": -1,
        "latitude": -17.7166667,
        "longitude": 24.5166667
    },
    {
        "name": "Andara",
        "country": "Namibia",
        "province": "Zambezi",
        "population": -1,
        "latitude": -18.0666667,
        "longitude": 21.45
    },
    {
        "name": "Sesriem",
        "country": "Namibia",
        "province": "Hardap",
        "population": -1,
        "latitude": -24.48692,
        "longitude": 15.80117
    },
    {
        "name": "Omagongati",
        "country": "Namibia",
        "province": "Oshana",
        "population": -1,
        "latitude": -17.91112,
        "longitude": 15.79834
    },
    {
        "name": "Ondobe Yomunghudi",
        "country": "Namibia",
        "province": "Ohangwena",
        "population": -1,
        "latitude": -17.433364,
        "longitude": 15.584271
    },
    {
        "name": "Omupanda",
        "country": "Namibia",
        "province": "Otjozondjupa",
        "population": -1,
        "latitude": -20.6,
        "longitude": 17.4666667
    },
    {
        "name": "Ompundja",
        "country": "Namibia",
        "province": "Oshana",
        "population": -1,
        "latitude": -17.9,
        "longitude": 15.7
    },
    {
        "name": "Okozonduzu",
        "country": "Namibia",
        "province": "Otjozondjupa",
        "population": -1,
        "latitude": -20.8166667,
        "longitude": 18.0333333
    },
    {
        "name": "Oamseb",
        "country": "Namibia",
        "province": "Hardap",
        "population": -1,
        "latitude": -24.0833333,
        "longitude": 18.55
    },
    {
        "name": "Nuwefontein Wes",
        "country": "Namibia",
        "province": "Karas",
        "population": -1,
        "latitude": -28.32814552,
        "longitude": 18.38738569
    },
    {
        "name": "Narachaams Pos",
        "country": "Namibia",
        "province": "Kunene",
        "population": -1,
        "latitude": -20.1833333,
        "longitude": 14.8333333
    },
    {
        "name": "Nainais",
        "country": "Namibia",
        "province": "Erongo",
        "population": -1,
        "latitude": -21.45,
        "longitude": 15.0666667
    },
    {
        "name": "Mondesa",
        "country": "Namibia",
        "province": "Erongo",
        "population": -1,
        "latitude": -22.65,
        "longitude": 14.5333333
    },
    {
        "name": "Mayenzere",
        "country": "Namibia",
        "province": "Kavango West",
        "population": -1,
        "latitude": -17.816667,
        "longitude": 19.15
    },
    {
        "name": "Mavhenge",
        "country": "Namibia",
        "province": "Kavango West",
        "population": -1,
        "latitude": -17.516667,
        "longitude": 18.5
    },
    {
        "name": "Kolmanskop",
        "country": "Namibia",
        "province": "Karas",
        "population": -1,
        "latitude": -26.7038889,
        "longitude": 15.2327778
    },
    {
        "name": "Klipheuwel",
        "country": "Namibia",
        "province": "Karas",
        "population": -1,
        "latitude": -28.15,
        "longitude": 17.2
    },
    {
        "name": "Klein Windhoek",
        "country": "Namibia",
        "province": "Khomas",
        "population": -1,
        "latitude": -22.578889,
        "longitude": 17.100833
    },
    {
        "name": "Khomasdal",
        "country": "Namibia",
        "province": "Khomas",
        "population": -1,
        "latitude": -22.541111,
        "longitude": 17.058333
    },
    {
        "name": "Kayeura",
        "country": "Namibia",
        "province": "Kavango West",
        "population": -1,
        "latitude": -17.816667,
        "longitude": 19.116667
    },
    {
        "name": "Karuchas",
        "country": "Namibia",
        "province": "Karas",
        "population": -1,
        "latitude": -28.2333333,
        "longitude": 18.3166667
    },
    {
        "name": "Kaoko Otavi",
        "country": "Namibia",
        "province": "Kunene",
        "population": -1,
        "latitude": -18.3,
        "longitude": 13.7
    },
    {
        "name": "Kalkrand",
        "country": "Namibia",
        "province": "Hardap",
        "population": -1,
        "latitude": -24.0666667,
        "longitude": 17.5833333
    },
    {
        "name": "Kais Suid",
        "country": "Namibia",
        "province": "Karas",
        "population": -1,
        "latitude": -28.469688,
        "longitude": 18.91665548
    },
    {
        "name": "Kais Noord",
        "country": "Namibia",
        "province": "Karas",
        "population": -1,
        "latitude": -28.38911264,
        "longitude": 18.85741957
    },
    {
        "name": "Huniams West",
        "country": "Namibia",
        "province": "Karas",
        "population": -1,
        "latitude": -28.32303243,
        "longitude": 18.86777455
    },
    {
        "name": "Huniam Ost",
        "country": "Namibia",
        "province": "Karas",
        "population": -1,
        "latitude": -28.27984299,
        "longitude": 19.02608014
    },
    {
        "name": "Groendoring",
        "country": "Namibia",
        "province": "Karas",
        "population": -1,
        "latitude": -28.10393231,
        "longitude": 19.26733563
    },
    {
        "name": "Hakiesdoorn",
        "country": "Namibia",
        "province": "Karas",
        "population": -1,
        "latitude": -28.8833333,
        "longitude": 18.2166667
    },
    {
        "name": "Gaobis",
        "country": "Namibia",
        "province": "Karas",
        "population": -1,
        "latitude": -28.7666667,
        "longitude": 18.35
    },
    {
        "name": "Eselsruhe",
        "country": "Namibia",
        "province": "Karas",
        "population": -1,
        "latitude": -28.75,
        "longitude": 18.8666667
    },
    {
        "name": "Elizabeth Bay",
        "country": "Namibia",
        "province": "Karas",
        "population": -1,
        "latitude": -26.9161111,
        "longitude": 15.1838889
    },
    {
        "name": "De Villiersputs",
        "country": "Namibia",
        "province": "Karas",
        "population": -1,
        "latitude": -28.07653336,
        "longitude": 19.17975896
    },
    {
        "name": "Davignab Suid",
        "country": "Namibia",
        "province": "Karas",
        "population": -1,
        "latitude": -27.5333333,
        "longitude": 19.8166667
    },
    {
        "name": "Dabegabis",
        "country": "Namibia",
        "province": "Karas",
        "population": -1,
        "latitude": -28.26749287,
        "longitude": 18.62700018
    },
    {
        "name": "Bokiesbank Ost",
        "country": "Namibia",
        "province": "Karas",
        "population": -1,
        "latitude": -28.3333333,
        "longitude": 19.3333333
    },
    {
        "name": "Xaubehunis",
        "country": "Namibia",
        "province": "Erongo",
        "population": -1,
        "latitude": -21.4166667,
        "longitude": 15.1333333
    },
    {
        "name": "Vineta",
        "country": "Namibia",
        "province": "Erongo",
        "population": -1,
        "latitude": -22.65,
        "longitude": 14.5166667
    },
    {
        "name": "Velloorsdrift",
        "country": "Namibia",
        "province": "Karas",
        "population": -1,
        "latitude": -28.75,
        "longitude": 19.25
    },
    {
        "name": "Tsamab",
        "country": "Namibia",
        "province": "Karas",
        "population": -1,
        "latitude": -28.13070055,
        "longitude": 19.23638008
    },
    {
        "name": "Swartbank",
        "country": "Namibia",
        "province": "Erongo",
        "population": -1,
        "latitude": -23.3333333,
        "longitude": 14.85
    },
    {
        "name": "Sperlingsputs",
        "country": "Namibia",
        "province": "Karas",
        "population": -1,
        "latitude": -28.7333333,
        "longitude": 18.2
    },
    {
        "name": "Soutrivier",
        "country": "Namibia",
        "province": "Erongo",
        "population": -1,
        "latitude": -23.5833333,
        "longitude": 15.0166667
    },
    {
        "name": "Siya",
        "country": "Namibia",
        "province": "Kavango West",
        "population": -1,
        "latitude": -17.866667,
        "longitude": 19.483333
    },
    {
        "name": "Simanya",
        "country": "Namibia",
        "province": "Kavango West",
        "population": -1,
        "latitude": -17.55,
        "longitude": 18.566667
    },
    {
        "name": "Ruuga",
        "country": "Namibia",
        "province": "Kavango West",
        "population": -1,
        "latitude": -17.883333,
        "longitude": 19.516667
    },
    {
        "name": "Bouvelskoen",
        "country": "Namibia",
        "province": "Karas",
        "population": -1,
        "latitude": -28.4542744,
        "longitude": 19.86009029
    },
    {
        "name": "Pionierspark",
        "country": "Namibia",
        "province": "Khomas",
        "population": -1,
        "latitude": -22.6,
        "longitude": 17.064167
    },
    {
        "name": "Pelgrimsrus",
        "country": "Namibia",
        "province": "Karas",
        "population": -1,
        "latitude": -28.85,
        "longitude": 19.0833333
    },
    {
        "name": "Otjovasandu",
        "country": "Namibia",
        "province": "Kunene",
        "population": -1,
        "latitude": -19.2333333,
        "longitude": 14.4833333
    },
    {
        "name": "Otjikuina",
        "country": "Namibia",
        "province": "Kunene",
        "population": -1,
        "latitude": -17.8833333,
        "longitude": 13.9333333
    },
    {
        "name": "Orupembe",
        "country": "Namibia",
        "province": "Kunene",
        "population": -1,
        "latitude": -18.1833333,
        "longitude": 12.5166667
    },
    {
        "name": "Oruaku",
        "country": "Namibia",
        "province": "Otjozondjupa",
        "population": -1,
        "latitude": -20.35,
        "longitude": 17.8833333
    },
    {
        "name": "Ondermatje",
        "country": "Namibia",
        "province": "Karas",
        "population": -1,
        "latitude": -28.3432954,
        "longitude": 19.42485357
    },
    {
        "name": "Onamutai",
        "country": "Namibia",
        "province": "Ohangwena",
        "population": -1,
        "latitude": -17.6833333,
        "longitude": 15.8666667
    },
    {
        "name": "Shighuru",
        "country": "Namibia",
        "province": "Kavango East",
        "population": -1,
        "latitude": -17.9,
        "longitude": 20.333333
    },
    {
        "name": "Ndongo",
        "country": "Namibia",
        "province": "Zambezi",
        "population": -1,
        "latitude": -18.0833333,
        "longitude": 21.55
    },
    {
        "name": "Mayara",
        "country": "Namibia",
        "province": "Zambezi",
        "population": -1,
        "latitude": -17.95,
        "longitude": 21.2333333
    },
    {
        "name": "Rosh Pinah",
        "country": "Namibia",
        "province": "Karas",
        "population": -1,
        "latitude": -27.966052996481675,
        "longitude": 16.76136016845703
    },
    {
        "name": "Divundu",
        "country": "Namibia",
        "province": "Kavango East",
        "population": -1,
        "latitude": -18.097305,
        "longitude": 21.547515
    },
    {
        "name": "Hakahana",
        "country": "Namibia",
        "province": "Khomas",
        "population": -1,
        "latitude": -22.5072,
        "longitude": 17.04061
    },
    {
        "name": "Windhoek West",
        "country": "Namibia",
        "province": "Khomas",
        "population": -1,
        "latitude": -22.559722,
        "longitude": 17.077778
    },
    {
        "name": "Kleine Kuppe",
        "country": "Namibia",
        "province": "Khomas",
        "population": -1,
        "latitude": -22.62153,
        "longitude": 17.102
    },
    {
        "name": "Omukondo",
        "country": "Namibia",
        "province": "Omusati",
        "population": -1,
        "latitude": -17.9666667,
        "longitude": 15.0833333
    },
    {
        "name": "Omauzongoka",
        "country": "Namibia",
        "province": "Erongo",
        "population": -1,
        "latitude": -20.8333333,
        "longitude": 15.2166667
    },
    {
        "name": "Omatjatjeva",
        "country": "Namibia",
        "province": "Otjozondjupa",
        "population": -1,
        "latitude": -20.65,
        "longitude": 17.7
    },
    {
        "name": "Omaihi",
        "country": "Namibia",
        "province": "Otjozondjupa",
        "population": -1,
        "latitude": -20.65,
        "longitude": 17.75
    },
    {
        "name": "Oluvongo",
        "country": "Namibia",
        "province": "Omusati",
        "population": -1,
        "latitude": -17.4333333,
        "longitude": 15.0666667
    },
    {
        "name": "Oluno",
        "country": "Namibia",
        "province": "Oshikoto",
        "population": -1,
        "latitude": -17.7166667,
        "longitude": 16.8
    },
    {
        "name": "Okorosave",
        "country": "Namibia",
        "province": "Kunene",
        "population": -1,
        "latitude": -18.1666667,
        "longitude": 13.8
    },
    {
        "name": "Okomutati",
        "country": "Namibia",
        "province": "Kunene",
        "population": -1,
        "latitude": -18.25,
        "longitude": 13.0833333
    },
    {
        "name": "Okeserahi Number Two",
        "country": "Namibia",
        "province": "Otjozondjupa",
        "population": -1,
        "latitude": -20.8166667,
        "longitude": 18.1333333
    },
    {
        "name": "Okavandje",
        "country": "Namibia",
        "province": "Kunene",
        "population": -1,
        "latitude": -17.5833333,
        "longitude": 13.75
    },
    {
        "name": "Okatumwama",
        "country": "Namibia",
        "province": "Otjozondjupa",
        "population": -1,
        "latitude": -19.7,
        "longitude": 18.55
    },
    {
        "name": "Okatjsoroi",
        "country": "Namibia",
        "province": "Otjozondjupa",
        "population": -1,
        "latitude": -22.1166667,
        "longitude": 17.0666667
    },
    {
        "name": "Okatjiparango",
        "country": "Namibia",
        "province": "Otjozondjupa",
        "population": -1,
        "latitude": -19.7166667,
        "longitude": 18.5833333
    },
    {
        "name": "Okapashona",
        "country": "Namibia",
        "province": "Ohangwena",
        "population": -1,
        "latitude": -17.4333333,
        "longitude": 16.6166667
    },
    {
        "name": "Okanjanga",
        "country": "Namibia",
        "province": "Khomas",
        "population": -1,
        "latitude": -22.166667,
        "longitude": 17.283333
    },
    {
        "name": "Okangeama",
        "country": "Namibia",
        "province": "Otjozondjupa",
        "population": -1,
        "latitude": -19.95,
        "longitude": 18.45
    },
    {
        "name": "Okahozu",
        "country": "Namibia",
        "province": "Kunene",
        "population": -1,
        "latitude": -17.7333333,
        "longitude": 13.8833333
    },
    {
        "name": "Okahitwa",
        "country": "Namibia",
        "province": "Otjozondjupa",
        "population": -1,
        "latitude": -20.7166667,
        "longitude": 17.65
    },
    {
        "name": "Ohohorwa",
        "country": "Namibia",
        "province": "Kunene",
        "population": -1,
        "latitude": -18.6666667,
        "longitude": 13.5
    },
    {
        "name": "Ohauyave",
        "country": "Namibia",
        "province": "Ohangwena",
        "population": -1,
        "latitude": -17.5666667,
        "longitude": 16.8
    },
    {
        "name": "Ohandungu",
        "country": "Namibia",
        "province": "Kunene",
        "population": -1,
        "latitude": -17.75,
        "longitude": 13.65
    },
    {
        "name": "Ohamakanga",
        "country": "Namibia",
        "province": "Ohangwena",
        "population": -1,
        "latitude": -17.5833333,
        "longitude": 17.35
    },
    {
        "name": "Ohaihana",
        "country": "Namibia",
        "province": "Ohangwena",
        "population": -1,
        "latitude": -17.45,
        "longitude": 16.3833333
    },
    {
        "name": "Nzinze",
        "country": "Namibia",
        "province": "Kavango West",
        "population": -1,
        "latitude": -17.816667,
        "longitude": 18.9
    },
    {
        "name": "Nuwe Modderdrift",
        "country": "Namibia",
        "province": "Karas",
        "population": -1,
        "latitude": -28.6967567,
        "longitude": 17.52556886
    },
    {
        "name": "Nungubais",
        "country": "Namibia",
        "province": "Kunene",
        "population": -1,
        "latitude": -20.0333333,
        "longitude": 15.8333333
    },
    {
        "name": "Numkaub",
        "country": "Namibia",
        "province": "Kavango West",
        "population": -1,
        "latitude": -18.6,
        "longitude": 19.683333
    },
    {
        "name": "Nqandu",
        "country": "Namibia",
        "province": "Kavango West",
        "population": -1,
        "latitude": -17.683333,
        "longitude": 18.283333
    },
    {
        "name": "Nore",
        "country": "Namibia",
        "province": "Otjozondjupa",
        "population": -1,
        "latitude": -18.95,
        "longitude": 18.7833333
    },
    {
        "name": "Ngone",
        "country": "Namibia",
        "province": "Kavango West",
        "population": -1,
        "latitude": -17.683333,
        "longitude": 18.7
    },
    {
        "name": "Ngcangcana",
        "country": "Namibia",
        "province": "Kavango East",
        "population": -1,
        "latitude": -17.983333,
        "longitude": 19.833333
    },
    {
        "name": "Nauchas",
        "country": "Namibia",
        "province": "Khomas",
        "population": -1,
        "latitude": -23.633333,
        "longitude": 16.283333
    },
    {
        "name": "Natab",
        "country": "Namibia",
        "province": "Erongo",
        "population": -1,
        "latitude": -23.6,
        "longitude": 15.0833333
    },
    {
        "name": "Mittag",
        "country": "Namibia",
        "province": "Karas",
        "population": -1,
        "latitude": -28.35,
        "longitude": 16.1333333
    },
    {
        "name": "Mbora",
        "country": "Namibia",
        "province": "Kavango West",
        "population": -1,
        "latitude": -17.933333,
        "longitude": 19.416667
    },
    {
        "name": "Mbambi",
        "country": "Namibia",
        "province": "Kavango West",
        "population": -1,
        "latitude": -17.466667,
        "longitude": 18.466667
    },
    {
        "name": "Mazwa",
        "country": "Namibia",
        "province": "Kavango West",
        "population": -1,
        "latitude": -17.816667,
        "longitude": 19.116667
    },
    {
        "name": "Mayara",
        "country": "Namibia",
        "province": "Kavango West",
        "population": -1,
        "latitude": -17.65,
        "longitude": 18.65
    },
    {
        "name": "Maroelaboom",
        "country": "Namibia",
        "province": "Otjozondjupa",
        "population": -1,
        "latitude": -19.2333333,
        "longitude": 18.8
    },
    {
        "name": "Korridor Pos Dertien",
        "country": "Namibia",
        "province": "Omaheke",
        "population": -1,
        "latitude": -23.665,
        "longitude": 19.99
    },
    {
        "name": "Korabib",
        "country": "Namibia",
        "province": "Karas",
        "population": -1,
        "latitude": -28.49332079,
        "longitude": 17.87872609
    },
    {
        "name": "Koireb",
        "country": "Namibia",
        "province": "Khomas",
        "population": -1,
        "latitude": -23.8,
        "longitude": 15.983333
    },
    {
        "name": "Katwitwi",
        "country": "Namibia",
        "province": "Kavango West",
        "population": -1,
        "latitude": -17.4,
        "longitude": 18.416667
    },
    {
        "name": "Katanda",
        "country": "Namibia",
        "province": "Kavango West",
        "population": -1,
        "latitude": -17.833333,
        "longitude": 18.933333
    },
    {
        "name": "Kasivi",
        "country": "Namibia",
        "province": "Kavango West",
        "population": -1,
        "latitude": -17.85,
        "longitude": 19.316667
    },
    {
        "name": "Karayl",
        "country": "Namibia",
        "province": "Kavango West",
        "population": -1,
        "latitude": -17.566667,
        "longitude": 18.55
    },
    {
        "name": "Karangana",
        "country": "Namibia",
        "province": "Kavango West",
        "population": -1,
        "latitude": -17.866667,
        "longitude": 19.4
    },
    {
        "name": "Kapako",
        "country": "Namibia",
        "province": "Kavango East",
        "population": -1,
        "latitude": -17.9,
        "longitude": 19.566667
    },
    {
        "name": "Kanzoni",
        "country": "Namibia",
        "province": "Kavango East",
        "population": -1,
        "latitude": -17.866667,
        "longitude": 19.666667
    },
    {
        "name": "Kanyekama",
        "country": "Namibia",
        "province": "Kavango West",
        "population": -1,
        "latitude": -17.55,
        "longitude": 18.533333
    },
    {
        "name": "Kansukwa",
        "country": "Namibia",
        "province": "Kavango East",
        "population": -1,
        "latitude": -17.933333,
        "longitude": 19.7
    },
    {
        "name": "Kanebis",
        "country": "Namibia",
        "province": "Karas",
        "population": -1,
        "latitude": -27.79875279,
        "longitude": 17.8672109
    },
    {
        "name": "Kakatswa Onguati",
        "country": "Namibia",
        "province": "Kunene",
        "population": -1,
        "latitude": -19.7666667,
        "longitude": 14.6333333
    },
    {
        "name": "Iiputu",
        "country": "Namibia",
        "province": "Ohangwena",
        "population": -1,
        "latitude": -17.6,
        "longitude": 15.6166667
    },
    {
        "name": "Iindangungu",
        "country": "Namibia",
        "province": "Oshana",
        "population": -1,
        "latitude": -17.7833333,
        "longitude": 15.9666667
    },
    {
        "name": "Huitsib",
        "country": "Namibia",
        "province": "Karas",
        "population": -1,
        "latitude": -26.1333333,
        "longitude": 17.6833333
    },
    {
        "name": "Hildenhof",
        "country": "Namibia",
        "province": "Erongo",
        "population": -1,
        "latitude": -22.7,
        "longitude": 14.8333333
    },
    {
        "name": "Halili",
        "country": "Namibia",
        "province": "Kavango West",
        "population": -1,
        "latitude": -17.866667,
        "longitude": 19.416667
    },
    {
        "name": "Haisisira",
        "country": "Namibia",
        "province": "Kavango West",
        "population": -1,
        "latitude": -17.833333,
        "longitude": 19.083333
    },
    {
        "name": "Haigamkab",
        "country": "Namibia",
        "province": "Erongo",
        "population": -1,
        "latitude": -22.7,
        "longitude": 14.9
    },
    {
        "name": "Gorooab West",
        "country": "Namibia",
        "province": "Oshikoto",
        "population": -1,
        "latitude": -18.8666667,
        "longitude": 18
    },
    {
        "name": "Gocheganas",
        "country": "Namibia",
        "province": "Khomas",
        "population": -1,
        "latitude": -22.8,
        "longitude": 17.133333
    },
    {
        "name": "Geigoab",
        "country": "Namibia",
        "province": "Karas",
        "population": -1,
        "latitude": -27.0666667,
        "longitude": 17.2666667
    },
    {
        "name": "Gcwagi",
        "country": "Namibia",
        "province": "Kavango West",
        "population": -1,
        "latitude": -17.833333,
        "longitude": 19.15
    },
    {
        "name": "Gcagcawe",
        "country": "Namibia",
        "province": "Kavango West",
        "population": -1,
        "latitude": -18.166667,
        "longitude": 19.15
    },
    {
        "name": "Etope-Lya Simpungu",
        "country": "Namibia",
        "province": "Kavango West",
        "population": -1,
        "latitude": -17.516667,
        "longitude": 18.3
    },
    {
        "name": "Etilyasa",
        "country": "Namibia",
        "province": "Omusati",
        "population": -1,
        "latitude": -17.9666667,
        "longitude": 15.15
    },
    {
        "name": "Etengwa",
        "country": "Namibia",
        "province": "Kunene",
        "population": -1,
        "latitude": -17.4833333,
        "longitude": 13.05
    },
    {
        "name": "Erakarombi",
        "country": "Namibia",
        "province": "Otjozondjupa",
        "population": -1,
        "latitude": -20.3,
        "longitude": 17.9666667
    },
    {
        "name": "Epupa",
        "country": "Namibia",
        "province": "Otjozondjupa",
        "population": -1,
        "latitude": -20.6,
        "longitude": 15.6333333
    },
    {
        "name": "Epasha",
        "country": "Namibia",
        "province": "Ohangwena",
        "population": -1,
        "latitude": -17.4666667,
        "longitude": 16.6166667
    },
    {
        "name": "Elandsdraai",
        "country": "Namibia",
        "province": "Karas",
        "population": -1,
        "latitude": -28.1833333,
        "longitude": 19.5166667
    },
    {
        "name": "Ebeneser",
        "country": "Namibia",
        "province": "Kavango East",
        "population": -1,
        "latitude": -17.866667,
        "longitude": 19.566667
    },
    {
        "name": "Duwisib",
        "country": "Namibia",
        "province": "Hardap",
        "population": -1,
        "latitude": -25.25,
        "longitude": 16.5166667
    },
    {
        "name": "Duurdrift Süd",
        "country": "Namibia",
        "province": "Karas",
        "population": -1,
        "latitude": -28.35,
        "longitude": 19.366667
    },
    {
        "name": "Dreihuk",
        "country": "Namibia",
        "province": "Karas",
        "population": -1,
        "latitude": -28.10742582,
        "longitude": 18.61433102
    },
    {
        "name": "Chrisjansputs",
        "country": "Namibia",
        "province": "Karas",
        "population": -1,
        "latitude": -28.09305669,
        "longitude": 18.26544344
    },
    {
        "name": "Charliesputs",
        "country": "Namibia",
        "province": "Karas",
        "population": -1,
        "latitude": -28.08997548,
        "longitude": 19.67590685
    },
    {
        "name": "Cape Cross",
        "country": "Namibia",
        "province": "Erongo",
        "population": -1,
        "latitude": -21.75978,
        "longitude": 13.96723
    },
    {
        "name": "Bruinheuwel",
        "country": "Namibia",
        "province": "Karas",
        "population": -1,
        "latitude": -28.46751155,
        "longitude": 18.17366367
    },
    {
        "name": "Anichab",
        "country": "Namibia",
        "province": "Erongo",
        "population": -1,
        "latitude": -23.35,
        "longitude": 14.5166667
    },
    {
        "name": "Angras Juntas",
        "country": "Namibia",
        "province": "Karas",
        "population": -1,
        "latitude": -27.65,
        "longitude": 15.55
    },
    {
        "name": "Aminuis",
        "country": "Namibia",
        "province": "Omaheke",
        "population": -1,
        "latitude": -23.7166667,
        "longitude": 19.35
    },
    {
        "name": "Amasbank",
        "country": "Namibia",
        "province": "Erongo",
        "population": -1,
        "latitude": -21.1166667,
        "longitude": 15.0666667
    },
    {
        "name": "Aluriesfontein",
        "country": "Namibia",
        "province": "Karas",
        "population": -1,
        "latitude": -28.5333333,
        "longitude": 18.7
    },
    {
        "name": "Ababis Guest Farm",
        "country": "Namibia",
        "province": "Hardap",
        "population": -1,
        "latitude": -23.98103,
        "longitude": 16.09277
    },
    {
        "name": "Ysterputs",
        "country": "Namibia",
        "province": "Karas",
        "population": -1,
        "latitude": -28.23517847,
        "longitude": 18.09357867
    },
    {
        "name": "Witputs",
        "country": "Namibia",
        "province": "Karas",
        "population": -1,
        "latitude": -27.6166667,
        "longitude": 16.7333333
    },
    {
        "name": "Waterberg",
        "country": "Namibia",
        "province": "Otjozondjupa",
        "population": -1,
        "latitude": -20.5166667,
        "longitude": 17.2333333
    },
    {
        "name": "Wadili",
        "country": "Namibia",
        "province": "Kavango West",
        "population": -1,
        "latitude": -17.833333,
        "longitude": 19.183333
    },
    {
        "name": "Vlissingen Suid",
        "country": "Namibia",
        "province": "Karas",
        "population": -1,
        "latitude": -28.12761047,
        "longitude": 19.30935736
    },
    {
        "name": "Vlissingen Noord",
        "country": "Namibia",
        "province": "Karas",
        "population": -1,
        "latitude": -28.04515006,
        "longitude": 19.32290529
    },
    {
        "name": "Valhalla",
        "country": "Namibia",
        "province": "Khomas",
        "population": -1,
        "latitude": -22.706944,
        "longitude": 17.088889
    },
    {
        "name": "Uvungu-vungu",
        "country": "Namibia",
        "province": "Kavango East",
        "population": -1,
        "latitude": -17.9,
        "longitude": 19.833333
    },
    {
        "name": "Uukwiwongwe",
        "country": "Namibia",
        "province": "Oshana",
        "population": -1,
        "latitude": -17.8666667,
        "longitude": 15.6333333
    },
    {
        "name": "Tsaobis",
        "country": "Namibia",
        "province": "Erongo",
        "population": -1,
        "latitude": -22.5166667,
        "longitude": 15.85
    },
    {
        "name": "Tomakas",
        "country": "Namibia",
        "province": "Kunene",
        "population": -1,
        "latitude": -18.9,
        "longitude": 13.2833333
    },
    {
        "name": "Toekoms",
        "country": "Namibia",
        "province": "Karas",
        "population": -1,
        "latitude": -28.04210994,
        "longitude": 19.11967479
    },
    {
        "name": "Sperlingsputs",
        "country": "Namibia",
        "province": "Karas",
        "population": -1,
        "latitude": -28.6833333,
        "longitude": 18.2166667
    },
    {
        "name": "Skuit Drift Cattle Post",
        "country": "Namibia",
        "province": "Karas",
        "population": -1,
        "latitude": -28.5166667,
        "longitude": 19.7
    },
    {
        "name": "Sivara",
        "country": "Namibia",
        "province": "Kavango West",
        "population": -1,
        "latitude": -17.85,
        "longitude": 19.333333
    },
    {
        "name": "Siudiva",
        "country": "Namibia",
        "province": "Kavango West",
        "population": -1,
        "latitude": -17.666667,
        "longitude": 18.666667
    },
    {
        "name": "Sinsogoro",
        "country": "Namibia",
        "province": "Kavango West",
        "population": -1,
        "latitude": -17.85,
        "longitude": 19.5
    },
    {
        "name": "Silwerstroom",
        "country": "Namibia",
        "province": "Karas",
        "population": -1,
        "latitude": -28.8833333,
        "longitude": 18.2666667
    },
    {
        "name": "Sikondo",
        "country": "Namibia",
        "province": "Kavango East",
        "population": -1,
        "latitude": -17.866667,
        "longitude": 19.633333
    },
    {
        "name": "Sikenge",
        "country": "Namibia",
        "province": "Kavango West",
        "population": -1,
        "latitude": -17.816667,
        "longitude": 18.966667
    },
    {
        "name": "Shinguruve",
        "country": "Namibia",
        "province": "Kavango East",
        "population": -1,
        "latitude": -18.066667,
        "longitude": 19.733333
    },
    {
        "name": "Sharukwe",
        "country": "Namibia",
        "province": "Kavango East",
        "population": -1,
        "latitude": -18.016667,
        "longitude": 19.733333
    },
    {
        "name": "Sarusungu",
        "country": "Namibia",
        "province": "Kavango East",
        "population": -1,
        "latitude": -17.883333,
        "longitude": 19.8
    },
    {
        "name": "Sambusu",
        "country": "Namibia",
        "province": "Kavango West",
        "population": -1,
        "latitude": -17.85,
        "longitude": 19.333333
    },
    {
        "name": "Saigcakate",
        "country": "Namibia",
        "province": "Kavango West",
        "population": -1,
        "latitude": -17.866667,
        "longitude": 19.483333
    },
    {
        "name": "Rukanko",
        "country": "Namibia",
        "province": "Kavango West",
        "population": -1,
        "latitude": -17.683333,
        "longitude": 18.666667
    },
    {
        "name": "Richthofen",
        "country": "Namibia",
        "province": "Khomas",
        "population": -1,
        "latitude": -22.533333,
        "longitude": 17.75
    },
    {
        "name": "Pollux",
        "country": "Namibia",
        "province": "Karas",
        "population": -1,
        "latitude": -28.36684796,
        "longitude": 18.25865042
    },
    {
        "name": "Ozonvanga",
        "country": "Namibia",
        "province": "Otjozondjupa",
        "population": -1,
        "latitude": -19.75,
        "longitude": 18.75
    },
    {
        "name": "Ovinyuru",
        "country": "Namibia",
        "province": "Omaheke",
        "population": -1,
        "latitude": -21.5166667,
        "longitude": 19.6666667
    },
    {
        "name": "Oukongo",
        "country": "Namibia",
        "province": "Kunene",
        "population": -1,
        "latitude": -17.9833333,
        "longitude": 13.8333333
    },
    {
        "name": "Otuvinga",
        "country": "Namibia",
        "province": "Otjozondjupa",
        "population": -1,
        "latitude": -20.5833333,
        "longitude": 17.8166667
    },
    {
        "name": "Otuvare",
        "country": "Namibia",
        "province": "Kunene",
        "population": -1,
        "latitude": -18.35,
        "longitude": 13.5
    },
    {
        "name": "Otjiyere",
        "country": "Namibia",
        "province": "Omaheke",
        "population": -1,
        "latitude": -21.6166667,
        "longitude": 19.5833333
    },
    {
        "name": "Otjiwetjombungu",
        "country": "Namibia",
        "province": "Omaheke",
        "population": -1,
        "latitude": -21.3333333,
        "longitude": 19.1333333
    },
    {
        "name": "Otjiu",
        "country": "Namibia",
        "province": "Kunene",
        "population": -1,
        "latitude": -18.25,
        "longitude": 13.25
    },
    {
        "name": "Otjirareni",
        "country": "Namibia",
        "province": "Kunene",
        "population": -1,
        "latitude": -18.6333333,
        "longitude": 13.35
    },
    {
        "name": "Otjinanwa",
        "country": "Namibia",
        "province": "Kunene",
        "population": -1,
        "latitude": -18.6166667,
        "longitude": 13.5333333
    },
    {
        "name": "Oshitayi",
        "country": "Namibia",
        "province": "Oshikoto",
        "population": -1,
        "latitude": -17.9,
        "longitude": 16.0166667
    },
    {
        "name": "Oshitayi",
        "country": "Namibia",
        "province": "Oshana",
        "population": -1,
        "latitude": -17.85,
        "longitude": 15.9833333
    },
    {
        "name": "Oshimanya",
        "country": "Namibia",
        "province": "Omusati",
        "population": -1,
        "latitude": -17.9166667,
        "longitude": 15.0333333
    },
    {
        "name": "Orotjitombo",
        "country": "Namibia",
        "province": "Kunene",
        "population": -1,
        "latitude": -18.0166667,
        "longitude": 13.6666667
    },
    {
        "name": "Ongombombonde",
        "country": "Namibia",
        "province": "Otjozondjupa",
        "population": -1,
        "latitude": -20.5666667,
        "longitude": 17.5166667
    },
    {
        "name": "Ondundotjivapa",
        "country": "Namibia",
        "province": "Erongo",
        "population": -1,
        "latitude": -20.7166667,
        "longitude": 15.45
    },
    {
        "name": "Ondaanda",
        "country": "Namibia",
        "province": "Ohangwena",
        "population": -1,
        "latitude": -17.5,
        "longitude": 16.25
    },
    {
        "name": "Onanghulo",
        "country": "Namibia",
        "province": "Ohangwena",
        "population": -1,
        "latitude": -17.5666667,
        "longitude": 15.8166667
    },
    {
        "name": "Onamutene",
        "country": "Namibia",
        "province": "Oshikoto",
        "population": -1,
        "latitude": -17.8333333,
        "longitude": 16.1666667
    },
    {
        "name": "Yishesha",
        "country": "Namibia",
        "province": "Zambezi",
        "population": -1,
        "latitude": -17.75,
        "longitude": 22.8166667
    },
    {
        "name": "Tjova",
        "country": "Namibia",
        "province": "Zambezi",
        "population": -1,
        "latitude": -17.95,
        "longitude": 21.0333333
    },
    {
        "name": "Tjeye",
        "country": "Namibia",
        "province": "Kavango East",
        "population": -1,
        "latitude": -17.9,
        "longitude": 20.1
    },
    {
        "name": "Thovega",
        "country": "Namibia",
        "province": "Zambezi",
        "population": -1,
        "latitude": -18.15,
        "longitude": 21.6833333
    },
    {
        "name": "Thinyemba",
        "country": "Namibia",
        "province": "Zambezi",
        "population": -1,
        "latitude": -17.9833333,
        "longitude": 21.2833333
    },
    {
        "name": "Sishekesabanyia",
        "country": "Namibia",
        "province": "Zambezi",
        "population": -1,
        "latitude": -17.8833333,
        "longitude": 24.6
    },
    {
        "name": "Simajumbulas",
        "country": "Namibia",
        "province": "Zambezi",
        "population": -1,
        "latitude": -17.7333333,
        "longitude": 23.95
    },
    {
        "name": "Shitembo",
        "country": "Namibia",
        "province": "Kavango East",
        "population": -1,
        "latitude": -17.983333,
        "longitude": 20.55
    },
    {
        "name": "Shinyungwe",
        "country": "Namibia",
        "province": "Kavango East",
        "population": -1,
        "latitude": -18.016667,
        "longitude": 20.866667
    },
    {
        "name": "Shighuru",
        "country": "Namibia",
        "province": "Kavango East",
        "population": -1,
        "latitude": -17.9,
        "longitude": 20.383333
    },
    {
        "name": "Shangando",
        "country": "Namibia",
        "province": "Zambezi",
        "population": -1,
        "latitude": -18.1166667,
        "longitude": 21.6666667
    },
    {
        "name": "Sekubis",
        "country": "Namibia",
        "province": "Zambezi",
        "population": -1,
        "latitude": -17.7166667,
        "longitude": 23.95
    },
    {
        "name": "Sapelapela",
        "country": "Namibia",
        "province": "Zambezi",
        "population": -1,
        "latitude": -17.75,
        "longitude": 23.85
    },
    {
        "name": "Samakapi",
        "country": "Namibia",
        "province": "Kavango East",
        "population": -1,
        "latitude": -17.9,
        "longitude": 20.15
    },
    {
        "name": "Rundjarara",
        "country": "Namibia",
        "province": "Kavango East",
        "population": -1,
        "latitude": -17.9,
        "longitude": 20.233333
    },
    {
        "name": "Rudhiva",
        "country": "Namibia",
        "province": "Zambezi",
        "population": -1,
        "latitude": -17.9833333,
        "longitude": 21.35
    },
    {
        "name": "Rietfontein",
        "country": "Namibia",
        "province": "Omaheke",
        "population": -1,
        "latitude": -21.9,
        "longitude": 20.9166667
    },
    {
        "name": "Perepere",
        "country": "Namibia",
        "province": "Zambezi",
        "population": -1,
        "latitude": -17.65,
        "longitude": 24.9333333
    },
    {
        "name": "Ndonga",
        "country": "Namibia",
        "province": "Kavango East",
        "population": -1,
        "latitude": -17.95,
        "longitude": 20.466667
    },
    {
        "name": "Muyoba",
        "country": "Namibia",
        "province": "Zambezi",
        "population": -1,
        "latitude": -17.7833333,
        "longitude": 24.3166667
    },
    {
        "name": "Muyoba",
        "country": "Namibia",
        "province": "Zambezi",
        "population": -1,
        "latitude": -17.6666667,
        "longitude": 24.6166667
    },
    {
        "name": "Mushovoyi",
        "country": "Namibia",
        "province": "Kavango East",
        "population": -1,
        "latitude": -17.916667,
        "longitude": 20.083333
    },
    {
        "name": "Muneambuanas",
        "country": "Namibia",
        "province": "Zambezi",
        "population": -1,
        "latitude": -18.1166667,
        "longitude": 23.4
    },
    {
        "name": "Mukawa",
        "country": "Namibia",
        "province": "Zambezi",
        "population": -1,
        "latitude": -17.8333333,
        "longitude": 24.2166667
    },
    {
        "name": "Mukassa",
        "country": "Namibia",
        "province": "Zambezi",
        "population": -1,
        "latitude": -17.7833333,
        "longitude": 24.45
    },
    {
        "name": "Mpapuka",
        "country": "Namibia",
        "province": "Zambezi",
        "population": -1,
        "latitude": -17.9333333,
        "longitude": 21.1166667
    },
    {
        "name": "Mbambi",
        "country": "Namibia",
        "province": "Zambezi",
        "population": -1,
        "latitude": -17.9833333,
        "longitude": 21
    },
    {
        "name": "Maulukupeka",
        "country": "Namibia",
        "province": "Zambezi",
        "population": -1,
        "latitude": -17.7333333,
        "longitude": 24.1666667
    },
    {
        "name": "Matongos",
        "country": "Namibia",
        "province": "Zambezi",
        "population": -1,
        "latitude": -17.7333333,
        "longitude": 23.8833333
    },
    {
        "name": "Matengu",
        "country": "Namibia",
        "province": "Zambezi",
        "population": -1,
        "latitude": -18.1666667,
        "longitude": 23.9333333
    },
    {
        "name": "Mashari",
        "country": "Namibia",
        "province": "Kavango East",
        "population": -1,
        "latitude": -17.9,
        "longitude": 20.133333
    },
    {
        "name": "Mamili",
        "country": "Namibia",
        "province": "Zambezi",
        "population": -1,
        "latitude": -18.0333333,
        "longitude": 24.0166667
    },
    {
        "name": "Malinde",
        "country": "Namibia",
        "province": "Zambezi",
        "population": -1,
        "latitude": -17.5666667,
        "longitude": 24.7
    },
    {
        "name": "Makando",
        "country": "Namibia",
        "province": "Kavango East",
        "population": -1,
        "latitude": -17.966667,
        "longitude": 20.45
    },
    {
        "name": "Mahango",
        "country": "Namibia",
        "province": "Zambezi",
        "population": -1,
        "latitude": -18.15,
        "longitude": 21.7
    },
    {
        "name": "Mabushe",
        "country": "Namibia",
        "province": "Kavango East",
        "population": -1,
        "latitude": -17.9,
        "longitude": 20.4
    },
    {
        "name": "Lusese",
        "country": "Namibia",
        "province": "Zambezi",
        "population": -1,
        "latitude": -17.7166667,
        "longitude": 24.7833333
    },
    {
        "name": "Kwando",
        "country": "Namibia",
        "province": "Zambezi",
        "population": -1,
        "latitude": -17.7,
        "longitude": 23.4833333
    },
    {
        "name": "Kora",
        "country": "Namibia",
        "province": "Kavango East",
        "population": -1,
        "latitude": -18.033333,
        "longitude": 20.316667
    },
    {
        "name": "Kayanga",
        "country": "Namibia",
        "province": "Zambezi",
        "population": -1,
        "latitude": -17.9666667,
        "longitude": 21.2333333
    },
    {
        "name": "Katungu",
        "country": "Namibia",
        "province": "Zambezi",
        "population": -1,
        "latitude": -17.7166667,
        "longitude": 24.0166667
    },
    {
        "name": "Kapupayedi",
        "country": "Namibia",
        "province": "Kavango East",
        "population": -1,
        "latitude": -18.15,
        "longitude": 20.283333
    },
    {
        "name": "Kandenga",
        "country": "Namibia",
        "province": "Kavango East",
        "population": -1,
        "latitude": -18,
        "longitude": 20.6
    },
    {
        "name": "Kabula",
        "country": "Namibia",
        "province": "Zambezi",
        "population": -1,
        "latitude": -17.8166667,
        "longitude": 24.8166667
    },
    {
        "name": "Ivoma",
        "country": "Namibia",
        "province": "Zambezi",
        "population": -1,
        "latitude": -17.95,
        "longitude": 24.6333333
    },
    {
        "name": "Gove",
        "country": "Namibia",
        "province": "Kavango East",
        "population": -1,
        "latitude": -17.9,
        "longitude": 20.016667
    },
    {
        "name": "Gaucha",
        "country": "Namibia",
        "province": "Zambezi",
        "population": -1,
        "latitude": -17.8166667,
        "longitude": 22.8333333
    },
    {
        "name": "Catjo",
        "country": "Namibia",
        "province": "Zambezi",
        "population": -1,
        "latitude": -18.1,
        "longitude": 21.6
    },
    {
        "name": "Butjana",
        "country": "Namibia",
        "province": "Zambezi",
        "population": -1,
        "latitude": -17.85,
        "longitude": 24.3666667
    },
    {
        "name": "Asab",
        "country": "Namibia",
        "province": "Hardap",
        "population": -1,
        "latitude": -25.46563,
        "longitude": 17.95316
    },
    {
        "name": "Tseiblaagte",
        "country": "Namibia",
        "province": "Karas",
        "population": -1,
        "latitude": -26.575681,
        "longitude": 18.144612
    },
    {
        "name": "Okonjati",
        "country": "Namibia",
        "province": "Otjozondjupa",
        "population": -1,
        "latitude": -20.85015,
        "longitude": 16.65167
    },
    {
        "name": "Omuthitugwonyama",
        "country": "Namibia",
        "province": "Omusati",
        "population": -1,
        "latitude": -17.5166667,
        "longitude": 15.2666667
    },
    {
        "name": "Omuthitu",
        "country": "Namibia",
        "province": "Omusati",
        "population": -1,
        "latitude": -17.8333333,
        "longitude": 15.1
    },
    {
        "name": "Omuthima",
        "country": "Namibia",
        "province": "Omusati",
        "population": -1,
        "latitude": -18.0833333,
        "longitude": 15.1
    },
    {
        "name": "Omutala",
        "country": "Namibia",
        "province": "Oshana",
        "population": -1,
        "latitude": -18.05,
        "longitude": 15.85
    },
    {
        "name": "Omusimboti",
        "country": "Namibia",
        "province": "Oshana",
        "population": -1,
        "latitude": -17.9,
        "longitude": 15.75
    },
    {
        "name": "Omushilawombadje",
        "country": "Namibia",
        "province": "Ohangwena",
        "population": -1,
        "latitude": -17.6333333,
        "longitude": 16.8666667
    },
    {
        "name": "Omushigo",
        "country": "Namibia",
        "province": "Ohangwena",
        "population": -1,
        "latitude": -17.65,
        "longitude": 17.1333333
    },
    {
        "name": "Omusheshe",
        "country": "Namibia",
        "province": "Ohangwena",
        "population": -1,
        "latitude": -17.6833333,
        "longitude": 15.75
    },
    {
        "name": "Omushakala",
        "country": "Namibia",
        "province": "Ohangwena",
        "population": -1,
        "latitude": -17.3833333,
        "longitude": 17.25
    },
    {
        "name": "Omuramba",
        "country": "Namibia",
        "province": "Kunene",
        "population": -1,
        "latitude": -17.2,
        "longitude": 13.2166667
    },
    {
        "name": "Omupumba",
        "country": "Namibia",
        "province": "Oshikoto",
        "population": -1,
        "latitude": -17.7666667,
        "longitude": 16.0833333
    },
    {
        "name": "Omupini",
        "country": "Namibia",
        "province": "Ohangwena",
        "population": -1,
        "latitude": -17.6666667,
        "longitude": 17.4833333
    },
    {
        "name": "Omupembe",
        "country": "Namibia",
        "province": "Ohangwena",
        "population": -1,
        "latitude": -17.5666667,
        "longitude": 17.1333333
    },
    {
        "name": "Omupanda",
        "country": "Namibia",
        "province": "Oshikoto",
        "population": -1,
        "latitude": -18.4333333,
        "longitude": 16.7666667
    },
    {
        "name": "Omupanda",
        "country": "Namibia",
        "province": "Oshana",
        "population": -1,
        "latitude": -17.7,
        "longitude": 15.8
    },
    {
        "name": "Omunyekadi",
        "country": "Namibia",
        "province": "Ohangwena",
        "population": -1,
        "latitude": -17.4833333,
        "longitude": 16.0666667
    },
    {
        "name": "Omunyankwe",
        "country": "Namibia",
        "province": "Oshikoto",
        "population": -1,
        "latitude": -17.95,
        "longitude": 16.5
    },
    {
        "name": "Omunwandjai",
        "country": "Namibia",
        "province": "Kunene",
        "population": -1,
        "latitude": -18.5666667,
        "longitude": 13.9333333
    },
    {
        "name": "Omunkayi",
        "country": "Namibia",
        "province": "Oshikoto",
        "population": -1,
        "latitude": -17.7166667,
        "longitude": 17.2666667
    },
    {
        "name": "Omunjereke",
        "country": "Namibia",
        "province": "Khomas",
        "population": -1,
        "latitude": -22.333333,
        "longitude": 17.583333
    },
    {
        "name": "Omungwindi",
        "country": "Namibia",
        "province": "Kunene",
        "population": -1,
        "latitude": -17.7833333,
        "longitude": 12.8833333
    },
    {
        "name": "Omungwelume",
        "country": "Namibia",
        "province": "Ohangwena",
        "population": -1,
        "latitude": -17.5,
        "longitude": 15.6333333
    },
    {
        "name": "Omungunda",
        "country": "Namibia",
        "province": "Kunene",
        "population": -1,
        "latitude": -18.2333333,
        "longitude": 13.4333333
    },
    {
        "name": "Omungholyo",
        "country": "Namibia",
        "province": "Ohangwena",
        "population": -1,
        "latitude": -17.4166667,
        "longitude": 16.15
    },
    {
        "name": "Omunduungio",
        "country": "Namibia",
        "province": "Oshikoto",
        "population": -1,
        "latitude": -17.8,
        "longitude": 16.0666667
    },
    {
        "name": "Omundudu",
        "country": "Namibia",
        "province": "Ohangwena",
        "population": -1,
        "latitude": -17.55,
        "longitude": 15.6833333
    },
    {
        "name": "Omundaungilo",
        "country": "Namibia",
        "province": "Ohangwena",
        "population": -1,
        "latitude": -17.4166667,
        "longitude": 16.7
    },
    {
        "name": "Omulonga",
        "country": "Namibia",
        "province": "Ohangwena",
        "population": -1,
        "latitude": -17.6,
        "longitude": 16.7833333
    },
    {
        "name": "Omulonga",
        "country": "Namibia",
        "province": "Ohangwena",
        "population": -1,
        "latitude": -17.5666667,
        "longitude": 16.8666667
    },
    {
        "name": "Omulonga",
        "country": "Namibia",
        "province": "Ohangwena",
        "population": -1,
        "latitude": -17.4666667,
        "longitude": 16.85
    },
    {
        "name": "Omulamba",
        "country": "Namibia",
        "province": "Ohangwena",
        "population": -1,
        "latitude": -17.5833333,
        "longitude": 17.2
    },
    {
        "name": "Omukurukaze",
        "country": "Namibia",
        "province": "Kunene",
        "population": -1,
        "latitude": -17.95,
        "longitude": 13.4666667
    },
    {
        "name": "Omukurukaze",
        "country": "Namibia",
        "province": "Kunene",
        "population": -1,
        "latitude": -17.2833333,
        "longitude": 12.7166667
    },
    {
        "name": "Omukukutu",
        "country": "Namibia",
        "province": "Ohangwena",
        "population": -1,
        "latitude": -17.6,
        "longitude": 17.0833333
    },
    {
        "name": "Omukukutu",
        "country": "Namibia",
        "province": "Ohangwena",
        "population": -1,
        "latitude": -17.4833333,
        "longitude": 16.8833333
    },
    {
        "name": "Omuhiva",
        "country": "Namibia",
        "province": "Kunene",
        "population": -1,
        "latitude": -18.4166667,
        "longitude": 13.4666667
    },
    {
        "name": "Omuhanguzi",
        "country": "Namibia",
        "province": "Kunene",
        "population": -1,
        "latitude": -17.8333333,
        "longitude": 13.4333333
    },
    {
        "name": "Omufiya",
        "country": "Namibia",
        "province": "Ohangwena",
        "population": -1,
        "latitude": -17.4333333,
        "longitude": 16.8833333
    },
    {
        "name": "Omuditu",
        "country": "Namibia",
        "province": "Omusati",
        "population": -1,
        "latitude": -17.5,
        "longitude": 15.1
    },
    {
        "name": "Ompunda",
        "country": "Namibia",
        "province": "Oshana",
        "population": -1,
        "latitude": -18.0333333,
        "longitude": 15.8833333
    },
    {
        "name": "Ompangela",
        "country": "Namibia",
        "province": "Oshikoto",
        "population": -1,
        "latitude": -18.2166667,
        "longitude": 16.1833333
    },
    {
        "name": "Ompandakani",
        "country": "Namibia",
        "province": "Oshana",
        "population": -1,
        "latitude": -18,
        "longitude": 15.8333333
    },
    {
        "name": "Ompanda",
        "country": "Namibia",
        "province": "Oshikoto",
        "population": -1,
        "latitude": -18.2666667,
        "longitude": 16.25
    },
    {
        "name": "Omkwa",
        "country": "Namibia",
        "province": "Omusati",
        "population": -1,
        "latitude": -17.7,
        "longitude": 15.4833333
    },
    {
        "name": "Omizema",
        "country": "Namibia",
        "province": "Erongo",
        "population": -1,
        "latitude": -20.8,
        "longitude": 15.1666667
    },
    {
        "name": "Omitjira",
        "country": "Namibia",
        "province": "Erongo",
        "population": -1,
        "latitude": -21.0833333,
        "longitude": 15.3333333
    },
    {
        "name": "Omitjete",
        "country": "Namibia",
        "province": "Otjozondjupa",
        "population": -1,
        "latitude": -20.1666667,
        "longitude": 18.3166667
    },
    {
        "name": "Omitivine",
        "country": "Namibia",
        "province": "Omaheke",
        "population": -1,
        "latitude": -23.3333333,
        "longitude": 19.35
    },
    {
        "name": "Omitara",
        "country": "Namibia",
        "province": "Omaheke",
        "population": -1,
        "latitude": -22.2833333,
        "longitude": 18.0166667
    },
    {
        "name": "Omingondo",
        "country": "Namibia",
        "province": "Otjozondjupa",
        "population": -1,
        "latitude": -20.4333333,
        "longitude": 17.85
    },
    {
        "name": "Omindamba",
        "country": "Namibia",
        "province": "Omusati",
        "population": -1,
        "latitude": -17.4166667,
        "longitude": 14.6666667
    },
    {
        "name": "Omikwa",
        "country": "Namibia",
        "province": "Ohangwena",
        "population": -1,
        "latitude": -17.45,
        "longitude": 15.7
    },
    {
        "name": "Omhedi",
        "country": "Namibia",
        "province": "Ohangwena",
        "population": -1,
        "latitude": -17.5,
        "longitude": 15.85
    },
    {
        "name": "Omhangela",
        "country": "Namibia",
        "province": "Ohangwena",
        "population": -1,
        "latitude": -17.55,
        "longitude": 15.7
    },
    {
        "name": "Omege",
        "country": "Namibia",
        "province": "Oshana",
        "population": -1,
        "latitude": -17.8333333,
        "longitude": 15.7166667
    },
    {
        "name": "Ombwana",
        "country": "Namibia",
        "province": "Omusati",
        "population": -1,
        "latitude": -17.5666667,
        "longitude": 15.2666667
    },
    {
        "name": "Ombu Yovakuru",
        "country": "Namibia",
        "province": "Otjozondjupa",
        "population": -1,
        "latitude": -20.6833333,
        "longitude": 17.5833333
    },
    {
        "name": "Ombu Yomumbonde",
        "country": "Namibia",
        "province": "Otjozondjupa",
        "population": -1,
        "latitude": -20.45,
        "longitude": 17.75
    },
    {
        "name": "Ombu Yomenye",
        "country": "Namibia",
        "province": "Otjozondjupa",
        "population": -1,
        "latitude": -20.5333333,
        "longitude": 17.9
    },
    {
        "name": "Ombungurur",
        "country": "Namibia",
        "province": "Otjozondjupa",
        "population": -1,
        "latitude": -22.0833333,
        "longitude": 17.1833333
    },
    {
        "name": "Ombundiya",
        "country": "Namibia",
        "province": "Ohangwena",
        "population": -1,
        "latitude": -17.4333333,
        "longitude": 17.3333333
    },
    {
        "name": "Ombumbu",
        "country": "Namibia",
        "province": "Oshikoto",
        "population": -1,
        "latitude": -17.7333333,
        "longitude": 17.1166667
    },
    {
        "name": "Ombugayamupolo",
        "country": "Namibia",
        "province": "Ohangwena",
        "population": -1,
        "latitude": -17.6166667,
        "longitude": 17.0166667
    },
    {
        "name": "Ombora",
        "country": "Namibia",
        "province": "Otjozondjupa",
        "population": -1,
        "latitude": -19.6,
        "longitude": 18.75
    },
    {
        "name": "Omboora",
        "country": "Namibia",
        "province": "Otjozondjupa",
        "population": -1,
        "latitude": -20.1666667,
        "longitude": 18.0833333
    },
    {
        "name": "Ombonde",
        "country": "Namibia",
        "province": "Omusati",
        "population": -1,
        "latitude": -18.45,
        "longitude": 14.6166667
    },
    {
        "name": "Omboloka",
        "country": "Namibia",
        "province": "Ohangwena",
        "population": -1,
        "latitude": -17.4,
        "longitude": 17.1333333
    },
    {
        "name": "Ombivango",
        "country": "Namibia",
        "province": "Kunene",
        "population": -1,
        "latitude": -17.4833333,
        "longitude": 12.45
    },
    {
        "name": "Ombinda",
        "country": "Namibia",
        "province": "Otjozondjupa",
        "population": -1,
        "latitude": -20.4333333,
        "longitude": 17.7833333
    },
    {
        "name": "Ombepera",
        "country": "Namibia",
        "province": "Kunene",
        "population": -1,
        "latitude": -18.75,
        "longitude": 13.5833333
    },
    {
        "name": "Ombawe",
        "country": "Namibia",
        "province": "Kunene",
        "population": -1,
        "latitude": -17.7833333,
        "longitude": 12.6666667
    },
    {
        "name": "Ombaravera",
        "country": "Namibia",
        "province": "Kunene",
        "population": -1,
        "latitude": -17.5666667,
        "longitude": 12.4833333
    },
    {
        "name": "Ombalayamumbwenge",
        "country": "Namibia",
        "province": "Ohangwena",
        "population": -1,
        "latitude": -17.7,
        "longitude": 16.0666667
    },
    {
        "name": "Ombalantu",
        "country": "Namibia",
        "province": "Omusati",
        "population": -1,
        "latitude": -17.53,
        "longitude": 15.0035
    },
    {
        "name": "Ombako",
        "country": "Namibia",
        "province": "Omusati",
        "population": -1,
        "latitude": -18.1,
        "longitude": 14.95
    },
    {
        "name": "Ombahu",
        "country": "Namibia",
        "province": "Kunene",
        "population": -1,
        "latitude": -17.55,
        "longitude": 13.6666667
    },
    {
        "name": "Ombahe-Yakako",
        "country": "Namibia",
        "province": "Kunene",
        "population": -1,
        "latitude": -18.4166667,
        "longitude": 13.7166667
    },
    {
        "name": "Ombabi",
        "country": "Namibia",
        "province": "Ohangwena",
        "population": -1,
        "latitude": -17.3833333,
        "longitude": 17.4666667
    },
    {
        "name": "Ombaba",
        "country": "Namibia",
        "province": "Ohangwena",
        "population": -1,
        "latitude": -17.5166667,
        "longitude": 16.8666667
    },
    {
        "name": "Omazera",
        "country": "Namibia",
        "province": "Otjozondjupa",
        "population": -1,
        "latitude": -20.8666667,
        "longitude": 18.3
    },
    {
        "name": "Omazera",
        "country": "Namibia",
        "province": "Otjozondjupa",
        "population": -1,
        "latitude": -20.8333333,
        "longitude": 18.2333333
    },
    {
        "name": "Omayulu",
        "country": "Namibia",
        "province": "Omusati",
        "population": -1,
        "latitude": -18.2,
        "longitude": 14.95
    },
    {
        "name": "Omayi",
        "country": "Namibia",
        "province": "Oshikoto",
        "population": -1,
        "latitude": -17.8166667,
        "longitude": 16.8666667
    },
    {
        "name": "Omatwadiva",
        "country": "Namibia",
        "province": "Omusati",
        "population": -1,
        "latitude": -17.4,
        "longitude": 15.2333333
    },
    {
        "name": "Omateleklelo",
        "country": "Namibia",
        "province": "Omusati",
        "population": -1,
        "latitude": -17.6166667,
        "longitude": 15.1333333
    },
    {
        "name": "Omatapati",
        "country": "Namibia",
        "province": "Kunene",
        "population": -1,
        "latitude": -18.8833333,
        "longitude": 14.1333333
    },
    {
        "name": "Omatangela",
        "country": "Namibia",
        "province": "Ohangwena",
        "population": -1,
        "latitude": -17.4,
        "longitude": 15.7333333
    },
    {
        "name": "Omatanga",
        "country": "Namibia",
        "province": "Otjozondjupa",
        "population": -1,
        "latitude": -20.6333333,
        "longitude": 17.7333333
    },
    {
        "name": "Omatale",
        "country": "Namibia",
        "province": "Oshikoto",
        "population": -1,
        "latitude": -17.7166667,
        "longitude": 16.9833333
    },
    {
        "name": "Omashaka",
        "country": "Namibia",
        "province": "Oshana",
        "population": -1,
        "latitude": -17.8833333,
        "longitude": 15.9666667
    },
    {
        "name": "Omapumba",
        "country": "Namibia",
        "province": "Otjozondjupa",
        "population": -1,
        "latitude": -20.7166667,
        "longitude": 18.1666667
    },
    {
        "name": "Omanye",
        "country": "Namibia",
        "province": "Kunene",
        "population": -1,
        "latitude": -18.7833333,
        "longitude": 13.0833333
    },
    {
        "name": "Omangundu",
        "country": "Namibia",
        "province": "Oshikoto",
        "population": -1,
        "latitude": -18.1333333,
        "longitude": 16.3833333
    },
    {
        "name": "Omangundu",
        "country": "Namibia",
        "province": "Oshikoto",
        "population": -1,
        "latitude": -18.1166667,
        "longitude": 16.3666667
    },
    {
        "name": "Omangundu",
        "country": "Namibia",
        "province": "Oshikoto",
        "population": -1,
        "latitude": -18.0833333,
        "longitude": 16.35
    },
    {
        "name": "Omangambo",
        "country": "Namibia",
        "province": "Erongo",
        "population": -1,
        "latitude": -20.9,
        "longitude": 15.15
    },
    {
        "name": "Omambuumbuu",
        "country": "Namibia",
        "province": "Omusati",
        "population": -1,
        "latitude": -17.4333333,
        "longitude": 15.1833333
    },
    {
        "name": "Omalundudu",
        "country": "Namibia",
        "province": "Ohangwena",
        "population": -1,
        "latitude": -17.6333333,
        "longitude": 16.7666667
    },
    {
        "name": "Omalambo",
        "country": "Namibia",
        "province": "Oshikoto",
        "population": -1,
        "latitude": -17.7833333,
        "longitude": 16.5833333
    },
    {
        "name": "Omakondo",
        "country": "Namibia",
        "province": "Ohangwena",
        "population": -1,
        "latitude": -17.5666667,
        "longitude": 16.2
    },
    {
        "name": "Omako",
        "country": "Namibia",
        "province": "Oshikoto",
        "population": -1,
        "latitude": -17.8833333,
        "longitude": 16.2
    },
    {
        "name": "Omakande",
        "country": "Namibia",
        "province": "Otjozondjupa",
        "population": -1,
        "latitude": -20.3166667,
        "longitude": 18.1333333
    },
    {
        "name": "Omahini",
        "country": "Namibia",
        "province": "Oshana",
        "population": -1,
        "latitude": -17.8333333,
        "longitude": 15.8666667
    },
    {
        "name": "Omahai",
        "country": "Namibia",
        "province": "Oshikoto",
        "population": -1,
        "latitude": -17.75,
        "longitude": 16.7166667
    },
    {
        "name": "Omahahi",
        "country": "Namibia",
        "province": "Oshana",
        "population": -1,
        "latitude": -17.7,
        "longitude": 15.7666667
    },
    {
        "name": "Omadhiya",
        "country": "Namibia",
        "province": "Oshikoto",
        "population": -1,
        "latitude": -18.2166667,
        "longitude": 16.2833333
    },
    {
        "name": "Omadhiya",
        "country": "Namibia",
        "province": "Oshikoto",
        "population": -1,
        "latitude": -18.15,
        "longitude": 16.2666667
    },
    {
        "name": "Omadhiya",
        "country": "Namibia",
        "province": "Oshikoto",
        "population": -1,
        "latitude": -18.1333333,
        "longitude": 16.2333333
    },
    {
        "name": "Omadhiya",
        "country": "Namibia",
        "province": "Oshikoto",
        "population": -1,
        "latitude": -17.95,
        "longitude": 16.1166667
    },
    {
        "name": "Omadano",
        "country": "Namibia",
        "province": "Ohangwena",
        "population": -1,
        "latitude": -17.4333333,
        "longitude": 16.7666667
    },
    {
        "name": "Omabzu",
        "country": "Namibia",
        "province": "Kunene",
        "population": -1,
        "latitude": -17.8,
        "longitude": 13.7833333
    },
    {
        "name": "Omaalala",
        "country": "Namibia",
        "province": "Oshana",
        "population": -1,
        "latitude": -17.8333333,
        "longitude": 15.85
    },
    {
        "name": "Olyuulaye",
        "country": "Namibia",
        "province": "Oshikoto",
        "population": -1,
        "latitude": -18.1,
        "longitude": 16.5166667
    },
    {
        "name": "Olyavahenge",
        "country": "Namibia",
        "province": "Omusati",
        "population": -1,
        "latitude": -17.45,
        "longitude": 15.4166667
    },
    {
        "name": "Olwani",
        "country": "Namibia",
        "province": "Omusati",
        "population": -1,
        "latitude": -17.7666667,
        "longitude": 15.4833333
    },
    {
        "name": "Oluwaya",
        "country": "Namibia",
        "province": "Ohangwena",
        "population": -1,
        "latitude": -17.5333333,
        "longitude": 17.05
    },
    {
        "name": "Oluteyi",
        "country": "Namibia",
        "province": "Omusati",
        "population": -1,
        "latitude": -17.8166667,
        "longitude": 15.1666667
    },
    {
        "name": "Olupundi",
        "country": "Namibia",
        "province": "Ohangwena",
        "population": -1,
        "latitude": -17.6666667,
        "longitude": 17.3
    },
    {
        "name": "Olupumbu",
        "country": "Namibia",
        "province": "Omusati",
        "population": -1,
        "latitude": -17.7333333,
        "longitude": 15.4
    },
    {
        "name": "Olupale",
        "country": "Namibia",
        "province": "Ohangwena",
        "population": -1,
        "latitude": -17.4,
        "longitude": 17.4
    },
    {
        "name": "Olunkono",
        "country": "Namibia",
        "province": "Ohangwena",
        "population": -1,
        "latitude": -17.4166667,
        "longitude": 15.9
    },
    {
        "name": "Olumelengwa",
        "country": "Namibia",
        "province": "Omusati",
        "population": -1,
        "latitude": -18.4333333,
        "longitude": 14.9166667
    },