[
    {
        "name": "Muscat",
        "country": "Oman",
        "province": "Muscat",
        "population": 797000,
        "latitude": 23.58413,
        "longitude": 58.40778
    },
    {
        "name": "Salalah",
        "country": "Oman",
        "province": "Dhofar",
        "population": 163140,
        "latitude": 17.015046,
        "longitude": 54.09237
    },
    {
        "name": "Sohar",
        "country": "Oman",
        "province": "Al Batinah North",
        "population": 108274,
        "latitude": 24.34745,
        "longitude": 56.70937
    },
    {
        "name": "As Suwayq",
        "country": "Oman",
        "province": "Al Batinah North",
        "population": 107143,
        "latitude": 23.849444,
        "longitude": 57.438611
    },
    {
        "name": "Barkā’",
        "country": "Oman",
        "province": "Al Batinah South",
        "population": 81647,
        "latitude": 23.67872,
        "longitude": 57.886047
    },
    {
        "name": "Sur",
        "country": "Oman",
        "province": "Southeastern Governorate",
        "population": 71152,
        "latitude": 22.566667,
        "longitude": 59.528889
    },
    {
        "name": "Seeb",
        "country": "Oman",
        "province": "Muscat",
        "population": 470878,
        "latitude": 23.67027,
        "longitude": 58.189106
    },
    {
        "name": "Saham",
        "country": "Oman",
        "province": "Al Batinah North",
        "population": 140000,
        "latitude": 24.172222,
        "longitude": 56.888611
    },
    {
        "name": "Nizwá",
        "country": "Oman",
        "province": "Ad Dakhiliyah",
        "population": 72076,
        "latitude": 22.933333,
        "longitude": 57.533333
    },
    {
        "name": "Khasab",
        "country": "Oman",
        "province": "Musandam Governorate",
        "population": 17904,
        "latitude": 26.179926,
        "longitude": 56.247736
    },
    {
        "name": "Ibri",
        "country": "Oman",
        "province": "Ad Dhahirah",
        "population": 163473,
        "latitude": 23.2257298001787,
        "longitude": 56.5157210826874
    },
    {
        "name": "Bawshar",
        "country": "Oman",
        "province": "Muscat",
        "population": 383257,
        "latitude": 23.577686,
        "longitude": 58.399816
    },
    {
        "name": "Rustaq",
        "country": "Oman",
        "province": "Al Batinah South",
        "population": 120000,
        "latitude": 23.390833,
        "longitude": 57.424444
    },
    {
        "name": "Buraimi",
        "country": "Oman",
        "province": "Al Buraimi",
        "population": 73670,
        "latitude": 24.250877445689245,
        "longitude": 55.79312324523926
    },
    {
        "name": "Ibrā’",
        "country": "Oman",
        "province": "Northeastern Governorate",
        "population": 25265,
        "latitude": 22.69057,
        "longitude": 58.533369
    },
    {
        "name": "Bahlā’",
        "country": "Oman",
        "province": "Ad Dakhiliyah",
        "population": 54338,
        "latitude": 22.978865,
        "longitude": 57.304705
    },
    {
        "name": "Al Khābūrah",
        "country": "Oman",
        "province": "Al Batinah North",
        "population": 50223,
        "latitude": 23.971443,
        "longitude": 57.093132
    },
    {
        "name": "Sufālat Samā’il",
        "country": "Oman",
        "province": "Ad Dakhiliyah",
        "population": 47718,
        "latitude": 23.316667,
        "longitude": 58.016667
    },
    {
        "name": "Shināş",
        "country": "Oman",
        "province": "Al Batinah North",
        "population": 48009,
        "latitude": 24.742599,
        "longitude": 56.466979
    },
    {
        "name": "Al Khubbayn",
        "country": "Oman",
        "province": "Al Buraimi",
        "population": -1,
        "latitude": 24.310266,
        "longitude": 56.130431
    },
    {
        "name": "Izkī",
        "country": "Oman",
        "province": "Ad Dakhiliyah",
        "population": 36203,
        "latitude": 22.933333,
        "longitude": 57.766667
    },
    {
        "name": "Haymā’",
        "country": "Oman",
        "province": "Al Wusta Governorate",
        "population": 1294,
        "latitude": 19.95931,
        "longitude": 56.27575
    },
    {
        "name": "Duqm",
        "country": "Oman",
        "province": "Al Wusta Governorate",
        "population": -1,
        "latitude": 19.66207,
        "longitude": 57.70367
    },
    {
        "name": "Bidbid",
        "country": "Oman",
        "province": "Ad Dakhiliyah",
        "population": 21188,
        "latitude": 23.407865,
        "longitude": 58.128295
    },
    {
        "name": "Al Qābil",
        "country": "Oman",
        "province": "Northeastern Governorate",
        "population": 14008,
        "latitude": 22.570997,
        "longitude": 58.694723
    },
    {
        "name": "Liwá",
        "country": "Oman",
        "province": "Al Batinah North",
        "population": 26372,
        "latitude": 24.530774,
        "longitude": 56.563001
    },
    {
        "name": "Adam",
        "country": "Oman",
        "province": "Ad Dakhiliyah",
        "population": 17283,
        "latitude": 22.379335,
        "longitude": 57.527183
    },
    {
        "name": "Aţ Ţaww",
        "country": "Oman",
        "province": "Al Batinah South",
        "population": -1,
        "latitude": 23.499724,
        "longitude": 57.961641
    },
    {
        "name": "Shīhayt",
        "country": "Oman",
        "province": "Dhofar",
        "population": -1,
        "latitude": 17.042682,
        "longitude": 54.008217
    },
    {
        "name": "Al Ḩawţah",
        "country": "Oman",
        "province": "Dhofar",
        "population": -1,
        "latitude": 16.761727,
        "longitude": 53.488725
    },
    {
        "name": "Qurayyāt",
        "country": "Oman",
        "province": "Muscat",
        "population": -1,
        "latitude": 23.26298,
        "longitude": 58.920142
    },
    {
        "name": "Qaşbīyat al Ḩawāsnah",
        "country": "Oman",
        "province": "Al Batinah North",
        "population": -1,
        "latitude": 24.01369,
        "longitude": 57.06712
    },
    {
        "name": "An Nuwayy",
        "country": "Oman",
        "province": "Al Buraimi",
        "population": -1,
        "latitude": 24.49982,
        "longitude": 55.970681
    },
    {
        "name": "Maḩaḑah",
        "country": "Oman",
        "province": "Al Buraimi",
        "population": -1,
        "latitude": 24.40052,
        "longitude": 55.967179
    },
    {
        "name": "Ash Shişr",
        "country": "Oman",
        "province": "Dhofar",
        "population": -1,
        "latitude": 18.263122,
        "longitude": 53.657802
    },
    {
        "name": "Ghamḑā’",
        "country": "Oman",
        "province": "Musandam Governorate",
        "population": -1,
        "latitude": 26.112123,
        "longitude": 56.126654
    },
    {
        "name": "Dib Dibba",
        "country": "Oman",
        "province": "Musandam Governorate",
        "population": 5000,
        "latitude": 26.1977778,
        "longitude": 56.2577778
    },
    {
        "name": "Dibba Al-Baya",
        "country": "Oman",
        "province": "Musandam Governorate",
        "population": -1,
        "latitude": 25.63643,
        "longitude": 56.265967
    },
    {
        "name": "Al Jişşah",
        "country": "Oman",
        "province": "Muscat",
        "population": -1,
        "latitude": 23.549593,
        "longitude": 58.639147
    },
    {
        "name": "‘Awqad",
        "country": "Oman",
        "province": "Dhofar",
        "population": -1,
        "latitude": 17.017305,
        "longitude": 54.029028
    },
    {
        "name": "Şa‘rā’ al Qadīmah",
        "country": "Oman",
        "province": "Al Buraimi",
        "population": -1,
        "latitude": 24.25,
        "longitude": 55.783889
    },
    {
        "name": "Muladdah",
        "country": "Oman",
        "province": "Al Batinah North",
        "population": -1,
        "latitude": 23.747489,
        "longitude": 57.569335
    },
    {
        "name": "Al Māzim",
        "country": "Oman",
        "province": "Ad Dhahirah",
        "population": -1,
        "latitude": 23.401944,
        "longitude": 56.283056
    },
    {
        "name": "Al Jarī",
        "country": "Oman",
        "province": "Musandam Governorate",
        "population": -1,
        "latitude": 26.216757,
        "longitude": 56.184949
    },
    {
        "name": "Al Ghuz̧ayfah",
        "country": "Oman",
        "province": "Al Batinah North",
        "population": -1,
        "latitude": 23.988333,
        "longitude": 56.485833
    },
    {
        "name": "Madḩā’ al Jadīdah",
        "country": "Oman",
        "province": "Musandam Governorate",
        "population": 2260,
        "latitude": 25.283447,
        "longitude": 56.332801
    },
    {
        "name": "Ḩayfaz̧",
        "country": "Oman",
        "province": "Muscat",
        "population": -1,
        "latitude": 23.316941,
        "longitude": 58.744547
    },
    {
        "name": "Al Bīyuḑ",
        "country": "Oman",
        "province": "Northeastern Governorate",
        "population": -1,
        "latitude": 23.04693,
        "longitude": 58.66277
    },
    {
        "name": "Al Ḩājir",
        "country": "Oman",
        "province": "Muscat",
        "population": -1,
        "latitude": 23.17681,
        "longitude": 58.98733
    },
    {
        "name": "‘Ajrīzī",
        "country": "Oman",
        "province": "Dhofar",
        "population": -1,
        "latitude": 17.139679,
        "longitude": 54.389575
    },
    {
        "name": "‘Akrūt",
        "country": "Oman",
        "province": "Dhofar",
        "population": -1,
        "latitude": 17.12819,
        "longitude": 54.307409
    },
    {
        "name": "A‘anwathaq",
        "country": "Oman",
        "province": "Dhofar",
        "population": -1,
        "latitude": 17.153916,
        "longitude": 54.38125
    },
    {
        "name": "Khījīn",
        "country": "Oman",
        "province": "Dhofar",
        "population": -1,
        "latitude": 17.161474,
        "longitude": 54.328195
    },
    {
        "name": "Awkalth",
        "country": "Oman",
        "province": "Dhofar",
        "population": -1,
        "latitude": 17.13087,
        "longitude": 54.277388
    },
    {
        "name": "Baţḩār",
        "country": "Oman",
        "province": "Dhofar",
        "population": -1,
        "latitude": 17.165444,
        "longitude": 54.433602
    },
    {
        "name": "Shīrāt",
        "country": "Oman",
        "province": "Dhofar",
        "population": -1,
        "latitude": 17.156445,
        "longitude": 54.027441
    },
    {
        "name": "Owtar",
        "country": "Oman",
        "province": "Dhofar",
        "population": -1,
        "latitude": 17.1677778,
        "longitude": 54.0841667
    },
    {
        "name": "Al Mazāri‘",
        "country": "Oman",
        "province": "Ad Dakhiliyah",
        "population": -1,
        "latitude": 22.916103,
        "longitude": 58.072858
    },
    {
        "name": "Yanqul",
        "country": "Oman",
        "province": "Ad Dhahirah",
        "population": 16599,
        "latitude": 23.586453,
        "longitude": 56.539686
    },
    {
        "name": "Bīmā",
        "country": "Oman",
        "province": "Ad Dakhiliyah",
        "population": -1,
        "latitude": 23.208056,
        "longitude": 57.381389
    },
    {
        "name": "Al Muḩtafyah",
        "country": "Oman",
        "province": "Northeastern Governorate",
        "population": -1,
        "latitude": 23.04407,
        "longitude": 58.31356
    },
    {
        "name": "Da‘an al Ḩamrā’",
        "country": "Oman",
        "province": "Ad Dakhiliyah",
        "population": -1,
        "latitude": 23.061708,
        "longitude": 57.572355
    },
    {
        "name": "Al Amarat",
        "country": "Oman",
        "province": "Muscat",
        "population": -1,
        "latitude": 23.5241667,
        "longitude": 58.4975
    },
    {
        "name": "Ḩarāmil",
        "country": "Oman",
        "province": "Muscat",
        "population": -1,
        "latitude": 23.593716,
        "longitude": 58.601814
    },
    {
        "name": "Kalbūh",
        "country": "Oman",
        "province": "Muscat",
        "population": -1,
        "latitude": 23.618938,
        "longitude": 58.586469
    },
    {
        "name": "Yankit",
        "country": "Oman",
        "province": "Muscat",
        "population": -1,
        "latitude": 23.513135,
        "longitude": 58.700971
    },
    {
        "name": "Al Ḩaybah",
        "country": "Oman",
        "province": "Musandam Governorate",
        "population": -1,
        "latitude": 25.804554,
        "longitude": 56.295156
    },
    {
        "name": "Lakayym",
        "country": "Oman",
        "province": "Musandam Governorate",
        "population": -1,
        "latitude": 25.770833,
        "longitude": 56.261111
    },
    {
        "name": "Khawr Ma‘lá",
        "country": "Oman",
        "province": "Musandam Governorate",
        "population": -1,
        "latitude": 25.801674,
        "longitude": 56.348304
    },
    {
        "name": "Shaşş",
        "country": "Oman",
        "province": "Musandam Governorate",
        "population": -1,
        "latitude": 25.97792,
        "longitude": 56.325916
    },
    {
        "name": "Daşş",
        "country": "Oman",
        "province": "Musandam Governorate",
        "population": -1,
        "latitude": 25.905873,
        "longitude": 56.390165
    },
    {
        "name": "Dīnī",
        "country": "Oman",
        "province": "Musandam Governorate",
        "population": -1,
        "latitude": 25.935836,
        "longitude": 56.402167
    },
    {
        "name": "Al Maḩlá",
        "country": "Oman",
        "province": "Musandam Governorate",
        "population": -1,
        "latitude": 25.842339,
        "longitude": 56.323531
    },
    {
        "name": "Al Khuwayyah",
        "country": "Oman",
        "province": "Musandam Governorate",
        "population": -1,
        "latitude": 25.995584,
        "longitude": 56.380513
    },
    {
        "name": "Dhanājir",
        "country": "Oman",
        "province": "Dhofar",
        "population": -1,
        "latitude": 17.816111,
        "longitude": 54.284167
    },
    {
        "name": "As Sayfīyah",
        "country": "Oman",
        "province": "Al Batinah North",
        "population": -1,
        "latitude": 24.827017,
        "longitude": 56.430034
    },
    {
        "name": "Sall Dawrah",
        "country": "Oman",
        "province": "Musandam Governorate",
        "population": -1,
        "latitude": 26.057057,
        "longitude": 56.104664
    },
    {
        "name": "Al Ḩabīlah",
        "country": "Oman",
        "province": "Musandam Governorate",
        "population": -1,
        "latitude": 26.100957,
        "longitude": 56.2454
    },
    {
        "name": "Ar Ruqq al Fawqī",
        "country": "Oman",
        "province": "Musandam Governorate",
        "population": -1,
        "latitude": 25.999273,
        "longitude": 56.213774
    },
    {
        "name": "Ţāqah",
        "country": "Oman",
        "province": "Musandam Governorate",
        "population": -1,
        "latitude": 26.041056,
        "longitude": 56.211919
    },
    {
        "name": "Ad Dīrḩī",
        "country": "Oman",
        "province": "Musandam Governorate",
        "population": -1,
        "latitude": 25.649448,
        "longitude": 56.176414
    },
    {
        "name": "Aş Şaḩşaḩah",
        "country": "Oman",
        "province": "Musandam Governorate",
        "population": -1,
        "latitude": 25.67997,
        "longitude": 56.180827
    },
    {
        "name": "Sabţān",
        "country": "Oman",
        "province": "Musandam Governorate",
        "population": -1,
        "latitude": 25.794399,
        "longitude": 56.206058
    },
    {
        "name": "Ghaban Ḩamad",
        "country": "Oman",
        "province": "Musandam Governorate",
        "population": -1,
        "latitude": 26.082993,
        "longitude": 56.28877
    },
    {
        "name": "Jiddat al Baḩrīyah",
        "country": "Oman",
        "province": "Musandam Governorate",
        "population": -1,
        "latitude": 26.08621,
        "longitude": 56.43672
    },
    {
        "name": "Jiddat as Sayfīyah",
        "country": "Oman",
        "province": "Musandam Governorate",
        "population": -1,
        "latitude": 26.09342,
        "longitude": 56.39892
    },
    {
        "name": "Shawwah",
        "country": "Oman",
        "province": "Musandam Governorate",
        "population": -1,
        "latitude": 26.12876,
        "longitude": 56.31509
    },
    {
        "name": "Aş Şufayrāt",
        "country": "Oman",
        "province": "Musandam Governorate",
        "population": -1,
        "latitude": 26.19344,
        "longitude": 56.47482
    },
    {
        "name": "Ash Sharyah",
        "country": "Oman",
        "province": "Musandam Governorate",
        "population": -1,
        "latitude": 26.28461,
        "longitude": 56.39511
    },
    {
        "name": "Az̧ Z̧ahrayn",
        "country": "Oman",
        "province": "Musandam Governorate",
        "population": -1,
        "latitude": 26.102234,
        "longitude": 56.211368
    },
    {
        "name": "Al Ḩarf",
        "country": "Oman",
        "province": "Musandam Governorate",
        "population": -1,
        "latitude": 26.231809,
        "longitude": 56.206527
    },
    {
        "name": "Jiddah",
        "country": "Oman",
        "province": "Musandam Governorate",
        "population": -1,
        "latitude": 26.105579,
        "longitude": 56.15525
    },
    {
        "name": "Sall Işţām",
        "country": "Oman",
        "province": "Musandam Governorate",
        "population": -1,
        "latitude": 26.090265,
        "longitude": 56.16817
    },
    {
        "name": "Ad Dabrayn",
        "country": "Oman",
        "province": "Musandam Governorate",
        "population": -1,
        "latitude": 26.158413,
        "longitude": 56.201608
    },
    {
        "name": "Al Ḩārrāt",
        "country": "Oman",
        "province": "Musandam Governorate",
        "population": -1,
        "latitude": 26.169208,
        "longitude": 56.207692
    },
    {
        "name": "Ţaff ar Rakham",
        "country": "Oman",
        "province": "Musandam Governorate",
        "population": -1,
        "latitude": 26.209085,
        "longitude": 56.212207
    },
    {
        "name": "Aţ Ţawī",
        "country": "Oman",
        "province": "Musandam Governorate",
        "population": -1,
        "latitude": 26.177721,
        "longitude": 56.218435
    },
    {
        "name": "‘Aqabat Ruwaybah",
        "country": "Oman",
        "province": "Musandam Governorate",
        "population": -1,
        "latitude": 26.128024,
        "longitude": 56.228483
    },
    {
        "name": "Rikāb ash Shabb",
        "country": "Oman",
        "province": "Musandam Governorate",
        "population": -1,
        "latitude": 26.129511,
        "longitude": 56.202096
    },
    {
        "name": "Ḑaba‘ah",
        "country": "Oman",
        "province": "Ad Dakhiliyah",
        "population": -1,
        "latitude": 23.45012,
        "longitude": 57.11427
    },
    {
        "name": "Z̧abyān",
        "country": "Oman",
        "province": "Al Batinah North",
        "population": -1,
        "latitude": 24.358579,
        "longitude": 56.361999
    },
    {
        "name": "Yitī",
        "country": "Oman",
        "province": "Muscat",
        "population": -1,
        "latitude": 23.53342,
        "longitude": 58.66669
    },
    {
        "name": "Wudām as Sāḩil",
        "country": "Oman",
        "province": "Al Batinah North",
        "population": -1,
        "latitude": 23.809212,
        "longitude": 57.550925
    },
    {
        "name": "Al Washal",
        "country": "Oman",
        "province": "Ad Dakhiliyah",
        "population": -1,
        "latitude": 22.929526,
        "longitude": 58.079684
    },
    {
        "name": "Al Widyah al Ḩadrīyah",
        "country": "Oman",
        "province": "Al Batinah North",
        "population": -1,
        "latitude": 23.64482,
        "longitude": 57.202898
    },
    {
        "name": "Al Mazra‘ al ‘Alawī",
        "country": "Oman",
        "province": "Muscat",
        "population": -1,
        "latitude": 23.432132,
        "longitude": 58.55294
    },
    {
        "name": "Marşayş",
        "country": "Oman",
        "province": "Southeastern Governorate",
        "population": -1,
        "latitude": 20.470474,
        "longitude": 58.789185
    },
    {
        "name": "Al Likhayḑir",
        "country": "Oman",
        "province": "Ad Dakhiliyah",
        "population": -1,
        "latitude": 22.626352,
        "longitude": 58.006947
    },
    {
        "name": "Ţīwī",
        "country": "Oman",
        "province": "Southeastern Governorate",
        "population": -1,
        "latitude": 22.826082,
        "longitude": 59.257958
    },
    {
        "name": "Tībāt",
        "country": "Oman",
        "province": "Musandam Governorate",
        "population": -1,
        "latitude": 26.071111,
        "longitude": 56.109722
    },
    {
        "name": "Thissor",
        "country": "Oman",
        "province": "Dhofar",
        "population": -1,
        "latitude": 17.1308333,
        "longitude": 54.1016667
    },
    {
        "name": "Thamarīt",
        "country": "Oman",
        "province": "Dhofar",
        "population": -1,
        "latitude": 17.67,
        "longitude": 54.033333
    },
    {
        "name": "Ḑalkūt",
        "country": "Oman",
        "province": "Dhofar",
        "population": -1,
        "latitude": 16.704025,
        "longitude": 53.242194
    },
    {
        "name": "Ţaww",
        "country": "Oman",
        "province": "Muscat",
        "population": -1,
        "latitude": 23.5502778,
        "longitude": 58.0222222
    },
    {
        "name": "Ţuwyān Yitī",
        "country": "Oman",
        "province": "Muscat",
        "population": -1,
        "latitude": 23.507152,
        "longitude": 58.666052
    },
    {
        "name": "Ţawī as Sayḩ",
        "country": "Oman",
        "province": "Al Batinah South",
        "population": -1,
        "latitude": 23.302778,
        "longitude": 57.55
    },
    {
        "name": "Ţāqah",
        "country": "Oman",
        "province": "Dhofar",
        "population": -1,
        "latitude": 17.048258,
        "longitude": 54.390627
    },
    {
        "name": "Tan‘am",
        "country": "Oman",
        "province": "Ad Dhahirah",
        "population": -1,
        "latitude": 23.145007,
        "longitude": 56.471623
    },
    {
        "name": "Aş Şuwayḩirah as Sāḩil",
        "country": "Oman",
        "province": "Al Batinah North",
        "population": -1,
        "latitude": 24.31642,
        "longitude": 56.78289
    },
    {
        "name": "Şūr Muşayrah",
        "country": "Oman",
        "province": "Southeastern Governorate",
        "population": -1,
        "latitude": 20.416078,
        "longitude": 58.734853
    },
    {
        "name": "Aş Şuraymah",
        "country": "Oman",
        "province": "Al Wusta Governorate",
        "population": -1,
        "latitude": 21.062396,
        "longitude": 58.357893
    },
    {
        "name": "Sinnī",
        "country": "Oman",
        "province": "Ad Dakhiliyah",
        "population": -1,
        "latitude": 23.41175,
        "longitude": 57.11911
    },
    {
        "name": "Şunaybi‘",
        "country": "Oman",
        "province": "Al Batinah South",
        "population": -1,
        "latitude": 23.195556,
        "longitude": 57.5575
    },
    {
        "name": "Ismā‘īyah",
        "country": "Oman",
        "province": "Muscat",
        "population": -1,
        "latitude": 22.909268,
        "longitude": 58.883262
    },
    {
        "name": "Aş Şalīyah",
        "country": "Oman",
        "province": "Ad Dakhiliyah",
        "population": -1,
        "latitude": 23.444928,
        "longitude": 57.700659
    },
    {
        "name": "As Sayharah",
        "country": "Oman",
        "province": "Al Batinah North",
        "population": -1,
        "latitude": 23.861899,
        "longitude": 56.643086
    },
    {
        "name": "As Suhaylah ash Sharqīyah",
        "country": "Oman",
        "province": "Al Buraimi",
        "population": -1,
        "latitude": 24.267886,
        "longitude": 56.371056
    },
    {
        "name": "Sudh",
        "country": "Oman",
        "province": "Dhofar",
        "population": -1,
        "latitude": 17.0516840397873,
        "longitude": 54.159165950011065
    },
    {
        "name": "Şadāmat Banī ‘Īsá",
        "country": "Oman",
        "province": "Ad Dhahirah",
        "population": -1,
        "latitude": 23.879167,
        "longitude": 56.382222
    },
    {
        "name": "Siserūn",
        "country": "Oman",
        "province": "Dhofar",
        "population": -1,
        "latitude": 17.132222,
        "longitude": 54.005
    },
    {
        "name": "Sikun Shikfainot",
        "country": "Oman",
        "province": "Dhofar",
        "population": -1,
        "latitude": 17.1330556,
        "longitude": 54.1588889
    },
    {
        "name": "Sidāb",
        "country": "Oman",
        "province": "Muscat",
        "population": -1,
        "latitude": 23.601811,
        "longitude": 58.597738
    },
    {
        "name": "Ash Shuwayhah",
        "country": "Oman",
        "province": "Al Buraimi",
        "population": -1,
        "latitude": 24.6284,
        "longitude": 56.07713
    },
    {
        "name": "Ash Shurayjah",
        "country": "Oman",
        "province": "Ad Dakhiliyah",
        "population": -1,
        "latitude": 23.076686,
        "longitude": 57.645335
    },
    {
        "name": "Shīḩayt",
        "country": "Oman",
        "province": "Dhofar",
        "population": -1,
        "latitude": 17.117197,
        "longitude": 54.418055
    },
    {
        "name": "Ash Shuwaymīyah",
        "country": "Oman",
        "province": "Dhofar",
        "population": -1,
        "latitude": 17.885002,
        "longitude": 55.605285
    },
    {
        "name": "Sharbthāt",
        "country": "Oman",
        "province": "Dhofar",
        "population": -1,
        "latitude": 17.938612,
        "longitude": 56.274357
    },
    {
        "name": "Shalīm wa Juzur al Ḩalānīyāt",
        "country": "Oman",
        "province": "Dhofar",
        "population": -1,
        "latitude": 18.102523,
        "longitude": 55.65333
    },
    {
        "name": "Shakhbūţ",
        "country": "Oman",
        "province": "Al Batinah North",
        "population": -1,
        "latitude": 23.692666,
        "longitude": 56.915945
    },
    {
        "name": "Sayq",
        "country": "Oman",
        "province": "Ad Dakhiliyah",
        "population": -1,
        "latitude": 23.074397,
        "longitude": 57.639649
    },
    {
        "name": "Şawqarah",
        "country": "Oman",
        "province": "Al Wusta Governorate",
        "population": -1,
        "latitude": 18.157824,
        "longitude": 56.538585
    },
    {
        "name": "Ḩayy aş Şārūj",
        "country": "Oman",
        "province": "Muscat",
        "population": -1,
        "latitude": 23.611504,
        "longitude": 58.456918
    },
    {
        "name": "Sarkhār",
        "country": "Oman",
        "province": "Dhofar",
        "population": -1,
        "latitude": 17.183611,
        "longitude": 54.390833
    },
    {
        "name": "Sināw",
        "country": "Oman",
        "province": "Northeastern Governorate",
        "population": -1,
        "latitude": 22.501139,
        "longitude": 58.030105
    },
    {
        "name": "Şawmarā’",
        "country": "Oman",
        "province": "Ad Dakhiliyah",
        "population": -1,
        "latitude": 23.088587,
        "longitude": 58.111583
    },
    {
        "name": "Samā’il",
        "country": "Oman",
        "province": "Ad Dakhiliyah",
        "population": -1,
        "latitude": 23.298383,
        "longitude": 57.953103
    },
    {
        "name": "Samad ash Sha’n",
        "country": "Oman",
        "province": "Northeastern Governorate",
        "population": -1,
        "latitude": 22.823799,
        "longitude": 58.162622
    },
    {
        "name": "Şalmā’",
        "country": "Oman",
        "province": "Ad Dakhiliyah",
        "population": -1,
        "latitude": 23.196221,
        "longitude": 57.369706
    },
    {
        "name": "Sailal",
        "country": "Oman",
        "province": "Dhofar",
        "population": -1,
        "latitude": 17.1333333,
        "longitude": 54.45
    },
    {
        "name": "Şuḩaydah",
        "country": "Oman",
        "province": "Ad Dhahirah",
        "population": -1,
        "latitude": 23.688932,
        "longitude": 56.755178
    },
    {
        "name": "Ḩarmūl",
        "country": "Oman",
        "province": "Al Batinah North",
        "population": -1,
        "latitude": 24.527334,
        "longitude": 56.596528
    },
    {
        "name": "Şahbān",
        "country": "Oman",
        "province": "Al Buraimi",
        "population": -1,
        "latitude": 24.190977,
        "longitude": 56.318139
    },
    {
        "name": "Şahalnawt",
        "country": "Oman",
        "province": "Dhofar",
        "population": -1,
        "latitude": 17.136194,
        "longitude": 54.183614
    },
    {
        "name": "Şadḩ",
        "country": "Oman",
        "province": "Dhofar",
        "population": -1,
        "latitude": 17.05,
        "longitude": 55.066667
    },
    {
        "name": "Şaddān",
        "country": "Oman",
        "province": "Al Batinah North",
        "population": -1,
        "latitude": 23.762744,
        "longitude": 56.930674
    },
    {
        "name": "Şād",
        "country": "Oman",
        "province": "Muscat",
        "population": -1,
        "latitude": 23.546108,
        "longitude": 58.407694
    },
    {
        "name": "Ruwī",
        "country": "Oman",
        "province": "Muscat",
        "population": -1,
        "latitude": 23.596095,
        "longitude": 58.547213
    },
    {
        "name": "Ar Rusayl",
        "country": "Oman",
        "province": "Muscat",
        "population": -1,
        "latitude": 23.542896,
        "longitude": 58.191254
    },
    {
        "name": "Ar Rumayḩ",
        "country": "Oman",
        "province": "Ad Dhahirah",
        "population": -1,
        "latitude": 23.748847,
        "longitude": 56.222267
    },
    {
        "name": "Ar Rumayḩ",
        "country": "Oman",
        "province": "Ad Dhahirah",
        "population": -1,
        "latitude": 23.755021,
        "longitude": 56.205188
    },
    {
        "name": "Ar Rumays",
        "country": "Oman",
        "province": "Al Batinah South",
        "population": -1,
        "latitude": 23.683864,
        "longitude": 57.995247
    },
    {
        "name": "Rudha",
        "country": "Oman",
        "province": "Dhofar",
        "population": -1,
        "latitude": 17.1319444,
        "longitude": 54.0216667
    },
    {
        "name": "Ar Raddah",
        "country": "Oman",
        "province": "Northeastern Governorate",
        "population": -1,
        "latitude": 22.504366,
        "longitude": 58.117034
    },
    {
        "name": "Riyām",
        "country": "Oman",
        "province": "Muscat",
        "population": -1,
        "latitude": 23.6197222,
        "longitude": 58.5788889
    },
    {
        "name": "Rism",
        "country": "Oman",
        "province": "Dhofar",
        "population": -1,
        "latitude": 17.1361111,
        "longitude": 54.0919444
    },
    {
        "name": "Raysūt",
        "country": "Oman",
        "province": "Dhofar",
        "population": -1,
        "latitude": 16.950217,
        "longitude": 53.967371
    },
    {
        "name": "Ar Rawḑah",
        "country": "Oman",
        "province": "Al Batinah North",
        "population": -1,
        "latitude": 24.04848,
        "longitude": 56.78598
    },
    {
        "name": "Rakhyūt",
        "country": "Oman",
        "province": "Dhofar",
        "population": -1,
        "latitude": 16.747675,
        "longitude": 53.421893
    },
    {
        "name": "Rahn",
        "country": "Oman",
        "province": "Dhofar",
        "population": -1,
        "latitude": 17.1333333,
        "longitude": 54.1
    },
    {
        "name": "Qumaylah",
        "country": "Oman",
        "province": "Southeastern Governorate",
        "population": -1,
        "latitude": 22.05,
        "longitude": 59.633333
    },
    {
        "name": "Qaşbīyat al Birayk",
        "country": "Oman",
        "province": "Al Batinah North",
        "population": -1,
        "latitude": 24.02436,
        "longitude": 57.05407
    },
    {
        "name": "Qarz̧īt",
        "country": "Oman",
        "province": "Dhofar",
        "population": -1,
        "latitude": 17.122284,
        "longitude": 54.480701
    },
    {
        "name": "Qantab",
        "country": "Oman",
        "province": "Muscat",
        "population": -1,
        "latitude": 23.560267,
        "longitude": 58.627652
    },
    {
        "name": "Qalhāt",
        "country": "Oman",
        "province": "Southeastern Governorate",
        "population": -1,
        "latitude": 22.699565,
        "longitude": 59.369383
    },
    {
        "name": "Qafţawt",
        "country": "Oman",
        "province": "Dhofar",
        "population": -1,
        "latitude": 17.091444,
        "longitude": 53.89281
    },
    {
        "name": "Qadhait",
        "country": "Oman",
        "province": "Dhofar",
        "population": -1,
        "latitude": 17.1111111,
        "longitude": 54.4552778
    },
    {
        "name": "Qābil Āl Bū Sa‘īd",
        "country": "Oman",
        "province": "Northeastern Governorate",
        "population": -1,
        "latitude": 22.603437,
        "longitude": 58.184785
    },
    {
        "name": "An Nahdah",
        "country": "Oman",
        "province": "Ad Dakhiliyah",
        "population": -1,
        "latitude": 23.235844,
        "longitude": 58.076661
    },
    {
        "name": "An Nuzūḩ",
        "country": "Oman",
        "province": "Al Batinah South",
        "population": -1,
        "latitude": 23.482307,
        "longitude": 57.292482
    },
    {
        "name": "Nakhal",
        "country": "Oman",
        "province": "Al Batinah South",
        "population": -1,
        "latitude": 23.39849,
        "longitude": 57.821803
    },
    {
        "name": "Nāhiz",
        "country": "Oman",
        "province": "Dhofar",
        "population": -1,
        "latitude": 17.1333333,
        "longitude": 54.0166667
    },
    {
        "name": "Al Muţayla‘",
        "country": "Oman",
        "province": "Northeastern Governorate",
        "population": -1,
        "latitude": 22.553341,
        "longitude": 58.00628
    },
    {
        "name": "Al Mu‘tamar",
        "country": "Oman",
        "province": "Ad Dakhiliyah",
        "population": -1,
        "latitude": 22.772697,
        "longitude": 57.4808
    },
    {
        "name": "Al Mughsayl",
        "country": "Oman",
        "province": "Dhofar",
        "population": -1,
        "latitude": 16.884064,
        "longitude": 53.790946
    },
    {
        "name": "Al Murtafi‘ah",
        "country": "Oman",
        "province": "Muscat",
        "population": -1,
        "latitude": 23.573077,
        "longitude": 58.254344
    },
    {
        "name": "Misfāt ash Shurayqīyn",
        "country": "Oman",
        "province": "Al Batinah South",
        "population": -1,
        "latitude": 23.183351,
        "longitude": 57.607702
    },
    {
        "name": "Mirbāţ",
        "country": "Oman",
        "province": "Dhofar",
        "population": -1,
        "latitude": 16.996382091456777,
        "longitude": 54.69062805175781
    },
    {
        "name": "Al Manzifah",
        "country": "Oman",
        "province": "Ad Dakhiliyah",
        "population": -1,
        "latitude": 23.49346,
        "longitude": 57.01405
    },
    {
        "name": "Midḩ",
        "country": "Oman",
        "province": "Musandam Governorate",
        "population": -1,
        "latitude": 26.24216,
        "longitude": 56.38189
    },
    {
        "name": "As Sumayr al ‘Alwīyah",
        "country": "Oman",
        "province": "Muscat",
        "population": -1,
        "latitude": 23.24507,
        "longitude": 58.76143
    },
    {
        "name": "Al Mawāliḩ al Janūbīyah",
        "country": "Oman",
        "province": "Muscat",
        "population": -1,
        "latitude": 23.604956,
        "longitude": 58.228824
    },
    {
        "name": "Marsawdad",
        "country": "Oman",
        "province": "Dhofar",
        "population": -1,
        "latitude": 19.430581,
        "longitude": 54.415576
    },
    {
        "name": "Al Muţīb",
        "country": "Oman",
        "province": "Ad Dakhiliyah",
        "population": -1,
        "latitude": 23.054722,
        "longitude": 57.956111
    },
    {
        "name": "Al Manz̧arīyah",
        "country": "Oman",
        "province": "Muscat",
        "population": -1,
        "latitude": 23.343945,
        "longitude": 58.552288
    },
    {
        "name": "Marmūl",
        "country": "Oman",
        "province": "Ad Dhahirah",
        "population": -1,
        "latitude": 18.174673,
        "longitude": 55.215085
    },
    {
        "name": "Majz al Kubrá",
        "country": "Oman",
        "province": "Al Batinah North",
        "population": -1,
        "latitude": 24.247357,
        "longitude": 56.830331
    },
    {
        "name": "Maqā‘isah",
        "country": "Oman",
        "province": "Al Batinah North",
        "population": -1,
        "latitude": 24.07342,
        "longitude": 56.98746
    },
    {
        "name": "Al Maḩyūl",
        "country": "Oman",
        "province": "Ad Dhahirah",
        "population": -1,
        "latitude": 23.58115,
        "longitude": 56.642609
    },
    {
        "name": "Al Mu‘baylah ash Shamālīyah",
        "country": "Oman",
        "province": "Muscat",
        "population": -1,
        "latitude": 23.677729,
        "longitude": 58.135518
    },
    {
        "name": "Lizq",
        "country": "Oman",
        "province": "Northeastern Governorate",
        "population": -1,
        "latitude": 22.715572,
        "longitude": 58.172617
    },
    {
        "name": "Līmā’",
        "country": "Oman",
        "province": "Musandam Governorate",
        "population": -1,
        "latitude": 25.942051,
        "longitude": 56.424192
    },
    {
        "name": "Al Layhabān",
        "country": "Oman",
        "province": "Al Batinah North",
        "population": -1,
        "latitude": 23.790833,
        "longitude": 56.873056
    },
    {
        "name": "Al Anşab",
        "country": "Oman",
        "province": "Muscat",
        "population": -1,
        "latitude": 23.538003,
        "longitude": 58.354488
    },
    {
        "name": "Al Khuwayrāt",
        "country": "Oman",
        "province": "Al Batinah North",
        "population": -1,
        "latitude": 23.932887,
        "longitude": 57.122668
    },
    {
        "name": "Kusāt",
        "country": "Oman",
        "province": "Dhofar",
        "population": -1,
        "latitude": 17.235278,
        "longitude": 54.048333
    },
    {
        "name": "Wādī Qarī",
        "country": "Oman",
        "province": "Ad Dakhiliyah",
        "population": -1,
        "latitude": 23.162916,
        "longitude": 57.855168
    },
    {
        "name": "Kumzār",
        "country": "Oman",
        "province": "Musandam Governorate",
        "population": -1,
        "latitude": 26.337161,
        "longitude": 56.410341
    },
    {
        "name": "Kūbat an Naşr",
        "country": "Oman",
        "province": "Dhofar",
        "population": -1,
        "latitude": 18.116891,
        "longitude": 52.898324
    },
    {
        "name": "Kizīt Akhyayf",
        "country": "Oman",
        "province": "Dhofar",
        "population": -1,
        "latitude": 17.108792,
        "longitude": 54.490891
    },
    {
        "name": "Kitheort",
        "country": "Oman",
        "province": "Dhofar",
        "population": -1,
        "latitude": 17.1180556,
        "longitude": 53.9811111
    },
    {
        "name": "Kinḩāt",
        "country": "Oman",
        "province": "Dhofar",
        "population": -1,
        "latitude": 17.142951,
        "longitude": 54.340884
    },
    {
        "name": "Al Khuzayrīyah",
        "country": "Oman",
        "province": "Ad Dhahirah",
        "population": -1,
        "latitude": 23.752222,
        "longitude": 56.213889
    },
    {
        "name": "Khubayfah",
        "country": "Oman",
        "province": "Al Batinah North",
        "population": -1,
        "latitude": 24.005886,
        "longitude": 56.509951
    },
    {
        "name": "Khidr Marghūth",
        "country": "Oman",
        "province": "Dhofar",
        "population": -1,
        "latitude": 17.091389,
        "longitude": 54.123611
    },
    {
        "name": "Khawr Rawrī",
        "country": "Oman",
        "province": "Dhofar",
        "population": -1,
        "latitude": 17.033333,
        "longitude": 54.45
    },
    {
        "name": "Khaţmat Milāḩah",
        "country": "Oman",
        "province": "Al Batinah North",
        "population": -1,
        "latitude": 24.973901,
        "longitude": 56.364941
    },
    {
        "name": "Khasur",
        "country": "Oman",
        "province": "Dhofar",
        "population": -1,
        "latitude": 17.095,
        "longitude": 54.385
    },
    {
        "name": "Al Qaşaf",
        "country": "Oman",
        "province": "Al Batinah North",
        "population": -1,
        "latitude": 23.918367,
        "longitude": 57.021615
    },
    {
        "name": "Al Kaḩil",
        "country": "Oman",
        "province": "Al Wusta Governorate",
        "population": -1,
        "latitude": 18.581853,
        "longitude": 56.596659
    },
    {
        "name": "Khaftawt",
        "country": "Oman",
        "province": "Dhofar",
        "population": -1,
        "latitude": 16.9833333,
        "longitude": 54.0166667
    },
    {
        "name": "Khadal Falaj as Sāfil",
        "country": "Oman",
        "province": "Ad Dhahirah",
        "population": -1,
        "latitude": 23.466447,
        "longitude": 56.656504
    },
    {
        "name": "Al Khābūrah",
        "country": "Oman",
        "province": "Ad Dhahirah",
        "population": -1,
        "latitude": 23.558011,
        "longitude": 56.531792
    },
    {
        "name": "Kartlayt",
        "country": "Oman",
        "province": "Dhofar",
        "population": -1,
        "latitude": 17.1288889,
        "longitude": 54.4569444
    },
    {
        "name": "Karshayt",
        "country": "Oman",
        "province": "Dhofar",
        "population": -1,
        "latitude": 17.060418,
        "longitude": 54.446065
    },
    {
        "name": "Junawl",
        "country": "Oman",
        "province": "Dhofar",
        "population": -1,
        "latitude": 17.120411,
        "longitude": 54.008707
    },
    {
        "name": "Al Jifār",
        "country": "Oman",
        "province": "Muscat",
        "population": -1,
        "latitude": 23.527678,
        "longitude": 58.33264
    },
    {
        "name": "Jibjāt",
        "country": "Oman",
        "province": "Dhofar",
        "population": -1,
        "latitude": 17.247627,
        "longitude": 54.497995
    },
    {
        "name": "Al Ghulayyil",
        "country": "Oman",
        "province": "Ad Dakhiliyah",
        "population": -1,
        "latitude": 23.118889,
        "longitude": 57.5775
    },
    {
        "name": "Qawḑā",
        "country": "Oman",
        "province": "Southeastern Governorate",
        "population": -1,
        "latitude": 22.649289,
        "longitude": 59.346745
    },
    {
        "name": "Jurdmānah",
        "country": "Oman",
        "province": "Al Batinah South",
        "population": -1,
        "latitude": 23.239722,
        "longitude": 58.234167
    },
    {
        "name": "Jabrīn",
        "country": "Oman",
        "province": "Ad Dakhiliyah",
        "population": -1,
        "latitude": 22.923493,
        "longitude": 57.25121
    },
    {
        "name": "Indāf",
        "country": "Oman",
        "province": "Dhofar",
        "population": -1,
        "latitude": 17.0833333,
        "longitude": 54.3769444
    },
    {
        "name": "Şa‘ib",
        "country": "Oman",
        "province": "Ad Dakhiliyah",
        "population": -1,
        "latitude": 23.373275,
        "longitude": 56.952511
    },
    {
        "name": "Ḩimşī",
        "country": "Oman",
        "province": "Musandam Governorate",
        "population": -1,
        "latitude": 26.195702,
        "longitude": 56.284526
    },
    {
        "name": "Al Makhāmirah",
        "country": "Oman",
        "province": "Al Batinah North",
        "population": -1,
        "latitude": 24.615435,
        "longitude": 56.536453
    },
    {
        "name": "Hezaar",
        "country": "Oman",
        "province": "Dhofar",
        "population": -1,
        "latitude": 17.1325,
        "longitude": 53.973657
    },
    {
        "name": "Al Ḩazm",
        "country": "Oman",
        "province": "Al Batinah South",
        "population": -1,
        "latitude": 23.551666,
        "longitude": 57.476169
    },
    {
        "name": "Al Ḩaymalī",
        "country": "Oman",
        "province": "Al Batinah North",
        "population": -1,
        "latitude": 23.587065,
        "longitude": 57.228885
    },
    {
        "name": "Al Ḩaylayn",
        "country": "Oman",
        "province": "Al Batinah North",
        "population": -1,
        "latitude": 23.636599,
        "longitude": 57.118601
    },
    {
        "name": "Ḩayl al Ghāfah",
        "country": "Oman",
        "province": "Al Batinah North",
        "population": -1,
        "latitude": 23.56478,
        "longitude": 57.186521
    },
    {
        "name": "Al Ḩayl",
        "country": "Oman",
        "province": "Al Buraimi",
        "population": -1,
        "latitude": 24.55062,
        "longitude": 56.10199
    },
    {
        "name": "Al Ḩayl",
        "country": "Oman",
        "province": "Al Buraimi",
        "population": -1,
        "latitude": 24.19996,
        "longitude": 56.22418
    },
    {
        "name": "Al Hijār",
        "country": "Oman",
        "province": "Al Batinah South",
        "population": -1,
        "latitude": 23.188056,
        "longitude": 57.574167
    },
    {
        "name": "Ghadū",
        "country": "Oman",
        "province": "Dhofar",
        "population": -1,
        "latitude": 17.12642,
        "longitude": 53.996791
    },
    {
        "name": "Al Ḩawīyah",
        "country": "Oman",
        "province": "Northeastern Governorate",
        "population": -1,
        "latitude": 22.38971,
        "longitude": 58.8529
    },
    {
        "name": "Ghaşşah",
        "country": "Oman",
        "province": "Musandam Governorate",
        "population": -1,
        "latitude": 26.24038,
        "longitude": 56.3174
    },
    {
        "name": "Al Ḩarmalī",
        "country": "Oman",
        "province": "Al Batinah North",
        "population": -1,
        "latitude": 23.667794,
        "longitude": 56.92681
    },
    {
        "name": "Khuzām",
        "country": "Oman",
        "province": "Al Batinah North",
        "population": -1,
        "latitude": 23.792343,
        "longitude": 57.110469
    },
    {
        "name": "Ḩannā",
        "country": "Oman",
        "province": "Musandam Governorate",
        "population": -1,
        "latitude": 26.228928,
        "longitude": 56.213953
    },
    {
        "name": "Al Ḩumayḑah",
        "country": "Oman",
        "province": "Ad Dakhiliyah",
        "population": -1,
        "latitude": 22.905834,
        "longitude": 57.913187
    },
    {
        "name": "Al Ḩaymah",
        "country": "Oman",
        "province": "Muscat",
        "population": -1,
        "latitude": 23.37212,
        "longitude": 58.678902
    },
    {
        "name": "Ḩallūf",
        "country": "Oman",
        "province": "Dhofar",
        "population": -1,
        "latitude": 17.350835,
        "longitude": 53.963853
    },
    {
        "name": "Ḩalbān",
        "country": "Oman",
        "province": "Al Batinah South",
        "population": -1,
        "latitude": 23.581375,
        "longitude": 58.038293
    },
    {
        "name": "Ḩiqil",
        "country": "Oman",
        "province": "Southeastern Governorate",
        "population": -1,
        "latitude": 20.361377,
        "longitude": 58.789456
    },
    {
        "name": "Al Ḩājir",
        "country": "Oman",
        "province": "Muscat",
        "population": -1,
        "latitude": 23.381309,
        "longitude": 58.517395
    },
    {
        "name": "Ḩadash",
        "country": "Oman",
        "province": "Ad Dakhiliyah",
        "population": -1,
        "latitude": 23.126389,
        "longitude": 57.753889
    },
    {
        "name": "Ḩadaf",
        "country": "Oman",
        "province": "Al Buraimi",
        "population": -1,
        "latitude": 24.794722,
        "longitude": 56.011111
    },
    {
        "name": "Habkayt",
        "country": "Oman",
        "province": "Dhofar",
        "population": -1,
        "latitude": 17.1136111,
        "longitude": 54.0272222
    },
    {
        "name": "Al Ḩablayn",
        "country": "Oman",
        "province": "Musandam Governorate",
        "population": -1,
        "latitude": 26.15208,
        "longitude": 56.3279
    },
    {
        "name": "Glaet",
        "country": "Oman",
        "province": "Dhofar",
        "population": -1,
        "latitude": 17.1405556,
        "longitude": 54.0827778
    },
    {
        "name": "Al Ghīzayn",
        "country": "Oman",
        "province": "Al Batinah North",
        "population": -1,
        "latitude": 23.813395,
        "longitude": 56.98382
    },
    {
        "name": "Al Ghashībah",
        "country": "Oman",
        "province": "Muscat",
        "population": -1,
        "latitude": 23.686453,
        "longitude": 58.112722
    },
    {
        "name": "Ghadīyah",
        "country": "Oman",
        "province": "Dhofar",
        "population": -1,
        "latitude": 17.076255,
        "longitude": 54.463508
    },
    {
        "name": "Al Ghubayrah",
        "country": "Oman",
        "province": "Ad Dakhiliyah",
        "population": -1,
        "latitude": 22.804384,
        "longitude": 58.02797
    },
    {
        "name": "Ghoff",
        "country": "Oman",
        "province": "Dhofar",
        "population": -1,
        "latitude": 17.1180556,
        "longitude": 54.0097222
    },
    {
        "name": "Al Ghubrah",
        "country": "Oman",
        "province": "Al Batinah North",
        "population": -1,
        "latitude": 23.529541,
        "longitude": 57.193729
    },
    {
        "name": "Al Gharyayn",
        "country": "Oman",
        "province": "Ad Dakhiliyah",
        "population": -1,
        "latitude": 22.888115,
        "longitude": 58.014767
    },
    {
        "name": "Gharnūt",
        "country": "Oman",
        "province": "Dhofar",
        "population": -1,
        "latitude": 17.1475,
        "longitude": 54.195278
    },
    {
        "name": "Gharnawt",
        "country": "Oman",
        "province": "Dhofar",
        "population": -1,
        "latitude": 17.1427778,
        "longitude": 54.1330556
    },
    {
        "name": "Ghar Milah",
        "country": "Oman",
        "province": "Dhofar",
        "population": -1,
        "latitude": 17.1516667,
        "longitude": 54.1994444
    },
    {
        "name": "Ghalā",
        "country": "Oman",
        "province": "Muscat",
        "population": -1,
        "latitude": 23.532702,
        "longitude": 58.380151
    },
    {
        "name": "Geamawt",
        "country": "Oman",
        "province": "Dhofar",
        "population": -1,
        "latitude": 17.1188889,
        "longitude": 54.0155556
    },
    {
        "name": "Falj al Mashāyikh",
        "country": "Oman",
        "province": "Southeastern Governorate",
        "population": -1,
        "latitude": 22.13439,
        "longitude": 59.17275
    },
    {
        "name": "Al Fulayj",
        "country": "Oman",
        "province": "Ad Dakhiliyah",
        "population": -1,
        "latitude": 22.663656,
        "longitude": 57.359195
    },
    {
        "name": "Al Fayyāḑ",
        "country": "Oman",
        "province": "Muscat",
        "population": -1,
        "latitude": 23.308579,
        "longitude": 58.728395
    },
    {
        "name": "Fall",
        "country": "Oman",
        "province": "Ad Dakhiliyah",
        "population": -1,
        "latitude": 22.676819,
        "longitude": 57.289915
    },
    {
        "name": "Al Film",
        "country": "Oman",
        "province": "Musandam Governorate",
        "population": -1,
        "latitude": 26.18849,
        "longitude": 56.41787
    },
    {
        "name": "Al Fatḩ",
        "country": "Oman",
        "province": "Northeastern Governorate",
        "population": -1,
        "latitude": 22.616564,
        "longitude": 58.140298
    },
    {
        "name": "Fanjā’",
        "country": "Oman",
        "province": "Ad Dakhiliyah",
        "population": -1,
        "latitude": 23.45794,
        "longitude": 58.09861
    },
    {
        "name": "Falaj al Wusţá",
        "country": "Oman",
        "province": "Al Batinah South",
        "population": -1,
        "latitude": 23.563056,
        "longitude": 57.444167
    },
    {
        "name": "Falaj Banī Khuzayr",
        "country": "Oman",
        "province": "Al Batinah South",
        "population": -1,
        "latitude": 23.319182,
        "longitude": 57.581711
    },
    {
        "name": "Falaj as Sudayrīyn",
        "country": "Oman",
        "province": "Ad Dhahirah",
        "population": -1,
        "latitude": 23.698236,
        "longitude": 56.50691
    },
    {
        "name": "Falaj Ash Shām",
        "country": "Oman",
        "province": "Muscat",
        "population": -1,
        "latitude": 23.507112,
        "longitude": 58.344599
    },
    {
        "name": "Falaj al ‘Ālī",
        "country": "Oman",
        "province": "Al Batinah South",
        "population": -1,
        "latitude": 23.5513,
        "longitude": 57.448463
    },
    {
        "name": "Al ‘Awhī",
        "country": "Oman",
        "province": "Al Batinah North",
        "population": -1,
        "latitude": 24.402022,
        "longitude": 56.668932
    },
    {
        "name": "Faḑghā’",
        "country": "Oman",
        "province": "Musandam Governorate",
        "population": -1,
        "latitude": 26.124842,
        "longitude": 56.132332
    },
    {
        "name": "Erqūt Daham",
        "country": "Oman",
        "province": "Dhofar",
        "population": -1,
        "latitude": 17.091389,
        "longitude": 54.383333
    },
    {
        "name": "Eerdeent",
        "country": "Oman",
        "province": "Dhofar",
        "population": -1,
        "latitude": 17.1322222,
        "longitude": 53.9947222
    },
    {
        "name": "Dūbah",
        "country": "Oman",
        "province": "Dhofar",
        "population": -1,
        "latitude": 17.153333,
        "longitude": 54.021944
    },
    {
        "name": "Duqāl",
        "country": "Oman",
        "province": "Al Batinah North",
        "population": -1,
        "latitude": 23.870833,
        "longitude": 56.908889
    },
    {
        "name": "Ḑibāb",
        "country": "Oman",
        "province": "Muscat",
        "population": -1,
        "latitude": 23.07836,
        "longitude": 59.05406
    },
    {
        "name": "Dubayk",
        "country": "Oman",
        "province": "Northeastern Governorate",
        "population": -1,
        "latitude": 22.611767,
        "longitude": 58.802469
    },
    {
        "name": "Ḑank",
        "country": "Oman",
        "province": "Ad Dhahirah",
        "population": -1,
        "latitude": 23.550541,
        "longitude": 56.257252
    },
    {
        "name": "Az̧ Z̧āhir",
        "country": "Oman",
        "province": "Al Buraimi",
        "population": -1,
        "latitude": 24.302142,
        "longitude": 56.128772
    },
    {
        "name": "‘Arām",
        "country": "Oman",
        "province": "Dhofar",
        "population": -1,
        "latitude": 17.096172,
        "longitude": 54.39604
    },
    {
        "name": "Abū Qal‘ah",
        "country": "Oman",
        "province": "Al Buraimi",
        "population": -1,
        "latitude": 24.400661,
        "longitude": 56.034928
    },
    {
        "name": "Abū Khābī",
        "country": "Oman",
        "province": "Ad Dhahirah",
        "population": -1,
        "latitude": 23.448497,
        "longitude": 56.209517
    },
    {
        "name": "Bukhā’",
        "country": "Oman",
        "province": "Musandam Governorate",
        "population": -1,
        "latitude": 26.141067,
        "longitude": 56.152016
    },
    {
        "name": "Al Buday‘ah",
        "country": "Oman",
        "province": "Al Batinah North",
        "population": -1,
        "latitude": 23.721061,
        "longitude": 56.903465
    },
    {
        "name": "Bisyā’",
        "country": "Oman",
        "province": "Ad Dakhiliyah",
        "population": -1,
        "latitude": 22.727849,
        "longitude": 57.245339
    },
    {
        "name": "Kazmīm",
        "country": "Oman",
        "province": "Dhofar",
        "population": -1,
        "latitude": 17.191784,
        "longitude": 53.997659
    },
    {
        "name": "Bawshar Banī ‘Umrān",
        "country": "Oman",
        "province": "Muscat",
        "population": -1,
        "latitude": 23.534397,
        "longitude": 58.396328
    },
    {
        "name": "Bamah",
        "country": "Oman",
        "province": "Muscat",
        "population": -1,
        "latitude": 22.990003,
        "longitude": 59.13827
    },
    {
        "name": "Balad Sayt",
        "country": "Oman",
        "province": "Ad Dakhiliyah",
        "population": -1,
        "latitude": 23.189898,
        "longitude": 57.388035
    },
    {
        "name": "Manaḩ",
        "country": "Oman",
        "province": "Ad Dakhiliyah",
        "population": -1,
        "latitude": 22.792035,
        "longitude": 57.605934
    },
    {
        "name": "Bilād Şūr",
        "country": "Oman",
        "province": "Southeastern Governorate",
        "population": -1,
        "latitude": 22.555318,
        "longitude": 59.487205
    },
    {
        "name": "‘Aqabat al Ḩamrā’",
        "country": "Oman",
        "province": "Ad Dakhiliyah",
        "population": -1,
        "latitude": 23.158333,
        "longitude": 57.339167
    },
    {
        "name": "Bayt Fiqayt",
        "country": "Oman",
        "province": "Dhofar",
        "population": -1,
        "latitude": 17.146099,
        "longitude": 54.426771
    },
    {
        "name": "Baţḩā’ Hilāl",
        "country": "Oman",
        "province": "Al Batinah North",
        "population": -1,
        "latitude": 23.832006,
        "longitude": 57.411964
    },
    {
        "name": "Wādī Banī Ḩabīb",
        "country": "Oman",
        "province": "Ad Dakhiliyah",
        "population": -1,
        "latitude": 23.077973,
        "longitude": 57.606733
    },
    {
        "name": "Al Khīrān",
        "country": "Oman",
        "province": "Muscat",
        "population": -1,
        "latitude": 23.500845,
        "longitude": 58.734217
    },
    {
        "name": "Badīyah",
        "country": "Oman",
        "province": "Northeastern Governorate",
        "population": 18479,
        "latitude": 22.45,
        "longitude": 58.8
    },
    {
        "name": "Biday‘ūh",
        "country": "Oman",
        "province": "Al Batinah North",
        "population": -1,
        "latitude": 23.828315,
        "longitude": 57.508025
    },
    {
        "name": "Azeyrenawt",
        "country": "Oman",
        "province": "Dhofar",
        "population": -1,
        "latitude": 17.1038889,
        "longitude": 54.0297222
    },
    {
        "name": "Al ‘Ayjah",
        "country": "Oman",
        "province": "Southeastern Governorate",
        "population": -1,
        "latitude": 22.566154,
        "longitude": 59.544691
    },
    {
        "name": "‘Awqad Bayt Marhūn",
        "country": "Oman",
        "province": "Dhofar",
        "population": -1,
        "latitude": 17.003197613436477,
        "longitude": 54.0407996529819
    },
    {
        "name": "Al ‘Awābī",
        "country": "Oman",
        "province": "Al Batinah South",
        "population": -1,
        "latitude": 23.306111,
        "longitude": 57.531111
    },
    {
        "name": "As Siwayḩ",
        "country": "Oman",
        "province": "Southeastern Governorate",
        "population": -1,
        "latitude": 22.08738,
        "longitude": 59.68681
    },
    {
        "name": "As Sunaynah",
        "country": "Oman",
        "province": "Al Buraimi",
        "population": -1,
        "latitude": 23.606499,
        "longitude": 55.954477
    },
    {
        "name": "As Sulayf",
        "country": "Oman",
        "province": "Ad Dakhiliyah",
        "population": -1,
        "latitude": 23.196864,
        "longitude": 56.52266
    },
    {
        "name": "As Sudayrah",
        "country": "Oman",
        "province": "Northeastern Governorate",
        "population": -1,
        "latitude": 22.57867,
        "longitude": 58.014562
    },
    {
        "name": "Aş Şubaykhī",
        "country": "Oman",
        "province": "Ad Dhahirah",
        "population": -1,
        "latitude": 23.322708,
        "longitude": 56.323975
    },
    {
        "name": "As Sīfah",
        "country": "Oman",
        "province": "Muscat",
        "population": -1,
        "latitude": 23.43046,
        "longitude": 58.77904
    },
    {
        "name": "Shīşah",
        "country": "Oman",
        "province": "Musandam Governorate",
        "population": -1,
        "latitude": 26.26184,
        "longitude": 56.394
    },
    {
        "name": "Ash Shawr",
        "country": "Oman",
        "province": "Dhofar",
        "population": -1,
        "latitude": 17.15,
        "longitude": 54.3166667
    },
    {
        "name": "Al Fulayj",
        "country": "Oman",
        "province": "Al Batinah South",
        "population": -1,
        "latitude": 23.595647,
        "longitude": 57.99079
    },
    {
        "name": "Arzāt",
        "country": "Oman",
        "province": "Dhofar",
        "population": -1,
        "latitude": 17.035,
        "longitude": 54.2094444
    },
    {
        "name": "Ar Rīḩānī",
        "country": "Oman",
        "province": "Al Buraimi",
        "population": -1,
        "latitude": 23.620868,
        "longitude": 55.954154
    },
    {
        "name": "Arkūt",
        "country": "Oman",
        "province": "Dhofar",
        "population": -1,
        "latitude": 17.141667,
        "longitude": 54.1625
    },
    {
        "name": "Araft",
        "country": "Oman",
        "province": "Dhofar",
        "population": -1,
        "latitude": 17,
        "longitude": 53.9833333
    },
    {
        "name": "An Nujayd",
        "country": "Oman",
        "province": "Ad Dakhiliyah",
        "population": -1,
        "latitude": 23.465289,
        "longitude": 56.79518
    },
    {
        "name": "Amnot",
        "country": "Oman",
        "province": "Dhofar",
        "population": -1,
        "latitude": 17.1736111,
        "longitude": 54.0836111
    },
    {
        "name": "Wāsiţ",
        "country": "Oman",
        "province": "Al Buraimi",
        "population": -1,
        "latitude": 24.206272,
        "longitude": 56.267856
    },
    {
        "name": "Al Wāşil",
        "country": "Oman",
        "province": "Northeastern Governorate",
        "population": -1,
        "latitude": 22.500833,
        "longitude": 58.742866
    },
    {
        "name": "Al Afrāḑ",
        "country": "Oman",
        "province": "Al Buraimi",
        "population": -1,
        "latitude": 24.361372,
        "longitude": 56.048991
    },
    {
        "name": "Al Jaylah",
        "country": "Oman",
        "province": "Ad Dakhiliyah",
        "population": -1,
        "latitude": 23.3519,
        "longitude": 58.01757
    },
    {
        "name": "Ḩalfā’",
        "country": "Oman",
        "province": "Oman",
        "population": -1,
        "latitude": 22.561285,
        "longitude": 59.107821
    },
    {
        "name": "Al Qābil",
        "country": "Oman",
        "province": "Al Buraimi",
        "population": -1,
        "latitude": 23.941246,
        "longitude": 55.820787
    },
    {
        "name": "Al Masan",
        "country": "Oman",
        "province": "Al Batinah North",
        "population": -1,
        "latitude": 23.733333,
        "longitude": 56.766667
    },
    {
        "name": "Murayr al Maţārīsh",
        "country": "Oman",
        "province": "Al Batinah North",
        "population": -1,
        "latitude": 24.929989,
        "longitude": 56.388158
    },
    {
        "name": "Al Mulaynah",
        "country": "Oman",
        "province": "Ad Dakhiliyah",
        "population": -1,
        "latitude": 23.43481,
        "longitude": 58.13633
    },
    {
        "name": "Mikhaylīf",
        "country": "Oman",
        "province": "Al Batinah North",
        "population": -1,
        "latitude": 24.1235,
        "longitude": 56.92955
    },
    {
        "name": "Al Muḑayrib",
        "country": "Oman",
        "province": "Northeastern Governorate",
        "population": -1,
        "latitude": 22.613447,
        "longitude": 58.667656
    },
    {
        "name": "Umm Sayḩ",
        "country": "Oman",
        "province": "Al Batinah North",
        "population": -1,
        "latitude": 23.811791,
        "longitude": 57.487068
    },
    {
        "name": "Al Muḑaybī",
        "country": "Oman",
        "province": "Northeastern Governorate",
        "population": -1,
        "latitude": 22.570316,
        "longitude": 58.121149
    },
    {
        "name": "Al Mintarib",
        "country": "Oman",
        "province": "Northeastern Governorate",
        "population": -1,
        "latitude": 22.4301,
        "longitude": 58.80591
    },
    {
        "name": "Al Maşna‘ah",
        "country": "Oman",
        "province": "Al Batinah North",
        "population": -1,
        "latitude": 23.779969,
        "longitude": 57.640136
    },
    {
        "name": "‘Uqayr al ‘Abriyīn",
        "country": "Oman",
        "province": "Ad Dhahirah",
        "population": -1,
        "latitude": 23.779526,
        "longitude": 56.623523
    },
    {
        "name": "Al Khawd",
        "country": "Oman",
        "province": "Muscat",
        "population": -1,
        "latitude": 23.628039,
        "longitude": 58.198411
    },
    {
        "name": "Khaḑrāwayn",
        "country": "Oman",
        "province": "Al Batinah North",
        "population": -1,
        "latitude": 24.854444,
        "longitude": 56.403333
    },
    {
        "name": "Khaḑrā’ Āl Sa‘ad",
        "country": "Oman",
        "province": "Al Batinah North",
        "population": -1,
        "latitude": 23.857103,
        "longitude": 57.327591
    },
    {
        "name": "Karshā",
        "country": "Oman",
        "province": "Musandam Governorate",
        "population": -1,
        "latitude": 25.66013,
        "longitude": 56.267272
    },
    {
        "name": "Al Jafnayn",
        "country": "Oman",
        "province": "Muscat",
        "population": -1,
        "latitude": 23.526201,
        "longitude": 58.190976
    },
    {
        "name": "Al Jādī",
        "country": "Oman",
        "province": "Musandam Governorate",
        "population": -1,
        "latitude": 26.163577,
        "longitude": 56.170964
    },
    {
        "name": "Ḩusayfīn",
        "country": "Oman",
        "province": "Al Batinah North",
        "population": -1,
        "latitude": 24.632222,
        "longitude": 56.528056
    },
    {
        "name": "Ḩayl al Khanābishah",
        "country": "Oman",
        "province": "Ad Dhahirah",
        "population": -1,
        "latitude": 23.933517,
        "longitude": 56.347594
    },
    {
        "name": "Al Ḩuşayn",
        "country": "Oman",
        "province": "Al Batinah South",
        "population": -1,
        "latitude": 23.445833,
        "longitude": 57.632778
    },
    {
        "name": "Al Ḩillah al ‘Ulwīyah",
        "country": "Oman",
        "province": "Musandam Governorate",
        "population": -1,
        "latitude": 26.102608,
        "longitude": 56.142173
    },
    {
        "name": "Al Ḩamrā’",
        "country": "Oman",
        "province": "Ad Dakhiliyah",
        "population": -1,
        "latitude": 23.115185,
        "longitude": 57.291428
    },
    {
        "name": "Ras al Hadd",
        "country": "Oman",
        "province": "Southeastern Governorate",
        "population": -1,
        "latitude": 22.523078,
        "longitude": 59.791173
    },
    {
        "name": "Al Habūbīyah",
        "country": "Oman",
        "province": "Muscat",
        "population": -1,
        "latitude": 23.270748,
        "longitude": 58.746714
    },
    {
        "name": "Al Fayy",
        "country": "Oman",
        "province": "Al Buraimi",
        "population": -1,
        "latitude": 24.76221,
        "longitude": 56.166896
    },
    {
        "name": "Al Ashkharah",
        "country": "Oman",
        "province": "Southeastern Governorate",
        "population": -1,
        "latitude": 21.84728,
        "longitude": 59.571581
    },
    {
        "name": "Al ‘Āriḑ",
        "country": "Oman",
        "province": "Ad Dhahirah",
        "population": -1,
        "latitude": 23.433458,
        "longitude": 56.625514
    },
    {
        "name": "‘Uqayr Banī ‘Īsá",
        "country": "Oman",
        "province": "Al Batinah North",
        "population": -1,
        "latitude": 23.982075,
        "longitude": 56.409082
    },
    {
        "name": "Al Akhḑar",
        "country": "Oman",
        "province": "Ad Dhahirah",
        "population": -1,
        "latitude": 23.222475,
        "longitude": 56.460421
    },
    {
        "name": "Al ‘Arhamīyah",
        "country": "Oman",
        "province": "Al Buraimi",
        "population": -1,
        "latitude": 24.61778,
        "longitude": 56.02693
    },
    {
        "name": "Al Abyaḑ",
        "country": "Oman",
        "province": "Al Batinah South",
        "population": -1,
        "latitude": 23.465556,
        "longitude": 57.666111
    },
    {
        "name": "‘Aybūt",
        "country": "Oman",
        "province": "Dhofar",
        "population": -1,
        "latitude": 17.396135,
        "longitude": 53.29771
    },
    {
        "name": "Ad Duwaykah",
        "country": "Oman",
        "province": "Al Batinah South",
        "population": -1,
        "latitude": 23.698611,
        "longitude": 58.037222
    },
    {
        "name": "Adkhām",
        "country": "Oman",
        "province": "Dhofar",
        "population": -1,
        "latitude": 17.14821,
        "longitude": 54.355573
    },
    {
        "name": "Abū an Nakhīl",
        "country": "Oman",
        "province": "Al Batinah South",
        "population": -1,
        "latitude": 23.711191,
        "longitude": 58.030062
    },
    {
        "name": "Siqaţţah",
        "country": "Oman",
        "province": "Musandam Governorate",
        "population": -1,
        "latitude": 25.618051,
        "longitude": 56.239248
    },
    {
        "name": "As Sanādil",
        "country": "Oman",
        "province": "Al Buraimi",
        "population": -1,
        "latitude": 24.812512,
        "longitude": 56.026687
    },
    {
        "name": "Şahnā",
        "country": "Oman",
        "province": "Musandam Governorate",
        "population": -1,
        "latitude": 25.286075,
        "longitude": 56.307946
    },
    {
        "name": "Al Ghūnah",
        "country": "Oman",
        "province": "Musandam Governorate",
        "population": -1,
        "latitude": 25.269944,
        "longitude": 56.314253
    },
    {
        "name": "Qayrantī Barq",
        "country": "Oman",
        "province": "Dhofar",
        "population": -1,
        "latitude": 16.810328,
        "longitude": 53.377898
    },
    {
        "name": "‘Arfat",
        "country": "Oman",
        "province": "Dhofar",
        "population": -1,
        "latitude": 16.811481,
        "longitude": 53.518252
    },
    {
        "name": "Jinan Bin Nawāţīsh",
        "country": "Oman",
        "province": "Dhofar",
        "population": -1,
        "latitude": 18.041965,
        "longitude": 53.664708
    },
    {
        "name": "Al Ḩimz̧ī",
        "country": "Oman",
        "province": "Muscat",
        "population": -1,
        "latitude": 23.366372,
        "longitude": 58.517386
    },
    {
        "name": "Al Maḩajj",
        "country": "Oman",
        "province": "Muscat",
        "population": -1,
        "latitude": 23.496948,
        "longitude": 58.507247
    },
    {
        "name": "Madīnat al Ḩaqq",
        "country": "Oman",
        "province": "Dhofar",
        "population": -1,
        "latitude": 17.177633,
        "longitude": 54.386224
    },
    {
        "name": "Sadaḩ",
        "country": "Oman",
        "province": "Dhofar",
        "population": -1,
        "latitude": 17.201564,
        "longitude": 54.336139
    },
    {
        "name": "‘Ayn Ḑayt Aḩārāt",
        "country": "Oman",
        "province": "Dhofar",
        "population": -1,
        "latitude": 17.203957,
        "longitude": 54.056782
    },
    {
        "name": "Kīzīt Aşāq",
        "country": "Oman",
        "province": "Dhofar",
        "population": -1,
        "latitude": 16.819429,
        "longitude": 53.409678
    },
    {
        "name": "Old Muscat",
        "country": "Oman",
        "province": "Muscat",
        "population": -1,
        "latitude": 23.61468,
        "longitude": 58.59381
    },
    {
        "name": "Jidayrit",
        "country": "Oman",
        "province": "Dhofar",
        "population": -1,
        "latitude": 16.814436,
        "longitude": 53.316164
    },
    {
        "name": "Al Khawḑ",
        "country": "Oman",
        "province": "Muscat",
        "population": -1,
        "latitude": 23.564437,
        "longitude": 58.116217
    },
    {
        "name": "Ghushābah",
        "country": "Oman",
        "province": "Al Buraimi",
        "population": -1,
        "latitude": 24.285172,
        "longitude": 55.878949
    },
    {
        "name": "An Najdah",
        "country": "Oman",
        "province": "Southeastern Governorate",
        "population": -1,
        "latitude": 20.850018,
        "longitude": 58.717889
    },
    {
        "name": "As Samar",
        "country": "Oman",
        "province": "Southeastern Governorate",
        "population": -1,
        "latitude": 20.560537,
        "longitude": 58.843416
    },
    {
        "name": "Al ‘Ayjah",
        "country": "Oman",
        "province": "Southeastern Governorate",
        "population": -1,
        "latitude": 20.592202,
        "longitude": 58.903898
    },
    {
        "name": "Şāwir al Ḩarīm",
        "country": "Oman",
        "province": "Southeastern Governorate",
        "population": -1,
        "latitude": 20.573956,
        "longitude": 58.92322
    },
    {
        "name": "Al Ghīrāy",
        "country": "Oman",
        "province": "Southeastern Governorate",
        "population": -1,
        "latitude": 20.549265,
        "longitude": 58.932997
    },
    {
        "name": "Naghat",
        "country": "Oman",
        "province": "Southeastern Governorate",
        "population": -1,
        "latitude": 20.479794,
        "longitude": 58.900772
    },
    {
        "name": "‘Umq",
        "country": "Oman",
        "province": "Southeastern Governorate",
        "population": -1,
        "latitude": 20.422806,
        "longitude": 58.815669
    },
    {
        "name": "Māghilah",
        "country": "Oman",
        "province": "Southeastern Governorate",
        "population": -1,
        "latitude": 20.404378,
        "longitude": 58.814363
    },
    {
        "name": "Al Maḩyūl",
        "country": "Oman",
        "province": "Muscat",
        "population": -1,
        "latitude": 23.358232,
        "longitude": 58.534911
    },
    {
        "name": "Fu’ād",
        "country": "Oman",
        "province": "Muscat",
        "population": -1,
        "latitude": 23.342417,
        "longitude": 58.582669
    },
    {
        "name": "Muḩaydith",
        "country": "Oman",
        "province": "Muscat",
        "population": -1,
        "latitude": 23.331999,
        "longitude": 58.580792
    },
    {
        "name": "Lamdām",
        "country": "Oman",
        "province": "Muscat",
        "population": -1,
        "latitude": 23.302073,
        "longitude": 58.598387
    },
    {
        "name": "Ash Shukaylī",
        "country": "Oman",
        "province": "Muscat",
        "population": -1,
        "latitude": 23.295103,
        "longitude": 58.6169
    },
    {
        "name": "Samakt",
        "country": "Oman",
        "province": "Muscat",
        "population": -1,
        "latitude": 23.297721,
        "longitude": 58.530174
    },
    {
        "name": "Ba‘ī",
        "country": "Oman",
        "province": "Muscat",
        "population": -1,
        "latitude": 23.262575,
        "longitude": 58.592194
    },
    {
        "name": "Al Makhāḑah",
        "country": "Oman",
        "province": "Muscat",
        "population": -1,
        "latitude": 23.25195,
        "longitude": 58.786804
    },
    {
        "name": "Şalfī",
        "country": "Oman",
        "province": "Muscat",
        "population": -1,
        "latitude": 23.247496,
        "longitude": 58.550315
    },
    {
        "name": "Kabkab",
        "country": "Oman",
        "province": "Muscat",
        "population": -1,
        "latitude": 23.23242,
        "longitude": 58.57009
    },
    {
        "name": "Ma‘awal",
        "country": "Oman",
        "province": "Muscat",
        "population": -1,
        "latitude": 23.2352,
        "longitude": 58.72229
    },
    {
        "name": "Al Qābil",
        "country": "Oman",
        "province": "Muscat",
        "population": -1,
        "latitude": 23.23106,
        "longitude": 58.66552
    },
    {
        "name": "Thab",
        "country": "Oman",
        "province": "Muscat",
        "population": -1,
        "latitude": 23.20477,
        "longitude": 58.59031
    },
    {
        "name": "Biday‘at al Jawābir",
        "country": "Oman",
        "province": "Northeastern Governorate",
        "population": -1,
        "latitude": 23.11784,
        "longitude": 58.50694
    },
    {
        "name": "As Sibal",
        "country": "Oman",
        "province": "Northeastern Governorate",
        "population": -1,
        "latitude": 23.11981,
        "longitude": 58.52832
    },
    {
        "name": "Qarr",
        "country": "Oman",
        "province": "Northeastern Governorate",
        "population": -1,
        "latitude": 23.10691,
        "longitude": 58.55972
    },
    {
        "name": "Iḩdá",
        "country": "Oman",
        "province": "Northeastern Governorate",
        "population": -1,
        "latitude": 23.0989,
        "longitude": 58.57278
    },
    {
        "name": "Al Mudabghah",
        "country": "Oman",
        "province": "Northeastern Governorate",
        "population": -1,
        "latitude": 23.10419,
        "longitude": 58.58091
    },
    {
        "name": "‘Aqdā’",
        "country": "Oman",
        "province": "Northeastern Governorate",
        "population": -1,
        "latitude": 23.08384,
        "longitude": 58.56776
    },
    {
        "name": "‘Ajmā’",
        "country": "Oman",
        "province": "Northeastern Governorate",
        "population": -1,
        "latitude": 23.06939,
        "longitude": 58.61405
    },
    {
        "name": "Ar Rakākīyah",
        "country": "Oman",
        "province": "Northeastern Governorate",
        "population": -1,
        "latitude": 23.04953,
        "longitude": 58.64474
    },
    {
        "name": "As Sīdāfī",
        "country": "Oman",
        "province": "Northeastern Governorate",
        "population": -1,
        "latitude": 23.0479,
        "longitude": 58.62242
    },
    {
        "name": "Ash Sharjatayn",
        "country": "Oman",
        "province": "Northeastern Governorate",
        "population": -1,
        "latitude": 23.04215,
        "longitude": 58.54423
    },
    {
        "name": "Ash Shihbārī",
        "country": "Oman",
        "province": "Muscat",
        "population": -1,
        "latitude": 23.22641,
        "longitude": 58.89774
    },
    {
        "name": "Al Kirayb",
        "country": "Oman",
        "province": "Muscat",
        "population": -1,
        "latitude": 23.22228,
        "longitude": 58.90814
    },
    {
        "name": "Al Fāli‘",
        "country": "Oman",
        "province": "Muscat",
        "population": -1,
        "latitude": 23.20768,
        "longitude": 58.96528
    },
    {
        "name": "Al Luwayz",
        "country": "Oman",
        "province": "Muscat",
        "population": -1,
        "latitude": 23.21084,
        "longitude": 58.97729
    },
    {
        "name": "Minayzif",
        "country": "Oman",
        "province": "Muscat",
        "population": -1,
        "latitude": 23.20413,
        "longitude": 58.95293
    },
    {
        "name": "Al Bilād",
        "country": "Oman",
        "province": "Muscat",
        "population": -1,
        "latitude": 23.18806,
        "longitude": 58.98257
    },
    {
        "name": "Al Janāh",
        "country": "Oman",
        "province": "Muscat",
        "population": -1,
        "latitude": 23.18854,
        "longitude": 58.98653
    },
    {
        "name": "Miḩyā’",
        "country": "Oman",
        "province": "Muscat",
        "population": -1,
        "latitude": 23.15981,
        "longitude": 58.8551
    },
    {
        "name": "Al Laşmū",
        "country": "Oman",
        "province": "Muscat",
        "population": -1,
        "latitude": 23.11695,
        "longitude": 58.85481
    },
    {
        "name": "Al Mazāri‘",
        "country": "Oman",
        "province": "Muscat",
        "population": -1,
        "latitude": 23.09228,
        "longitude": 58.86225
    },
    {
        "name": "Al Ḩişn",
        "country": "Oman",
        "province": "Muscat",
        "population": -1,
        "latitude": 23.0819,
        "longitude": 58.86871
    },
    {
        "name": "Al Qaryah",
        "country": "Oman",
        "province": "Muscat",
        "population": -1,
        "latitude": 23.07504,
        "longitude": 58.86675
    },
    {
        "name": "Minsift",
        "country": "Oman",
        "province": "Muscat",
        "population": -1,
        "latitude": 23.07324,
        "longitude": 58.8709
    },
    {
        "name": "Al Far‘",
        "country": "Oman",
        "province": "Muscat",
        "population": -1,
        "latitude": 23.07075,
        "longitude": 58.98918
    },
    {
        "name": "Mathqab",
        "country": "Oman",
        "province": "Muscat",
        "population": -1,
        "latitude": 23.07134,
        "longitude": 58.99151
    },
    {
        "name": "Şilayfī",
        "country": "Oman",
        "province": "Muscat",
        "population": -1,
        "latitude": 23.05308,
        "longitude": 58.98197
    },
    {
        "name": "Fayq as Sa‘dīyīn",
        "country": "Oman",
        "province": "Muscat",
        "population": -1,
        "latitude": 23.04875,
        "longitude": 58.92818
    },
    {
        "name": "Qala‘āt",
        "country": "Oman",
        "province": "Muscat",
        "population": -1,
        "latitude": 23.03757,
        "longitude": 58.93328
    },
    {
        "name": "Fayq al Lizāmīyīn",
        "country": "Oman",
        "province": "Muscat",
        "population": -1,
        "latitude": 23.04419,
        "longitude": 58.94058
    },
    {
        "name": "Wādī al ‘Arbiyīn",
        "country": "Oman",
        "province": "Muscat",
        "population": -1,
        "latitude": 23.047114,
        "longitude": 58.977696
    },
    {
        "name": "As Siwayḩ",
        "country": "Oman",
        "province": "Muscat",
        "population": -1,
        "latitude": 23.03247,
        "longitude": 58.99183
    },
    {
        "name": "Ḩakāb Bayt Arkab",
        "country": "Oman",
        "province": "Dhofar",
        "population": -1,
        "latitude": 17.123439,
        "longitude": 54.434022
    },
    {
        "name": "Arjafnūt",
        "country": "Oman",
        "province": "Dhofar",
        "population": -1,
        "latitude": 17.122011,
        "longitude": 54.401039
    },
    {
        "name": "Şarfayt",
        "country": "Oman",
        "province": "Dhofar",
        "population": -1,
        "latitude": 17.119162,
        "longitude": 54.346231
    },
    {
        "name": "‘Alām",
        "country": "Oman",
        "province": "Dhofar",
        "population": -1,
        "latitude": 17.155448,
        "longitude": 54.304081
    },
    {
        "name": "Tha‘lūt",
        "country": "Oman",
        "province": "Dhofar",
        "population": -1,
        "latitude": 17.24869,
        "longitude": 54.32554
    },
    {
        "name": "Ḩayzār",
        "country": "Oman",
        "province": "Dhofar",
        "population": -1,
        "latitude": 17.15612,
        "longitude": 54.053883
    },
    {
        "name": "Anţāghāq",
        "country": "Oman",
        "province": "Dhofar",
        "population": -1,
        "latitude": 17.201216,
        "longitude": 54.424022
    },
    {
        "name": "Arzūm",
        "country": "Oman",
        "province": "Dhofar",
        "population": -1,
        "latitude": 17.189554,
        "longitude": 54.363764
    },
    {
        "name": "Raythawt",
        "country": "Oman",
        "province": "Dhofar",
        "population": -1,
        "latitude": 17.196147,
        "longitude": 54.183926
    },
    {
        "name": "Ashanqūr",
        "country": "Oman",
        "province": "Dhofar",
        "population": -1,
        "latitude": 17.189441,
        "longitude": 54.158796
    },
    {
        "name": "Qafqayfūt",
        "country": "Oman",
        "province": "Dhofar",
        "population": -1,
        "latitude": 17.195861,
        "longitude": 54.134444
    },
    {
        "name": "Shubūb",
        "country": "Oman",
        "province": "Dhofar",
        "population": -1,
        "latitude": 17.169511,
        "longitude": 53.995121
    },
    {
        "name": "Ar Rudaydah",
        "country": "Oman",
        "province": "Ad Dakhiliyah",
        "population": -1,
        "latitude": 23.231792,
        "longitude": 56.517694
    },
    {
        "name": "Al ‘Aynayn",
        "country": "Oman",
        "province": "Ad Dakhiliyah",
        "population": -1,
        "latitude": 23.288719,
        "longitude": 56.547797
    },
    {
        "name": "Al Mashāqişah",
        "country": "Oman",
        "province": "Ad Dhahirah",
        "population": -1,
        "latitude": 23.312861,
        "longitude": 56.608587
    },
    {
        "name": "Al Hayyāl",
        "country": "Oman",
        "province": "Ad Dakhiliyah",
        "population": -1,
        "latitude": 23.43432,
        "longitude": 56.743554
    },
    {
        "name": "Khillah",
        "country": "Oman",
        "province": "Ad Dakhiliyah",
        "population": -1,
        "latitude": 22.999659,
        "longitude": 58.017296
    },
    {
        "name": "Al ‘Alyā’",
        "country": "Oman",
        "province": "Ad Dakhiliyah",
        "population": -1,
        "latitude": 22.92624,
        "longitude": 58.055042
    },
    {
        "name": "Al Jubūbīyāt",
        "country": "Oman",
        "province": "Ad Dakhiliyah",
        "population": -1,
        "latitude": 22.905956,
        "longitude": 58.078503
    },
    {
        "name": "Sufālat al Musfāh",
        "country": "Oman",
        "province": "Northeastern Governorate",
        "population": -1,
        "latitude": 22.96071,
        "longitude": 58.288007
    },
    {
        "name": "Al Wārīyah",
        "country": "Oman",
        "province": "Northeastern Governorate",
        "population": -1,
        "latitude": 22.986783,
        "longitude": 58.292745
    },
    {
        "name": "‘Ilāyat al Musfāh",
        "country": "Oman",
        "province": "Northeastern Governorate",
        "population": -1,
        "latitude": 22.970912,
        "longitude": 58.294867
    },
    {
        "name": "Al Mu‘aydin",
        "country": "Oman",
        "province": "Ad Dakhiliyah",
        "population": -1,
        "latitude": 22.977828,
        "longitude": 58.259781
    },
    {
        "name": "Al Khashabah",
        "country": "Oman",
        "province": "Northeastern Governorate",
        "population": -1,
        "latitude": 22.659903,
        "longitude": 58.044291
    },
    {
        "name": "Al Buwayţin",
        "country": "Oman",
        "province": "Northeastern Governorate",
        "population": -1,
        "latitude": 22.618019,
        "longitude": 58.040561
    },
    {
        "name": "Al Mallāḩ",
        "country": "Oman",
        "province": "Northeastern Governorate",
        "population": -1,
        "latitude": 22.628265,
        "longitude": 58.148243
    },
    {
        "name": "Al Mintarib",
        "country": "Oman",
        "province": "Northeastern Governorate",
        "population": -1,
        "latitude": 22.560526,
        "longitude": 58.037749
    },
    {
        "name": "Az Zaydī",
        "country": "Oman",
        "province": "Northeastern Governorate",
        "population": -1,
        "latitude": 22.54753,
        "longitude": 58.176428
    },
    {
        "name": "As Suhaylī",
        "country": "Oman",
        "province": "Northeastern Governorate",
        "population": -1,
        "latitude": 22.52417,
        "longitude": 58.160961
    },
    {
        "name": "Abū Z̧almā’",
        "country": "Oman",
        "province": "Northeastern Governorate",
        "population": -1,
        "latitude": 22.581655,
        "longitude": 58.391258
    },
    {
        "name": "Al Ḩajū",
        "country": "Oman",
        "province": "Northeastern Governorate",
        "population": -1,
        "latitude": 22.762627,
        "longitude": 58.652808
    },
    {
        "name": "Al Qufayşī",
        "country": "Oman",
        "province": "Northeastern Governorate",
        "population": -1,
        "latitude": 22.879442,
        "longitude": 58.775156
    },
    {
        "name": "Maqţa‘",
        "country": "Oman",
        "province": "Northeastern Governorate",
        "population": -1,
        "latitude": 22.829589,
        "longitude": 58.991183
    },
    {
        "name": "Al Mu‘tariḑ",
        "country": "Oman",
        "province": "Northeastern Governorate",
        "population": -1,
        "latitude": 22.724618,
        "longitude": 58.652006
    },
    {
        "name": "Al Qanāţir",
        "country": "Oman",
        "province": "Northeastern Governorate",
        "population": -1,
        "latitude": 22.69091,
        "longitude": 58.534568
    },
    {
        "name": "Ash Sharyah al Ḩulwah",
        "country": "Oman",
        "province": "Musandam Governorate",
        "population": -1,
        "latitude": 25.847808,
        "longitude": 56.361186
    },
    {
        "name": "Khawr Jirāmā",
        "country": "Oman",
        "province": "Southeastern Governorate",
        "population": -1,
        "latitude": 22.49453,
        "longitude": 59.71524
    },
    {
        "name": "Shiyā‘",
        "country": "Oman",
        "province": "Southeastern Governorate",
        "population": -1,
        "latitude": 22.556254,
        "longitude": 59.616671
    },
    {
        "name": "Shāmah",
        "country": "Oman",
        "province": "Southeastern Governorate",
        "population": -1,
        "latitude": 22.528565,
        "longitude": 59.530342
    },
    {
        "name": "Muşāwī",
        "country": "Oman",
        "province": "Southeastern Governorate",
        "population": -1,
        "latitude": 22.13164,
        "longitude": 59.62253
    },
    {
        "name": "Wādī Sāl",
        "country": "Oman",
        "province": "Southeastern Governorate",
        "population": -1,
        "latitude": 22.11064,
        "longitude": 59.60925
    },
    {
        "name": "Al Ḩaddah",
        "country": "Oman",
        "province": "Southeastern Governorate",
        "population": -1,
        "latitude": 22.12906,
        "longitude": 59.72159
    },
    {
        "name": "Bandar al Jadīd",
        "country": "Oman",
        "province": "Southeastern Governorate",
        "population": -1,
        "latitude": 22.12024,
        "longitude": 59.71543
    },
    {
        "name": "Aş Şalbah",
        "country": "Oman",
        "province": "Southeastern Governorate",
        "population": -1,
        "latitude": 22.01459,
        "longitude": 59.661987
    },
    {
        "name": "Bilād ash Shuhūm",
        "country": "Oman",
        "province": "Ad Dakhiliyah",
        "population": -1,
        "latitude": 23.396339,
        "longitude": 56.98847
    },
    {
        "name": "Ar Rāyibah",
        "country": "Oman",
        "province": "Ad Dakhiliyah",
        "population": -1,
        "latitude": 23.26046,
        "longitude": 56.508297
    },
    {
        "name": "Muḩaymīr",
        "country": "Oman",
        "province": "Ad Dakhiliyah",
        "population": -1,
        "latitude": 23.19422,
        "longitude": 56.919793
    },
    {
        "name": "Al ‘Ajūz",
        "country": "Oman",
        "province": "Ad Dakhiliyah",
        "population": -1,
        "latitude": 23.090956,
        "longitude": 56.926218
    },
    {
        "name": "Al Qā’idī",
        "country": "Oman",
        "province": "Ad Dhahirah",
        "population": -1,
        "latitude": 23.436877,
        "longitude": 56.234647
    },
    {
        "name": "Umm Şulb",
        "country": "Oman",
        "province": "Ad Dhahirah",
        "population": -1,
        "latitude": 23.34162,
        "longitude": 56.380703
    },
    {
        "name": "Al ‘Ārīyah",
        "country": "Oman",
        "province": "Ad Dhahirah",
        "population": -1,
        "latitude": 23.333389,
        "longitude": 56.402753
    },
    {
        "name": "Al Murayfa‘ah",
        "country": "Oman",
        "province": "Ad Dhahirah",
        "population": -1,
        "latitude": 23.319611,
        "longitude": 56.431063
    },
    {
        "name": "Mahārij",
        "country": "Oman",
        "province": "Ad Dhahirah",
        "population": -1,
        "latitude": 23.195511,
        "longitude": 56.434053
    },
    {
        "name": "Ad Dubayshī",
        "country": "Oman",
        "province": "Ad Dakhiliyah",
        "population": -1,
        "latitude": 23.180393,
        "longitude": 56.489645
    },
    {
        "name": "Al Jall",
        "country": "Oman",
        "province": "Al Batinah North",
        "population": -1,
        "latitude": 23.929656,
        "longitude": 56.409637
    },
    {
        "name": "Al Hashīmah",
        "country": "Oman",
        "province": "Ad Dhahirah",
        "population": -1,
        "latitude": 23.940983,
        "longitude": 56.392725
    },
    {
        "name": "Qufayş",
        "country": "Oman",
        "province": "Al Batinah North",
        "population": -1,
        "latitude": 23.956511,
        "longitude": 56.437527
    },
    {
        "name": "Al Furfārah",
        "country": "Oman",
        "province": "Ad Dhahirah",
        "population": -1,
        "latitude": 23.847834,
        "longitude": 56.190064
    },
    {
        "name": "Hāmah",
        "country": "Oman",
        "province": "Ad Dhahirah",
        "population": -1,
        "latitude": 23.85462,
        "longitude": 56.35032
    },
    {
        "name": "Ţawī al Ḩarīm",
        "country": "Oman",
        "province": "Ad Dhahirah",
        "population": -1,
        "latitude": 23.839199,
        "longitude": 56.345433
    },
    {
        "name": "Ḩayl al Musayqah",
        "country": "Oman",
        "province": "Ad Dhahirah",
        "population": -1,
        "latitude": 23.884,
        "longitude": 56.416204
    },
    {
        "name": "Al Mu‘aydin",
        "country": "Oman",
        "province": "Ad Dhahirah",
        "population": -1,
        "latitude": 23.814525,
        "longitude": 56.396733
    },
    {
        "name": "Ţawī an Nawāmīyah",
        "country": "Oman",
        "province": "Ad Dhahirah",
        "population": -1,
        "latitude": 23.689764,
        "longitude": 56.255718
    },
    {
        "name": "Ghaḑyā’",
        "country": "Oman",
        "province": "Ad Dhahirah",
        "population": -1,
        "latitude": 23.666976,
        "longitude": 56.371469
    },
    {
        "name": "Aţ Ţaff",
        "country": "Oman",
        "province": "Ad Dhahirah",
        "population": -1,
        "latitude": 23.540373,
        "longitude": 56.3045
    },
    {
        "name": "‘Ilāyat Ḑank",
        "country": "Oman",
        "province": "Ad Dhahirah",
        "population": -1,
        "latitude": 23.548934,
        "longitude": 56.283981
    },
    {
        "name": "Ḩarḑī",
        "country": "Oman",
        "province": "Ad Dhahirah",
        "population": -1,
        "latitude": 23.53464,
        "longitude": 56.325782
    },
    {
        "name": "Ḩārat al Ḩişn",
        "country": "Oman",
        "province": "Ad Dhahirah",
        "population": -1,
        "latitude": 23.549636,
        "longitude": 56.357951
    },
    {
        "name": "Ḩārat an Nadd",
        "country": "Oman",
        "province": "Ad Dhahirah",
        "population": -1,
        "latitude": 23.545643,
        "longitude": 56.366126
    },
    {
        "name": "Qārūt",
        "country": "Oman",
        "province": "Ad Dhahirah",
        "population": -1,
        "latitude": 23.507096,
        "longitude": 56.448654
    },
    {
        "name": "Al Ḩijāl",
        "country": "Oman",
        "province": "Al Batinah North",
        "population": -1,
        "latitude": 23.937065,
        "longitude": 56.546906
    },
    {
        "name": "Kabyāt",
        "country": "Oman",
        "province": "Al Batinah North",
        "population": -1,
        "latitude": 23.937151,
        "longitude": 56.564347
    },
    {
        "name": "Ḩajz",
        "country": "Oman",
        "province": "Al Batinah North",
        "population": -1,
        "latitude": 23.920907,
        "longitude": 56.566109
    },
    {
        "name": "Ar Rakkah",
        "country": "Oman",
        "province": "Al Batinah North",
        "population": -1,
        "latitude": 23.921051,
        "longitude": 56.697088
    },