[{"name":"Lima","country":"Peru","province":"Lima","population":7737002,"latitude":-12.0431818993027,"longitude":-77.0282363891602},{"name":"Chimbote","country":"Peru","province":"Ancash","population":316966,"latitude":-9.07508,"longitude":-78.59373},{"name":"Callao","country":"Peru","province":"Callao","population":1300000,"latitude":-12.056585,"longitude":-77.118144},{"name":"Arequipa","country":"Peru","province":"Arequipa","population":1008290,"latitude":-16.3988889,"longitude":-71.535},{"name":"Pucallpa","country":"Peru","province":"Ucayali","population":326040,"latitude":-8.379147394582603,"longitude":-74.55386638641357},{"name":"Piura","country":"Peru","province":"Piura","population":484475,"latitude":-5.194491,"longitude":-80.632821},{"name":"Iquitos","country":"Peru","province":"Loreto","population":377609,"latitude":-3.749125,"longitude":-73.253828},{"name":"Huaraz","country":"Peru","province":"Ancash","population":118836,"latitude":-9.527787,"longitude":-77.527776},{"name":"Huánuco","country":"Peru","province":"Huanuco","population":196627,"latitude":-9.930617,"longitude":-76.242228},{"name":"Tumbes","country":"Peru","province":"Tumbes","population":96946,"latitude":-3.56694,"longitude":-80.45153},{"name":"Trujillo","country":"Peru","province":"La Libertad","population":919899,"latitude":-8.1159942774572,"longitude":-79.0299797058105},{"name":"Chiclayo","country":"Peru","province":"Lambayeque","population":552508,"latitude":-6.771372,"longitude":-79.840876},{"name":"Cajamarca","country":"Peru","province":"Cajamarca","population":201329,"latitude":-7.16377750398564,"longitude":-78.5002702474594},{"name":"Ayacucho","country":"Peru","province":"Ayacucho","population":140033,"latitude":-13.158782,"longitude":-74.22321},{"name":"Ica","country":"Peru","province":"Ica","population":282407,"latitude":-14.067768,"longitude":-75.728611},{"name":"Huancayo","country":"Peru","province":"Junin","population":456250,"latitude":-12.065133,"longitude":-75.204861},{"name":"Cusco","country":"Peru","province":"Cusco","population":428450,"latitude":-13.522643,"longitude":-71.967344},{"name":"Tacna","country":"Peru","province":"Tacna","population":286240,"latitude":-18.01465,"longitude":-70.25362},{"name":"Puno","country":"Peru","province":"Puno","population":128637,"latitude":-15.842202,"longitude":-70.019899},{"name":"Puerto Maldonado","country":"Peru","province":"Madre de Dios","population":85024,"latitude":-12.59331,"longitude":-69.189128},{"name":"Moyobamba","country":"Peru","province":"San Martín","population":50073,"latitude":-6.034159,"longitude":-76.971678},{"name":"Chachapoyas","country":"Peru","province":"Amazonas","population":32026,"latitude":-6.23168817866145,"longitude":-77.8690338134766},{"name":"Cerro de Pasco","country":"Peru","province":"Pasco","population":58899,"latitude":-10.667478,"longitude":-76.256679},{"name":"Moquegua","country":"Peru","province":"Moquegua","population":69882,"latitude":-17.198321,"longitude":-70.935668},{"name":"Abancay","country":"Peru","province":"Apurímac","population":72277,"latitude":-13.6338889,"longitude":-72.8813889},{"name":"Talara","country":"Peru","province":"Piura","population":99074,"latitude":-4.5772222,"longitude":-81.2719444},{"name":"Sullana","country":"Peru","province":"Piura","population":160789,"latitude":-4.9038889,"longitude":-80.6852778},{"name":"Chincha Alta","country":"Peru","province":"Ica","population":153076,"latitude":-13.40985,"longitude":-76.13235},{"name":"Juliaca","country":"Peru","province":"Puno","population":245675,"latitude":-15.5,"longitude":-70.1333333},{"name":"Huancavelica","country":"Peru","province":"Huancavelica","population":49570,"latitude":-12.782612,"longitude":-74.972661},{"name":"Huacho","country":"Peru","province":"Lima region","population":54545,"latitude":-11.1066667,"longitude":-77.605},{"name":"Paita","country":"Peru","province":"Piura","population":56151,"latitude":-5.0891667,"longitude":-81.1144444},{"name":"Jaén","country":"Peru","province":"Cajamarca","population":52493,"latitude":-5.70729,"longitude":-78.80785},{"name":"Tingo María","country":"Peru","province":"Huanuco","population":53177,"latitude":-9.29532,"longitude":-75.99574},{"name":"Chulucanas","country":"Peru","province":"Piura","population":68835,"latitude":-5.0925,"longitude":-80.1625},{"name":"Ilo","country":"Peru","province":"Moquegua","population":53476,"latitude":-17.63185,"longitude":-71.34108},{"name":"Huaral","country":"Peru","province":"Lima region","population":62174,"latitude":-11.495,"longitude":-77.2077778},{"name":"Pisco","country":"Peru","province":"Ica","population":61869,"latitude":-13.71029,"longitude":-76.20538},{"name":"Nazca","country":"Peru","province":"Ica","population":23556,"latitude":-14.830978332989678,"longitude":-74.93894577026367},{"name":"Santiago de Surco","country":"Peru","province":"Lima region","population":251648,"latitude":-12.135884,"longitude":-77.007421},{"name":"San Pedro de Lloc","country":"Peru","province":"La Libertad","population":16250,"latitude":-7.428904,"longitude":-79.504159},{"name":"San Juan","country":"Peru","province":"Loreto","population":78153,"latitude":-3.7761111,"longitude":-73.2813889},{"name":"Saña","country":"Peru","province":"Lambayeque","population":39200,"latitude":-6.918882,"longitude":-79.582004},{"name":"Rioja","country":"Peru","province":"San Martín","population":25057,"latitude":-6.05675,"longitude":-77.16651},{"name":"Pacasmayo","country":"Peru","province":"La Libertad","population":29165,"latitude":-7.4005556,"longitude":-79.5713889},{"name":"Monsefú","country":"Peru","province":"Lambayeque","population":25707,"latitude":-6.874307,"longitude":-79.868708},{"name":"La Peca","country":"Peru","province":"Amazonas","population":27045,"latitude":-5.6111111,"longitude":-78.435},{"name":"Lambayeque","country":"Peru","province":"Lambayeque","population":43710,"latitude":-6.7011111,"longitude":-79.9061111},{"name":"Juanjuí","country":"Peru","province":"San Martín","population":37715,"latitude":-7.176973,"longitude":-76.727736},{"name":"Guadalupe","country":"Peru","province":"La Libertad","population":25376,"latitude":-7.25,"longitude":-79.4833333},{"name":"Ferreñafe","country":"Peru","province":"Lambayeque","population":34357,"latitude":-6.6388889,"longitude":-79.7888889},{"name":"Yurimaguas","country":"Peru","province":"Loreto","population":41827,"latitude":-5.90181,"longitude":-76.12234},{"name":"Virú","country":"Peru","province":"La Libertad","population":20774,"latitude":-8.415544,"longitude":-78.752014},{"name":"Tocache","country":"Peru","province":"San Martín","population":29029,"latitude":-8.1877,"longitude":-76.52046},{"name":"Chepén","country":"Peru","province":"La Libertad","population":41992,"latitude":-7.224364,"longitude":-79.424757},{"name":"Chavín de Huantar","country":"Peru","province":"Ancash","population":-1,"latitude":-9.57908433588252,"longitude":-77.1775817871094},{"name":"Celendín","country":"Peru","province":"Cajamarca","population":14660,"latitude":-6.865902,"longitude":-78.145846},{"name":"Catacaos","country":"Peru","province":"Piura","population":57304,"latitude":-5.2666667,"longitude":-80.6833333},{"name":"Caraz","country":"Peru","province":"Ancash","population":10926,"latitude":-9.046918,"longitude":-77.809006},{"name":"Chosica","country":"Peru","province":"Lima region","population":88606,"latitude":-11.9430556,"longitude":-76.7094444},{"name":"Chancay","country":"Peru","province":"Lima region","population":26958,"latitude":-11.5713889,"longitude":-77.2672222},{"name":"Caral","country":"Peru","province":"Lima region","population":628,"latitude":-10.888715744018555,"longitude":-77.50358581542969},{"name":"Camaná","country":"Peru","province":"Arequipa","population":16434,"latitude":-16.623752,"longitude":-72.710551},{"name":"Barranca","country":"Peru","province":"Lima region","population":46290,"latitude":-10.75,"longitude":-77.7666667},{"name":"Azángaro","country":"Peru","province":"Puno","population":13290,"latitude":-14.908426,"longitude":-70.19616},{"name":"Andahuaylas","country":"Peru","province":"Apurímac","population":17444,"latitude":-13.6555556,"longitude":-73.3872222},{"name":"Junín","country":"Peru","province":"Junin","population":15320,"latitude":-11.158946,"longitude":-75.993039},{"name":"Concepción","country":"Peru","province":"Junin","population":11330,"latitude":-11.917624,"longitude":-75.314011},{"name":"Paramonga","country":"Peru","province":"Lima region","population":27631,"latitude":-10.6666667,"longitude":-77.8333333},{"name":"Pachacamac","country":"Peru","province":"Lima region","population":-1,"latitude":-12.225589,"longitude":-76.857551},{"name":"Ollantaytambo","country":"Peru","province":"Cusco","population":2000,"latitude":-13.2572222,"longitude":-72.2630556},{"name":"Mollendo","country":"Peru","province":"Arequipa","population":28953,"latitude":-17.0230556,"longitude":-72.0147222},{"name":"Machupicchu","country":"Peru","province":"Cusco","population":4446,"latitude":-13.155485,"longitude":-72.524162},{"name":"La Oroya","country":"Peru","province":"Junin","population":33345,"latitude":-11.51893,"longitude":-75.89935},{"name":"Tarma","country":"Peru","province":"Junin","population":51350,"latitude":-11.41899,"longitude":-75.68992},{"name":"Sicuani","country":"Peru","province":"Cusco","population":33575,"latitude":-14.2694444,"longitude":-71.2261111},{"name":"San Vicente de Cañete","country":"Peru","province":"Lima region","population":25517,"latitude":-13.075558,"longitude":-76.385276},{"name":"San Ramón","country":"Peru","province":"Junin","population":14708,"latitude":-11.12417,"longitude":-75.35733},{"name":"San Isidro","country":"Peru","province":"Lima region","population":68309,"latitude":-12.09655,"longitude":-77.04258},{"name":"La Rinconada","country":"Peru","province":"Puno","population":29678,"latitude":-14.6312577936563,"longitude":-69.446382522583},{"name":"Santa Anita - Los Ficus","country":"Peru","province":"Lima region","population":184614,"latitude":-12.05048,"longitude":-76.97335},{"name":"San Martin","country":"Peru","province":"Piura","population":130000,"latitude":-5.18591,"longitude":-80.66927},{"name":"San Francisco De Borja","country":"Peru","province":"Lima region","population":105076,"latitude":-12.08911,"longitude":-76.99876},{"name":"Ciudad Satelite","country":"Peru","province":"Arequipa","population":76410,"latitude":-16.43085,"longitude":-71.52921},{"name":"Zarumilla","country":"Peru","province":"Tumbes","population":16907,"latitude":-3.5030556,"longitude":-80.2730556},{"name":"La Breita","country":"Peru","province":"Piura","population":17693,"latitude":-4.256914,"longitude":-80.885989},{"name":"Sechura","country":"Peru","province":"Piura","population":23020,"latitude":-5.5569444,"longitude":-80.8222222},{"name":"Saposoa","country":"Peru","province":"San Martín","population":14894,"latitude":-6.933949,"longitude":-76.771576},{"name":"Santiago de Chuco","country":"Peru","province":"La Libertad","population":6759,"latitude":-8.140993,"longitude":-78.173295},{"name":"Salaverry","country":"Peru","province":"La Libertad","population":10066,"latitude":-8.221,"longitude":-78.97698},{"name":"Picsi","country":"Peru","province":"Lambayeque","population":43610,"latitude":-6.7177778,"longitude":-79.7697222},{"name":"Pátapo","country":"Peru","province":"Lambayeque","population":15270,"latitude":-6.733147,"longitude":-79.635897},{"name":"Otuzco","country":"Peru","province":"La Libertad","population":10134,"latitude":-7.9,"longitude":-78.5833333},{"name":"Nauta","country":"Peru","province":"Loreto","population":14646,"latitude":-4.50561,"longitude":-73.58026},{"name":"Máncora","country":"Peru","province":"Piura","population":9101,"latitude":-4.107778,"longitude":-81.0475},{"name":"Llata","country":"Peru","province":"Huanuco","population":4585,"latitude":-9.4166667,"longitude":-76.7833333},{"name":"La Unión","country":"Peru","province":"Huanuco","population":4788,"latitude":-9.827022,"longitude":-76.801989},{"name":"La Unión","country":"Peru","province":"Piura","population":34834,"latitude":-5.40232,"longitude":-80.742238},{"name":"Laredo","country":"Peru","province":"La Libertad","population":24691,"latitude":-8.089652394703302,"longitude":-78.9601993560791},{"name":"Lamas","country":"Peru","province":"San Martín","population":13693,"latitude":-6.4166667,"longitude":-76.5333333},{"name":"Huamachuco","country":"Peru","province":"La Libertad","population":21768,"latitude":-7.8,"longitude":-78.0666667},{"name":"Zorritos","country":"Peru","province":"Tumbes","population":12261,"latitude":-3.680461123223407,"longitude":-80.67818641662598},{"name":"Uchiza","country":"Peru","province":"San Martín","population":17742,"latitude":-8.4591667,"longitude":-76.4633333},{"name":"Contamana","country":"Peru","province":"Loreto","population":13885,"latitude":-7.3333333,"longitude":-75.0166667},{"name":"Chota","country":"Peru","province":"Cajamarca","population":14240,"latitude":-6.55,"longitude":-78.65},{"name":"Chicama","country":"Peru","province":"La Libertad","population":14915,"latitude":-7.8447222,"longitude":-79.1469444},{"name":"Cajabamba","country":"Peru","province":"Cajamarca","population":13486,"latitude":-7.6166667,"longitude":-78.05},{"name":"Bellavista","country":"Peru","province":"San Martín","population":15231,"latitude":-7.056143,"longitude":-76.591101},{"name":"Barranca","country":"Peru","province":"Loreto","population":5779,"latitude":-4.832982,"longitude":-76.675819},{"name":"Bambamarca","country":"Peru","province":"Cajamarca","population":13351,"latitude":-6.6833333,"longitude":-78.5333333},{"name":"Bagua Grande","country":"Peru","province":"Amazonas","population":20382,"latitude":-5.7561111,"longitude":-78.4411111},{"name":"Ascope","country":"Peru","province":"La Libertad","population":14015,"latitude":-7.7144444,"longitude":-79.1077778},{"name":"Choquequirao","country":"Peru","province":"Cusco","population":-1,"latitude":-13.3833333,"longitude":-72.8833333},{"name":"Chiquián","country":"Peru","province":"Ancash","population":-1,"latitude":-10.150380529414884,"longitude":-77.15629577636719},{"name":"Chaupimarca","country":"Peru","province":"Pasco","population":28666,"latitude":-10.40696,"longitude":-76.461681},{"name":"Ayaviri","country":"Peru","province":"Puno","population":19310,"latitude":-14.8863889,"longitude":-70.5888889},{"name":"Atalaya","country":"Peru","province":"Ucayali","population":-1,"latitude":-10.73067,"longitude":-73.75867},{"name":"Jauja","country":"Peru","province":"Junin","population":21057,"latitude":-11.77584,"longitude":-75.49656},{"name":"Ilave","country":"Peru","province":"Puno","population":16033,"latitude":-16.0833333,"longitude":-69.6666667},{"name":"Huarmey","country":"Peru","province":"Ancash","population":16172,"latitude":-10.0680556,"longitude":-78.1522222},{"name":"Huanta","country":"Peru","province":"Ayacucho","population":18627,"latitude":-12.9333333,"longitude":-74.25},{"name":"Pativilca","country":"Peru","province":"Lima region","population":13583,"latitude":-10.7,"longitude":-77.7833333},{"name":"Pampas","country":"Peru","province":"Huancavelica","population":5521,"latitude":-12.39875052,"longitude":-74.86846222},{"name":"Oyón","country":"Peru","province":"Lima region","population":6276,"latitude":-10.668462,"longitude":-76.771646},{"name":"Oxapampa","country":"Peru","province":"Pasco","population":12000,"latitude":-10.5775,"longitude":-75.401667},{"name":"Minas de Marcona","country":"Peru","province":"Ica","population":15478,"latitude":-15.2119444,"longitude":-75.1102778},{"name":"Acarí","country":"Peru","province":"Arequipa","population":4445,"latitude":-15.423934,"longitude":-74.61361},{"name":"Yunguyo","country":"Peru","province":"Puno","population":16140,"latitude":-16.25,"longitude":-69.0833333},{"name":"Yauri","country":"Peru","province":"Cusco","population":23867,"latitude":-14.790829,"longitude":-71.409865},{"name":"Yanacancha","country":"Peru","province":"Huanuco","population":23175,"latitude":-10.2411111,"longitude":-76.6455556},{"name":"Tinyahuarco","country":"Peru","province":"Pasco","population":5066,"latitude":-10.767712,"longitude":-76.275226},{"name":"Taquile","country":"Peru","province":"Puno","population":2000,"latitude":-15.7666667,"longitude":-69.6833333},{"name":"Sayán","country":"Peru","province":"Lima region","population":6196,"latitude":-11.13333,"longitude":-77.194597},{"name":"Satipo","country":"Peru","province":"Junin","population":15532,"latitude":-11.2522222,"longitude":-74.6386111},{"name":"Santa María","country":"Peru","province":"Lima region","population":14853,"latitude":-12.005379,"longitude":-76.893294},{"name":"Santa Ana","country":"Peru","province":"Cusco","population":25145,"latitude":-12.8666667,"longitude":-72.7166667},{"name":"San Juan de Marcona","country":"Peru","province":"Ica","population":12795,"latitude":-15.3652778,"longitude":-75.1622222},{"name":"Puquio","country":"Peru","province":"Ayacucho","population":10491,"latitude":-14.7,"longitude":-74.1333333},{"name":"Belen","country":"Peru","province":"Loreto","population":57824,"latitude":-3.760164,"longitude":-73.249702},{"name":"Miraflores District","country":"Peru","province":"Lima region","population":-1,"latitude":-12.114271013263627,"longitude":-77.03939437866211},{"name":"Chilca","country":"Peru","province":"Junin","population":73371,"latitude":-12.08398,"longitude":-75.20263},{"name":"San Fernando","country":"Peru","province":"Ucayali","population":67844,"latitude":-8.39818,"longitude":-74.53774},{"name":"Jesus Maria","country":"Peru","province":"Lima region","population":66171,"latitude":-12.06982,"longitude":-77.04495},{"name":"Wanchaq","country":"Peru","province":"Cusco","population":59134,"latitude":-13.52493,"longitude":-71.96531},{"name":"Selva Alegre","country":"Peru","province":"Arequipa","population":72696,"latitude":-16.37057,"longitude":-71.52724},{"name":"Santiago","country":"Peru","province":"Cusco","population":64075,"latitude":-13.527279,"longitude":-71.9843},{"name":"Breña","country":"Peru","province":"Lima region","population":81909,"latitude":-12.05605,"longitude":-77.05295},{"name":"Acapulco","country":"Peru","province":"Tumbes","population":-1,"latitude":-3.745136,"longitude":-80.777851},{"name":"Punta Sal","country":"Peru","province":"Tumbes","population":101,"latitude":-3.98304,"longitude":-80.979452},{"name":"Puerto Pizarro","country":"Peru","province":"Tumbes","population":-1,"latitude":-3.501363,"longitude":-80.38998},{"name":"Ventarrón","country":"Peru","province":"Lambayeque","population":217,"latitude":-6.801253,"longitude":-79.756874},{"name":"Cajunga","country":"Peru","province":"Piura","population":-1,"latitude":-5.732621,"longitude":-79.463863},{"name":"Ingatambo","country":"Peru","province":"Cajamarca","population":-1,"latitude":-5.968311,"longitude":-79.235165},{"name":"La Victoria","country":"Peru","province":"Amazonas","population":323,"latitude":-5.71435022354126,"longitude":-78.48789978027344},{"name":"Shiran","country":"Peru","province":"La Libertad","population":338,"latitude":-8.008233070373535,"longitude":-78.75691223144531},{"name":"Sausal","country":"Peru","province":"La Libertad","population":-1,"latitude":-7.734971,"longitude":-79.006948},{"name":"Santiago de Cao","country":"Peru","province":"La Libertad","population":21982,"latitude":-7.9588889,"longitude":-79.2391667},{"name":"Santa Rosa","country":"Peru","province":"Lambayeque","population":10625,"latitude":-6.757724,"longitude":-79.827468},{"name":"Santa María de Nieva","country":"Peru","province":"Amazonas","population":-1,"latitude":-4.594106,"longitude":-77.867925},{"name":"Santa Elena","country":"Peru","province":"La Libertad","population":-1,"latitude":-8.4333333,"longitude":-78.8333333},{"name":"San Miguel de Pallaques","country":"Peru","province":"Cajamarca","population":-1,"latitude":-7.002191,"longitude":-78.852105},{"name":"Sisa","country":"Peru","province":"San Martín","population":9477,"latitude":-6.610851,"longitude":-76.693019},{"name":"San José","country":"Peru","province":"La Libertad","population":-1,"latitude":-7.7091667,"longitude":-79.1738889},{"name":"San Ignacio","country":"Peru","province":"Cajamarca","population":7912,"latitude":-5.1458333,"longitude":-79.0013889},{"name":"Salinera Colán","country":"Peru","province":"Piura","population":14210,"latitude":-5.0333333,"longitude":-81.0666667},{"name":"Roma","country":"Peru","province":"La Libertad","population":-1,"latitude":-7.765908,"longitude":-79.147193},{"name":"Quiruvilca","country":"Peru","province":"La Libertad","population":9226,"latitude":-7.9666667,"longitude":-78.2},{"name":"Punchana","country":"Peru","province":"Loreto","population":-1,"latitude":-3.7166667,"longitude":-73.2333333},{"name":"Puerto Santa","country":"Peru","province":"Ancash","population":14066,"latitude":-8.987716,"longitude":-78.647275},{"name":"Puerto Pisana","country":"Peru","province":"San Martín","population":-1,"latitude":-8.008326,"longitude":-76.647362},{"name":"Puerto Mori","country":"Peru","province":"La Libertad","population":-1,"latitude":-8.402579,"longitude":-78.892632},{"name":"Puerto de Malabrigo","country":"Peru","province":"La Libertad","population":-1,"latitude":-7.69968,"longitude":-79.43484},{"name":"Pueblo Nuevo","country":"Peru","province":"La Libertad","population":5766,"latitude":-7.1880556,"longitude":-79.5152778},{"name":"Pueblo Nuevo","country":"Peru","province":"Lambayeque","population":12471,"latitude":-5.7166667,"longitude":-79.8833333},{"name":"Progreso Alto","country":"Peru","province":"Piura","population":497,"latitude":-4.937998,"longitude":-80.494721},{"name":"Pomabamba","country":"Peru","province":"Ancash","population":4453,"latitude":-8.8333333,"longitude":-77.4666667},{"name":"Piscobamba","country":"Peru","province":"Ancash","population":-1,"latitude":-8.865205,"longitude":-77.358639},{"name":"Picota","country":"Peru","province":"San Martín","population":6697,"latitude":-6.92033,"longitude":-76.33142},{"name":"Pampa Grande","country":"Peru","province":"Lambayeque","population":-1,"latitude":-6.751686,"longitude":-79.481015},{"name":"Paiján","country":"Peru","province":"La Libertad","population":21128,"latitude":-7.732913,"longitude":-79.301497},{"name":"Pacopampa","country":"Peru","province":"Cajamarca","population":549,"latitude":-6.3373799324035645,"longitude":-79.02055358886719},{"name":"Pachapaque","country":"Peru","province":"Ancash","population":-1,"latitude":-9.9333333,"longitude":-77.0833333},{"name":"Pacanga","country":"Peru","province":"La Libertad","population":8750,"latitude":-7.1666667,"longitude":-79.5},{"name":"Nazareth","country":"Peru","province":"Amazonas","population":460,"latitude":-5.138771,"longitude":-78.318144},{"name":"Narihualá","country":"Peru","province":"Piura","population":-1,"latitude":-5.291201,"longitude":-80.686397},{"name":"Morropón","country":"Peru","province":"Piura","population":12307,"latitude":-5.186802,"longitude":-79.970759},{"name":"Monterrey","country":"Peru","province":"Ancash","population":-1,"latitude":-9.4733333,"longitude":-77.5361111},{"name":"Hacienda Mojeque","country":"Peru","province":"Ancash","population":-1,"latitude":-9.515399,"longitude":-78.225269},{"name":"Mochumí","country":"Peru","province":"Lambayeque","population":7460,"latitude":-6.543644,"longitude":-79.862169},{"name":"El Milagro","country":"Peru","province":"La Libertad","population":-1,"latitude":-8.020783,"longitude":-79.065137},{"name":"Marcavelica","country":"Peru","province":"Piura","population":25645,"latitude":-4.8777778,"longitude":-80.7052778},{"name":"Llamellín","country":"Peru","province":"Ancash","population":-1,"latitude":-9.101631,"longitude":-77.016204},{"name":"Las Pozas","country":"Peru","province":"Lambayeque","population":98,"latitude":-5.951624,"longitude":-80.298531},{"name":"Las Delicias","country":"Peru","province":"La Libertad","population":-1,"latitude":-8.179425,"longitude":-79.014251},{"name":"La Legua - San Jacinto","country":"Peru","province":"Piura","population":7548,"latitude":-5.235837,"longitude":-80.659279},{"name":"Huangala","country":"Peru","province":"Piura","population":3739,"latitude":-4.841475,"longitude":-80.599484},{"name":"Jumbilla","country":"Peru","province":"Amazonas","population":-1,"latitude":-5.90476,"longitude":-77.797819},{"name":"Julcán","country":"Peru","province":"La Libertad","population":-1,"latitude":-8.044087,"longitude":-78.487953},{"name":"Íllimo","country":"Peru","province":"Lambayeque","population":-1,"latitude":-6.47485,"longitude":-79.855086},{"name":"Ichocán","country":"Peru","province":"Cajamarca","population":616,"latitude":-7.368372917175293,"longitude":-78.13041687011719},{"name":"Mumalca","country":"Peru","province":"La Libertad","population":-1,"latitude":-7.9713889,"longitude":-77.8886111},{"name":"Huaypira Baja","country":"Peru","province":"Piura","population":-1,"latitude":-4.632098,"longitude":-80.506553},{"name":"Huasquil","country":"Peru","province":"Ancash","population":30,"latitude":-8.85,"longitude":-78.15},{"name":"Huancabamba","country":"Peru","province":"Piura","population":8553,"latitude":-5.2386111,"longitude":-79.4505556},{"name":"Huaca Rajada","country":"Peru","province":"Lambayeque","population":566,"latitude":-6.799613952636719,"longitude":-79.60153198242188},{"name":"Guabal","country":"Peru","province":"Cajamarca","population":-1,"latitude":-5.8833333,"longitude":-79.35},{"name":"Eten","country":"Peru","province":"Lambayeque","population":13693,"latitude":-6.9080556,"longitude":-79.8641667},{"name":"San Antonio del Estrecho","country":"Peru","province":"Loreto","population":8000,"latitude":-2.450124,"longitude":-72.668962},{"name":"Puerto Esperanza","country":"Peru","province":"Ucayali","population":-1,"latitude":-9.79673482289858,"longitude":-70.7434558868408},{"name":"El Porvenir","country":"Peru","province":"La Libertad","population":-1,"latitude":-7.9166667,"longitude":-79.2666667},{"name":"Hacienda Huamansaña","country":"Peru","province":"La Libertad","population":-1,"latitude":-8.5,"longitude":-78.5},{"name":"Yungay","country":"Peru","province":"Ancash","population":5269,"latitude":-9.1383333,"longitude":-77.7436111},{"name":"Hacienda Vinzos","country":"Peru","province":"Ancash","population":-1,"latitude":-8.798194,"longitude":-78.549574},{"name":"Túcume","country":"Peru","province":"Lambayeque","population":7043,"latitude":-6.506372,"longitude":-79.857255},{"name":"Tomaval","country":"Peru","province":"La Libertad","population":-1,"latitude":-8.3666667,"longitude":-78.7333333},{"name":"Timicurillo","country":"Peru","province":"Loreto","population":-1,"latitude":-3.54189,"longitude":-73.100532},{"name":"Tarapoto","country":"Peru","province":"San Martín","population":-1,"latitude":-6.5013889,"longitude":-76.3655556},{"name":"Tamshiyacu","country":"Peru","province":"Loreto","population":-1,"latitude":-4.003197,"longitude":-73.158497},{"name":"Hacienda Succhi","country":"Peru","province":"Piura","population":-1,"latitude":-5.256681,"longitude":-79.54152},{"name":"Coishco","country":"Peru","province":"Ancash","population":15083,"latitude":-9.0230556,"longitude":-78.6155556},{"name":"Chuquizonco","country":"Peru","province":"La Libertad","population":-1,"latitude":-7.754641,"longitude":-78.406529},{"name":"Chiquitoy","country":"Peru","province":"La Libertad","population":-1,"latitude":-7.928176,"longitude":-79.207214},{"name":"Chiclín","country":"Peru","province":"La Libertad","population":-1,"latitude":-7.83648,"longitude":-79.161218},{"name":"Chesheya","country":"Peru","province":"Ucayali","population":-1,"latitude":-9.5166667,"longitude":-74.2333333},{"name":"Chato","country":"Peru","province":"Piura","population":-1,"latitude":-5.367699,"longitude":-80.664898},{"name":"Chanquillo","country":"Peru","province":"Ancash","population":-1,"latitude":-9.542356,"longitude":-78.225691},{"name":"Chancay Baños","country":"Peru","province":"Cajamarca","population":-1,"latitude":-6.576135,"longitude":-78.864329},{"name":"Cascas","country":"Peru","province":"La Libertad","population":4299,"latitude":-7.4833333,"longitude":-78.8166667},{"name":"Cartavio","country":"Peru","province":"La Libertad","population":-1,"latitude":-7.89192,"longitude":-79.221323},{"name":"Carhuaz","country":"Peru","province":"Ancash","population":5044,"latitude":-9.2819444,"longitude":-77.6447222},{"name":"Cabo Blanco","country":"Peru","province":"Piura","population":-1,"latitude":-4.252031,"longitude":-81.22954},{"name":"Cabeza de Vaca","country":"Peru","province":"Tumbes","population":-1,"latitude":-3.599098,"longitude":-80.490502},{"name":"Borja","country":"Peru","province":"Loreto","population":522,"latitude":-4.4683709144592285,"longitude":-77.54402923583984},{"name":"Bayovar","country":"Peru","province":"Piura","population":-1,"latitude":-5.82105,"longitude":-81.03787},{"name":"Bagua","country":"Peru","province":"Amazonas","population":-1,"latitude":-5.63311,"longitude":-78.53431},{"name":"Ayabaca","country":"Peru","province":"Piura","population":5270,"latitude":-4.63983,"longitude":-79.714914},{"name":"Angostura","country":"Peru","province":"Piura","population":-1,"latitude":-4.94391,"longitude":-80.376806},{"name":"Andoas","country":"Peru","province":"Loreto","population":-1,"latitude":-2.9046388185851506,"longitude":-76.40235900878906},{"name":"Aguaytía","country":"Peru","province":"Ucayali","population":-1,"latitude":-9.03778,"longitude":-75.509064},{"name":"Aguas Verdes","country":"Peru","province":"Tumbes","population":9106,"latitude":-3.4813889,"longitude":-80.245},{"name":"Requena","country":"Peru","province":"Loreto","population":-1,"latitude":-6.747972,"longitude":-75.054906},{"name":"Sexy","country":"Peru","province":"Cajamarca","population":-1,"latitude":-6.6741667,"longitude":-78.4286111},{"name":"Churín","country":"Peru","province":"Lima region","population":-1,"latitude":-10.80385,"longitude":-76.880587},{"name":"Chupaca","country":"Peru","province":"Junin","population":9877,"latitude":-12.0666667,"longitude":-75.2833333},{"name":"Chucuito","country":"Peru","province":"Puno","population":-1,"latitude":-15.891268,"longitude":-69.884361},{"name":"Chucuchuni","country":"Peru","province":"Puno","population":-1,"latitude":-15.8483,"longitude":-70.447808},{"name":"Chuchurras","country":"Peru","province":"Pasco","population":-1,"latitude":-10.15015,"longitude":-75.228973},{"name":"Chivay","country":"Peru","province":"Arequipa","population":4543,"latitude":-15.6383333,"longitude":-71.6011111},{"name":"Chílcayoc","country":"Peru","province":"Ayacucho","population":310,"latitude":-13.88271713256836,"longitude":-73.72753143310547},{"name":"Checca","country":"Peru","province":"Cusco","population":3810,"latitude":-14.4727778,"longitude":-71.3938889},{"name":"Cerro Azúl","country":"Peru","province":"Lima region","population":-1,"latitude":-13.02577,"longitude":-76.47931},{"name":"Ccullco","country":"Peru","province":"Apurímac","population":-1,"latitude":-13.9597222,"longitude":-72.4936111},{"name":"Ccuelluccasa","country":"Peru","province":"Huancavelica","population":-1,"latitude":-13.969171,"longitude":-75.085249},{"name":"Ccoyo","country":"Peru","province":"Cusco","population":396,"latitude":-14.4833333,"longitude":-72.1166667},{"name":"Ccotapampa","country":"Peru","province":"Ayacucho","population":12,"latitude":-15.285759,"longitude":-73.193005},{"name":"Ccotanca","country":"Peru","province":"Huancavelica","population":-1,"latitude":-13.6419444,"longitude":-75.385},{"name":"Ccotancaire","country":"Peru","province":"Apurímac","population":-1,"latitude":-14.0666667,"longitude":-72.4833333},{"name":"Ccotaña","country":"Peru","province":"Arequipa","population":-1,"latitude":-15.1980556,"longitude":-71.5955556},{"name":"Ccotalaca","country":"Peru","province":"Arequipa","population":-1,"latitude":-15.515547,"longitude":-71.023908},{"name":"Ccorpachico","country":"Peru","province":"Puno","population":-1,"latitude":-15.18629,"longitude":-70.201735},{"name":"Caravelí","country":"Peru","province":"Arequipa","population":-1,"latitude":-15.772604,"longitude":-73.365465},{"name":"Candarave","country":"Peru","province":"Tacna","population":3415,"latitude":-17.2677778,"longitude":-70.2494444},{"name":"Caleta El Morro","country":"Peru","province":"Tacna","population":-1,"latitude":-17.99441,"longitude":-70.88237},{"name":"Calca","country":"Peru","province":"Cusco","population":9179,"latitude":-13.3333333,"longitude":-71.95},{"name":"Cajatambo","country":"Peru","province":"Lima region","population":-1,"latitude":-10.4833333,"longitude":-77.0333333},{"name":"Hacienda Cahuachi","country":"Peru","province":"Ica","population":-1,"latitude":-14.818906,"longitude":-75.105774},{"name":"Santa Rosa de Cachiche","country":"Peru","province":"Ica","population":-1,"latitude":-14.086999,"longitude":-75.736276},{"name":"Anta Alta","country":"Peru","province":"Puno","population":65,"latitude":-15.301184,"longitude":-69.398862},{"name":"Anta","country":"Peru","province":"Cusco","population":5859,"latitude":-13.4705556,"longitude":-72.1483333},{"name":"Ambo","country":"Peru","province":"Huanuco","population":6865,"latitude":-10.1308333,"longitude":-76.2047222},{"name":"Amado Grande","country":"Peru","province":"Pasco","population":-1,"latitude":-10.6333333,"longitude":-76.55},{"name":"Alerta","country":"Peru","province":"Madre de Dios","population":986,"latitude":-11.658400535583496,"longitude":-69.23545837402344},{"name":"Kasani","country":"Peru","province":"Puno","population":21,"latitude":-16.22420964,"longitude":-69.09526828},{"name":"Jesús","country":"Peru","province":"Huanuco","population":-1,"latitude":-10.078655,"longitude":-76.630523},{"name":"Jaravi","country":"Peru","province":"Puno","population":-1,"latitude":-16.387121,"longitude":-69.20307},{"name":"Jaguay","country":"Peru","province":"Ica","population":5,"latitude":-13.328537,"longitude":-76.240778},{"name":"Ichoca","country":"Peru","province":"Ancash","population":84,"latitude":-10.126766,"longitude":-77.447009},{"name":"Hacienda Huayuri","country":"Peru","province":"Ica","population":-1,"latitude":-14.537976,"longitude":-75.287946},{"name":"Huaytará","country":"Peru","province":"Huancavelica","population":818,"latitude":-13.604450225830078,"longitude":-75.35308074951172},{"name":"Huaynacotas","country":"Peru","province":"Arequipa","population":849,"latitude":-15.127182006835938,"longitude":-72.81037139892578},{"name":"Huaycan","country":"Peru","province":"Lima region","population":-1,"latitude":-12.077567,"longitude":-76.764978},{"name":"Huaricanga","country":"Peru","province":"Lima region","population":167,"latitude":-10.487942,"longitude":-77.74878},{"name":"Huari","country":"Peru","province":"Ancash","population":-1,"latitude":-10.5,"longitude":-77.2833333},{"name":"Huarautambo","country":"Peru","province":"Pasco","population":247,"latitude":-10.462868,"longitude":-76.535683},{"name":"Huanca Santos","country":"Peru","province":"Ayacucho","population":-1,"latitude":-13.919998,"longitude":-74.334109},{"name":"Huancapi","country":"Peru","province":"Ayacucho","population":-1,"latitude":-13.6833333,"longitude":-74.0666667},{"name":"Hacienda Huancane","country":"Peru","province":"Puno","population":7831,"latitude":-15.823273,"longitude":-70.885399},{"name":"Huancané","country":"Peru","province":"Puno","population":-1,"latitude":-15.200627,"longitude":-69.762679},{"name":"Huacachina","country":"Peru","province":"Ica","population":163,"latitude":-14.086964323755309,"longitude":-75.7631778717041},{"name":"Lauricocha","country":"Peru","province":"Huanuco","population":93,"latitude":-10.314999,"longitude":-76.653835},{"name":"Cutimbo","country":"Peru","province":"Puno","population":94,"latitude":-16.037613,"longitude":-70.024895},{"name":"Cullona","country":"Peru","province":"Tacna","population":-1,"latitude":-17.910404,"longitude":-70.585986},{"name":"Coracora","country":"Peru","province":"Ayacucho","population":7420,"latitude":-15.0333333,"longitude":-73.7833333},{"name":"Comatrana","country":"Peru","province":"Ica","population":-1,"latitude":-14.068337,"longitude":-75.752546},{"name":"Ccollpa","country":"Peru","province":"Apurímac","population":-1,"latitude":-13.563202,"longitude":-73.201869},{"name":"Pocata","country":"Peru","province":"Moquegua","population":80,"latitude":-17.119806,"longitude":-70.809424},{"name":"Playa de Santa María","country":"Peru","province":"Lima region","population":264,"latitude":-12.400217,"longitude":-76.774694},{"name":"Pisac","country":"Peru","province":"Cusco","population":2000,"latitude":-13.4225,"longitude":-71.8466667},{"name":"Pilcomayo","country":"Peru","province":"Junin","population":8169,"latitude":-12.04722,"longitude":-75.249309},{"name":"Perené","country":"Peru","province":"Junin","population":6844,"latitude":-10.945103,"longitude":-75.223941},{"name":"Paucará","country":"Peru","province":"Huancavelica","population":-1,"latitude":-12.727033,"longitude":-74.664201},{"name":"Pangoa","country":"Peru","province":"Cusco","population":6638,"latitude":-12.1166667,"longitude":-73},{"name":"Palpa","country":"Peru","province":"Ica","population":5883,"latitude":-14.5336111,"longitude":-75.1855556},{"name":"Oropesa","country":"Peru","province":"Cusco","population":4022,"latitude":-13.5927778,"longitude":-71.7719444},{"name":"Montegrande","country":"Peru","province":"Ica","population":-1,"latitude":-14.8247222,"longitude":-75.5466667},{"name":"Mazamari","country":"Peru","province":"Junin","population":6826,"latitude":-11.3258333,"longitude":-74.5308333},{"name":"Matucana","country":"Peru","province":"Lima region","population":4517,"latitude":-11.85,"longitude":-76.4},{"name":"Matarani","country":"Peru","province":"Arequipa","population":-1,"latitude":-16.996393,"longitude":-72.105628},{"name":"Hacienda Marcas","country":"Peru","province":"Huancavelica","population":-1,"latitude":-13.359255,"longitude":-75.729433},{"name":"Hacienda Mallco","country":"Peru","province":"Arequipa","population":-1,"latitude":-15.176469,"longitude":-74.521686},{"name":"Macusani","country":"Peru","province":"Puno","population":6044,"latitude":-14.0833333,"longitude":-70.4333333},{"name":"San Juan de Lurigancho","country":"Peru","province":"Lima region","population":-1,"latitude":-12.010802,"longitude":-77.005377},{"name":"Lunahuaná","country":"Peru","province":"Lima region","population":-1,"latitude":-12.963045,"longitude":-76.141386},{"name":"Layo","country":"Peru","province":"Cusco","population":3978,"latitude":-14.4936111,"longitude":-71.155},{"name":"La Pampa","country":"Peru","province":"Arequipa","population":-1,"latitude":-16.1333333,"longitude":-72.5},{"name":"Lampalla","country":"Peru","province":"Ayacucho","population":4,"latitude":-15.136,"longitude":-73.949418},{"name":"Lampa","country":"Peru","province":"Puno","population":4780,"latitude":-15.35,"longitude":-70.3666667},{"name":"Auquimarca","country":"Peru","province":"Apurímac","population":-1,"latitude":-14.0805556,"longitude":-73.5522222},{"name":"Acaray","country":"Peru","province":"Lima region","population":313,"latitude":-11.053475379943848,"longitude":-77.54859161376953},{"name":"Acain","country":"Peru","province":"Lima region","population":133,"latitude":-10.8933333,"longitude":-76.8008333},{"name":"Jacobo Hunter","country":"Peru","province":"Arequipa","population":46092,"latitude":-16.440833,"longitude":-71.553333},{"name":"Rosario de Yauca","country":"Peru","province":"Ica","population":531,"latitude":-14.135321,"longitude":-75.573711},{"name":"Yanaoca","country":"Peru","province":"Cusco","population":3913,"latitude":-14.2180556,"longitude":-71.4316667},{"name":"Tupac Amaru","country":"Peru","province":"Ica","population":11159,"latitude":-13.711346,"longitude":-76.149803},{"name":"Vilcashuamán","country":"Peru","province":"Ayacucho","population":-1,"latitude":-13.6536111,"longitude":-73.9530556},{"name":"Vilavilani","country":"Peru","province":"Tacna","population":321,"latitude":-17.845863342285156,"longitude":-69.90190124511719},{"name":"Urubamba","country":"Peru","province":"Cusco","population":7540,"latitude":-13.3047222,"longitude":-72.1158333},{"name":"Urcos","country":"Peru","province":"Cusco","population":5479,"latitude":-13.6861111,"longitude":-71.6227778},{"name":"Umayo","country":"Peru","province":"Puno","population":115,"latitude":-15.723697,"longitude":-70.142966},{"name":"Hacienda Ullujalla","country":"Peru","province":"Ica","population":-1,"latitude":-14.62585,"longitude":-75.621423},{"name":"Tutupaca","country":"Peru","province":"Tacna","population":-1,"latitude":-16.9666667,"longitude":-70.3333333},{"name":"Toquepala","country":"Peru","province":"Tacna","population":-1,"latitude":-17.300476,"longitude":-70.643656},{"name":"Tarmatambo","country":"Peru","province":"Junin","population":-1,"latitude":-11.471112,"longitude":-75.687216},{"name":"Tarata","country":"Peru","province":"Tacna","population":3052,"latitude":-17.4744444,"longitude":-70.0327778},{"name":"Tarahuasi","country":"Peru","province":"Cusco","population":100,"latitude":-13.4833333,"longitude":-72.45},{"name":"Tambopata","country":"Peru","province":"Madre de Dios","population":38966,"latitude":-12.67191,"longitude":-69.35547},{"name":"Sicaya","country":"Peru","province":"Junin","population":6842,"latitude":-12.0333333,"longitude":-75.2833333},{"name":"Santo Tomás","country":"Peru","province":"Cusco","population":-1,"latitude":-14.450534,"longitude":-72.081933},{"name":"Santo Domingo de Los Olleros","country":"Peru","province":"Lima region","population":91,"latitude":-12.214891,"longitude":-76.512127},{"name":"Santiago","country":"Peru","province":"Ica","population":10449,"latitude":-14.184693,"longitude":-75.711235},{"name":"Santa Rita de Siguas","country":"Peru","province":"Arequipa","population":4014,"latitude":-16.495551,"longitude":-72.086667},{"name":"Santa Cruz","country":"Peru","province":"Lima region","population":-1,"latitude":-12.768526,"longitude":-76.157668},{"name":"San Pedro de Cajas","country":"Peru","province":"Junin","population":5758,"latitude":-11.250612,"longitude":-75.861165},{"name":"San Pablo","country":"Peru","province":"Cusco","population":3486,"latitude":-14.2027778,"longitude":-71.3155556},{"name":"San Miguel","country":"Peru","province":"Ayacucho","population":8400,"latitude":-13.0125,"longitude":-73.9808333},{"name":"San Mateo","country":"Peru","province":"Lima region","population":-1,"latitude":-10.75,"longitude":-77.75},{"name":"San Jerónimo","country":"Peru","province":"Apurímac","population":5609,"latitude":-13.651384,"longitude":-73.363885},{"name":"San Jeronimo De Tunan","country":"Peru","province":"Junin","population":8772,"latitude":-11.95591,"longitude":-75.28411},{"name":"Sangarará","country":"Peru","province":"Cusco","population":-1,"latitude":-13.94822,"longitude":-71.603002},{"name":"Sandia","country":"Peru","province":"Puno","population":3675,"latitude":-14.32141,"longitude":-69.4654},{"name":"San Borja","country":"Peru","province":"Lima region","population":-1,"latitude":-12.098409789924842,"longitude":-77.01107025146484},{"name":"Racchi","country":"Peru","province":"Cusco","population":-1,"latitude":-13.363199,"longitude":-72.076134},{"name":"Rarasuña","country":"Peru","province":"Ayacucho","population":-1,"latitude":-15.25,"longitude":-73.5833333},{"name":"Quilmaná","country":"Peru","province":"Lima region","population":6442,"latitude":-12.948603,"longitude":-76.381121},{"name":"Querobamba","country":"Peru","province":"Ayacucho","population":-1,"latitude":-13.8666667,"longitude":-73.8333333},{"name":"Querco","country":"Peru","province":"Huancavelica","population":505,"latitude":-13.980392456054688,"longitude":-74.97650146484375},{"name":"Punta de Bombón","country":"Peru","province":"Arequipa","population":6336,"latitude":-17.171898,"longitude":-71.792399},{"name":"Supe Puerto","country":"Peru","province":"Lima region","population":11450,"latitude":-10.801354,"longitude":-77.743327},{"name":"Puerto Cashpajali","country":"Peru","province":"Madre de Dios","population":-1,"latitude":-11.8166667,"longitude":-71.8},{"name":"Puerto Caballas","country":"Peru","province":"Ica","population":-1,"latitude":-14.937513,"longitude":-75.491658},{"name":"Pucará","country":"Peru","province":"Puno","population":-1,"latitude":-15.039437,"longitude":-70.367666},{"name":"Santa Rosa de Yavarí","country":"Peru","province":"Loreto","population":-1,"latitude":-4.222575,"longitude":-69.960428},{"name":"Florencia de Mora","country":"Peru","province":"La Libertad","population":-1,"latitude":-8.0855556,"longitude":-79.02},{"name":"La Esperanza - Senati","country":"Peru","province":"La Libertad","population":-1,"latitude":-8.0544444,"longitude":-79.0525},{"name":"Moray","country":"Peru","province":"Cusco","population":11,"latitude":-13.3138889,"longitude":-72.2075},{"name":"Ancochaullane","country":"Peru","province":"Tacna","population":5,"latitude":-17.5680556,"longitude":-69.7513889},{"name":"Hornopampa","country":"Peru","province":"Ancash","population":7,"latitude":-8.9008333,"longitude":-78.1530556},{"name":"Tipicoccha","country":"Peru","province":"Junin","population":-1,"latitude":-11.74908,"longitude":-75.22074},{"name":"Urpish","country":"Peru","province":"Huanuco","population":550,"latitude":-9.276352882385254,"longitude":-76.72504425048828},{"name":"Pampan","country":"Peru","province":"Ancash","population":301,"latitude":-10.127479553222656,"longitude":-77.15489196777344},{"name":"Umán","country":"Peru","province":"Lima region","population":-1,"latitude":-12.2172222,"longitude":-75.9063889},{"name":"Sivia","country":"Peru","province":"Ayacucho","population":-1,"latitude":-12.512018,"longitude":-73.858084},{"name":"Acobamba","country":"Peru","province":"Huancavelica","population":-1,"latitude":-12.077567,"longitude":-74.871275},{"name":"Uchuracay","country":"Peru","province":"Ayacucho","population":-1,"latitude":-12.826462,"longitude":-74.104905},{"name":"Chanchara","country":"Peru","province":"Huancavelica","population":-1,"latitude":-12.845758,"longitude":-74.447105},{"name":"Vista Alegre","country":"Peru","province":"La Libertad","population":-1,"latitude":-8.137363923404152,"longitude":-79.04637336730957},{"name":"Chan Chan","country":"Peru","province":"La Libertad","population":-1,"latitude":-8.111111,"longitude":-79.075556},{"name":"Aguas Calientes","country":"Peru","province":"Cusco","population":-1,"latitude":-13.155170050147634,"longitude":-72.52264022827148},{"name":"Buena Vista","country":"Peru","province":"Lima region","population":-1,"latitude":-11.7257,"longitude":-76.965309},{"name":"Centenario","country":"Peru","province":"Ancash","population":47581,"latitude":-9.51656,"longitude":-77.53045},{"name":"Cono Norte","country":"Peru","province":"Arequipa","population":47347,"latitude":-16.323691,"longitude":-71.58151},{"name":"Carmen De La Legua Reynoso","country":"Peru","province":"Callao","population":41863,"latitude":-12.05354,"longitude":-77.098017},{"name":"Hacienda Monte Señor","country":"Peru","province":"Piura","population":-1,"latitude":-4.861848,"longitude":-80.936927},{"name":"Hacienda San Ignacio","country":"Peru","province":"Piura","population":-1,"latitude":-4.87043,"longitude":-80.87384},{"name":"Hacienda Nueva","country":"Peru","province":"Lambayeque","population":30,"latitude":-6.797999,"longitude":-79.888096},{"name":"Casa Quemadas","country":"Peru","province":"Piura","population":-1,"latitude":-4.479024,"longitude":-80.59833},{"name":"Simbal","country":"Peru","province":"La Libertad","population":805,"latitude":-7.976132869720459,"longitude":-78.81346130371094},{"name":"Silaguaz","country":"Peru","province":"Piura","population":-1,"latitude":-4.928334,"longitude":-80.021631},{"name":"Sihuas","country":"Peru","province":"Ancash","population":-1,"latitude":-8.5666667,"longitude":-77.6166667},{"name":"Sicches","country":"Peru","province":"Piura","population":-1,"latitude":-4.571656,"longitude":-79.764246},{"name":"Shanusi","country":"Peru","province":"San Martín","population":-1,"latitude":-6.111531,"longitude":-76.271669},{"name":"Saire","country":"Peru","province":"Piura","population":117,"latitude":-4.770661,"longitude":-79.999173},{"name":"Sauce","country":"Peru","province":"Piura","population":-1,"latitude":-4.619579,"longitude":-80.52962},{"name":"Saucepampa","country":"Peru","province":"Piura","population":-1,"latitude":-5.46935,"longitude":-79.351286},{"name":"Sásape","country":"Peru","province":"Lambayeque","population":-1,"latitude":-6.487244,"longitude":-79.903884},{"name":"Saquena","country":"Peru","province":"Loreto","population":4362,"latitude":-4.6666667,"longitude":-73.5166667},{"name":"Sapce","country":"Peru","province":"Piura","population":126,"latitude":-5.207568,"longitude":-79.631793},{"name":"Santa Rosa de los Etanos","country":"Peru","province":"La Libertad","population":-1,"latitude":-7.152649,"longitude":-79.587958},{"name":"Hacienda Sante Fe","country":"Peru","province":"La Libertad","population":-1,"latitude":-7.247453,"longitude":-79.425185},{"name":"Santa Clotilde","country":"Peru","province":"Loreto","population":-1,"latitude":-2.488571,"longitude":-73.678522},{"name":"Hacienda Santa Clara","country":"Peru","province":"La Libertad","population":-1,"latitude":-8.956409,"longitude":-78.627729},{"name":"Santa Clara","country":"Peru","province":"La Libertad","population":489,"latitude":-7.702966,"longitude":-79.223538},{"name":"Santa Catalina de Pulán","country":"Peru","province":"Cajamarca","population":-1,"latitude":-6.73842,"longitude":-78.919279},{"name":"Santa Ana del Quiroz","country":"Peru","province":"Piura","population":-1,"latitude":-4.548182,"longitude":-80.079405},{"name":"Hacienda Santa Ana","country":"Peru","province":"Piura","population":-1,"latitude":-4.915798,"longitude":-80.966878},{"name":"San Sebastián","country":"Peru","province":"Piura","population":-1,"latitude":-4.484533,"longitude":-80.183239},{"name":"San Pablo","country":"Peru","province":"Cajamarca","population":-1,"latitude":-7.1166667,"longitude":-78.8333333},{"name":"Libín de San Pablo","country":"Peru","province":"Piura","population":-1,"latitude":-4.923609,"longitude":-79.51078},{"name":"San Martín","country":"Peru","province":"Loreto","population":-1,"latitude":-1.568991,"longitude":-74.611078},{"name":"San Marcos","country":"Peru","province":"Cajamarca","population":-1,"latitude":-7.3333333,"longitude":-78.1833333},{"name":"San Marcos Numero Uno","country":"Peru","province":"Lambayeque","population":-1,"latitude":-6.960953,"longitude":-79.623192},{"name":"San Luis","country":"Peru","province":"Ancash","population":-1,"latitude":-9.0833333,"longitude":-77.35},{"name":"San Lorenzo","country":"Peru","province":"Loreto","population":-1,"latitude":-4.8166667,"longitude":-76.6},{"name":"San Juan de la Virgen","country":"Peru","province":"Tumbes","population":-1,"latitude":-3.627173,"longitude":-80.430659},{"name":"San Juan de Cochero","country":"Peru","province":"Huanuco","population":-1,"latitude":-9.5,"longitude":-75.85},{"name":"San José","country":"Peru","province":"Cajamarca","population":109,"latitude":-6.981369,"longitude":-79.211084},{"name":"Hacienda San José","country":"Peru","province":"Ancash","population":-1,"latitude":-9.152723,"longitude":-78.324627},{"name":"San José","country":"Peru","province":"Lambayeque","population":7434,"latitude":-6.738125,"longitude":-79.827497},{"name":"San Joaquín","country":"Peru","province":"Piura","population":102,"latitude":-4.559717,"longitude":-80.069245},{"name":"San Jacinto","country":"Peru","province":"Ancash","population":-1,"latitude":-9.143762,"longitude":-78.278508},{"name":"San Ignacio","country":"Peru","province":"La Libertad","population":-1,"latitude":-7.837681,"longitude":-78.704383},{"name":"Sangana","country":"Peru","province":"Cajamarca","population":206,"latitude":-6.305638,"longitude":-79.300618},{"name":"San Francísco de Yeso","country":"Peru","province":"Amazonas","population":-1,"latitude":-6.651346,"longitude":-77.809239},{"name":"Hacienda San Dionicio","country":"Peru","province":"Ancash","population":-1,"latitude":-8.976383,"longitude":-78.59803},{"name":"Sancor","country":"Peru","province":"Piura","population":-1,"latitude":-4.986714,"longitude":-80.167316},{"name":"San Benito","country":"Peru","province":"Cajamarca","population":546,"latitude":-7.424723148345947,"longitude":-78.92926025390625},{"name":"San Antonio","country":"Peru","province":"Piura","population":-1,"latitude":-5.421165,"longitude":-79.599621},{"name":"Samanguilla","country":"Peru","province":"Piura","population":172,"latitude":-4.621017,"longitude":-79.542401},{"name":"Saman de Afuera","country":"Peru","province":"Piura","population":-1,"latitude":-4.839009,"longitude":-80.765383},{"name":"Saltradon","country":"Peru","province":"Lambayeque","population":-1,"latitude":-6.951675,"longitude":-79.574183},{"name":"Guadalupito","country":"Peru","province":"La Libertad","population":-1,"latitude":-8.9502778,"longitude":-78.6227778},{"name":"Salamanca","country":"Peru","province":"La Libertad","population":887,"latitude":-7.820931911468506,"longitude":-79.27371978759766},{"name":"Salahual","country":"Peru","province":"Cajamarca","population":-1,"latitude":-7.453791,"longitude":-78.468442},{"name":"Sacaya","country":"Peru","province":"Piura","population":-1,"latitude":-4.760161,"longitude":-79.549841},{"name":"Hacienda Rinconada","country":"Peru","province":"Ancash","population":-1,"latitude":-8.890157,"longitude":-78.563947},{"name":"La Rinconada","country":"Peru","province":"Piura","population":360,"latitude":-5.579259,"longitude":-79.586311},{"name":"Rinconada","country":"Peru","province":"Piura","population":-1,"latitude":-4.898181,"longitude":-81.009863},{"name":"Riecito","country":"Peru","province":"Piura","population":546,"latitude":-4.717891216278076,"longitude":-80.51007843017578},{"name":"Reventazón","country":"Peru","province":"Piura","population":-1,"latitude":-6.1125,"longitude":-80.9875},{"name":"Recuay","country":"Peru","province":"Ancash","population":-1,"latitude":-9.722148866906348,"longitude":-77.45629549026489},{"name":"Ranrahirca","country":"Peru","province":"Ancash","population":936,"latitude":-9.172750473022461,"longitude":-77.72509002685547},{"name":"Ranracancha","country":"Peru","province":"Ancash","population":-1,"latitude":-9.99166,"longitude":-76.92752},{"name":"Raffan","country":"Peru","province":"Lambayeque","population":-1,"latitude":-7.039113,"longitude":-79.688401},{"name":"Quirripe","country":"Peru","province":"La Libertad","population":104,"latitude":-7.714782,"longitude":-78.825899},{"name":"Quinua","country":"Peru","province":"Piura","population":-1,"latitude":-5.086049,"longitude":-79.594159},{"name":"Quinden","country":"Peru","province":"Cajamarca","population":-1,"latitude":-7.071284,"longitude":-78.954008},{"name":"Quinchayo","country":"Peru","province":"Piura","population":-1,"latitude":-4.981975,"longitude":-79.90454},{"name":"Querpón","country":"Peru","province":"Lambayeque","population":-1,"latitude":-5.697409,"longitude":-79.880438},{"name":"Querecotillo","country":"Peru","province":"Piura","population":25396,"latitude":-4.8377778,"longitude":-80.6455556},{"name":"Punta Arena","country":"Peru","province":"Piura","population":937,"latitude":-4.974911212921143,"longitude":-80.53691864013672},{"name":"Puesto Bobonaza","country":"Peru","province":"Loreto","population":-1,"latitude":-2.600699,"longitude":-76.628812},{"name":"Puerto Tamborapa","country":"Peru","province":"Cajamarca","population":-1,"latitude":-5.399,"longitude":-78.773043},{"name":"Puerto San Agustín","country":"Peru","province":"Loreto","population":-1,"latitude":-2.783333,"longitude":-71.366667},{"name":"Puerto Parinari","country":"Peru","province":"Loreto","population":-1,"latitude":-4.7,"longitude":-74.35},{"name":"Puerto Máncora","country":"Peru","province":"Piura","population":-1,"latitude":-4.112264,"longitude":-81.069711},{"name":"Puerto Izangopampa","country":"Peru","province":"Loreto","population":-1,"latitude":-3.625259,"longitude":-72.259602},{"name":"Puerto Inca","country":"Peru","province":"Huanuco","population":-1,"latitude":-9.377,"longitude":-74.96564},{"name":"Puerto Fuentes","country":"Peru","province":"Loreto","population":-1,"latitude":-3.8333333,"longitude":-74.45},{"name":"Puerto Eten","country":"Peru","province":"Lambayeque","population":-1,"latitude":-6.923509,"longitude":-79.864502},{"name":"Chao","country":"Peru","province":"La Libertad","population":-1,"latitude":-8.5430556,"longitude":-78.6791667},{"name":"Puca Urco","country":"Peru","province":"Loreto","population":-1,"latitude":-2.327868,"longitude":-71.920137},{"name":"Hacienda Pucala","country":"Peru","province":"Lambayeque","population":6277,"latitude":-6.779187,"longitude":-79.60258},{"name":"El Potrero","country":"Peru","province":"Lambayeque","population":11,"latitude":-6.937205,"longitude":-79.559387},{"name":"Porvenir","country":"Peru","province":"La Libertad","population":-1,"latitude":-7.75,"longitude":-79.25},{"name":"Portachuelo","country":"Peru","province":"Piura","population":-1,"latitude":-4.850051,"longitude":-81.132907},{"name":"Hacienda Polvareda","country":"Peru","province":"Piura","population":-1,"latitude":-4.879746,"longitude":-80.964666},{"name":"Jaguay de Poechos","country":"Peru","province":"Piura","population":262,"latitude":-4.674667,"longitude":-80.572028},{"name":"Piquijaca","country":"Peru","province":"Cajamarca","population":241,"latitude":-5.742293,"longitude":-79.325803},{"name":"Pimentel","country":"Peru","province":"Lambayeque","population":15552,"latitude":-6.8366667,"longitude":-79.9341667},{"name":"Piedra Redonda","country":"Peru","province":"Piura","population":-1,"latitude":-4.8166667,"longitude":-80.5833333},{"name":"Pichones Alto","country":"Peru","province":"Piura","population":147,"latitude":-4.690494,"longitude":-80.293361},{"name":"Pichandul","country":"Peru","province":"Piura","population":229,"latitude":-4.612214,"longitude":-79.879447},{"name":"Hacienda Pelados","country":"Peru","province":"Piura","population":-1,"latitude":-4.68264,"longitude":-80.509795},{"name":"Pedregal","country":"Peru","province":"Piura","population":-1,"latitude":-4.901892,"longitude":-80.423407},{"name":"Pasul","country":"Peru","province":"Piura","population":-1,"latitude":-4.502302,"longitude":-80.923777},{"name":"Fundo Pashaininti","country":"Peru","province":"Ucayali","population":-1,"latitude":-8.761333,"longitude":-74.176685},{"name":"El Partidor","country":"Peru","province":"Piura","population":-1,"latitude":-4.728492,"longitude":-80.284821},{"name":"Parrapos","country":"Peru","province":"La Libertad","population":628,"latitude":-7.779380798339844,"longitude":-78.76914978027344},{"name":"Papagayo","country":"Peru","province":"Tumbes","population":-1,"latitude":-3.736794,"longitude":-80.712474},{"name":"Panao","country":"Peru","province":"Huanuco","population":-1,"latitude":-9.8977778,"longitude":-75.9933333},{"name":"Pampa Larga","country":"Peru","province":"Piura","population":-1,"latitude":-4.433305,"longitude":-80.227584},{"name":"Pampa Elera Baja","country":"Peru","province":"Piura","population":691,"latitude":-4.697443008422852,"longitude":-80.14788055419922},{"name":"Av Peru","country":"Peru","province":"La Libertad","population":-1,"latitude":-8.1,"longitude":-79.0166667},{"name":"Palo Blanco","country":"Peru","province":"Piura","population":-1,"latitude":-5.056017,"longitude":-79.635531},{"name":"Palo Blanco","country":"Peru","province":"Piura","population":495,"latitude":-5.0533333,"longitude":-79.6341667},{"name":"Palmo","country":"Peru","province":"La Libertad","population":-1,"latitude":-8.1311111,"longitude":-79.0044444},{"name":"Pacherrez","country":"Peru","province":"Lambayeque","population":722,"latitude":-6.778217792510986,"longitude":-79.52645111083984},{"name":"Pacae","country":"Peru","province":"Ancash","population":24,"latitude":-9.542904,"longitude":-78.147991},{"name":"Oyotún","country":"Peru","province":"Lambayeque","population":6330,"latitude":-6.844383,"longitude":-79.300926},{"name":"Ovegeria","country":"Peru","province":"Piura","population":-1,"latitude":-4.882755,"longitude":-80.822082},{"name":"Hacienda La Otra Banda","country":"Peru","province":"Lambayeque","population":-1,"latitude":-6.940026,"longitude":-79.578374},{"name":"Hornopampa","country":"Peru","province":"Piura","population":234,"latitude":-5.473797,"longitude":-79.740461},{"name":"Orellana","country":"Peru","province":"Loreto","population":-1,"latitude":-6.9,"longitude":-75.1666667},{"name":"Olleros","country":"Peru","province":"Piura","population":-1,"latitude":-4.709447,"longitude":-79.638993},{"name":"Olivares","country":"Peru","province":"Piura","population":-1,"latitude":-5.3,"longitude":-80.65},{"name":"Santa Rosa del Olivar","country":"Peru","province":"Ancash","population":-1,"latitude":-9.394557,"longitude":-78.178591},{"name":"José Olaya","country":"Peru","province":"Loreto","population":428,"latitude":-7.046898,"longitude":-75.189912},{"name":"Nuevo Lima","country":"Peru","province":"San Martín","population":-1,"latitude":-7.09958,"longitude":-76.471952},{"name":"Noria de Los Sánches","country":"Peru","province":"Lambayeque","population":-1,"latitude":-5.97519,"longitude":-79.946845},{"name":"Hacienda Nomara","country":"Peru","province":"Piura","population":-1,"latitude":-4.910523,"longitude":-80.881176},{"name":"El Naranjo","country":"Peru","province":"Piura","population":-1,"latitude":-4.798907,"longitude":-79.835175},{"name":"Naranjal","country":"Peru","province":"Lambayeque","population":-1,"latitude":-6.712257,"longitude":-79.85599},{"name":"Nangali","country":"Peru","province":"Piura","population":-1,"latitude":-5.176134,"longitude":-79.450669},{"name":"Namuyú","country":"Peru","province":"Piura","population":-1,"latitude":-5.066667,"longitude":-79.833333},{"name":"Nayguapata","country":"Peru","province":"La Libertad","population":204,"latitude":-7.696519,"longitude":-77.870533},{"name":"Motocache","country":"Peru","province":"Ancash","population":-1,"latitude":-9.135723,"longitude":-78.205356},{"name":"Mostaza","country":"Peru","province":"Piura","population":216,"latitude":-4.494042,"longitude":-79.681944},{"name":"Moro","country":"Peru","province":"La Libertad","population":-1,"latitude":-7.179711,"longitude":-79.433683},{"name":"Monte Viejo","country":"Peru","province":"Piura","population":-1,"latitude":-5.356148,"longitude":-80.762393},{"name":"Monte Lima","country":"Peru","province":"Piura","population":-1,"latitude":-4.861144,"longitude":-80.94044},{"name":"Moncada","country":"Peru","province":"La Libertad","population":216,"latitude":-7.868761,"longitude":-79.254574},{"name":"Molino","country":"Peru","province":"Piura","population":-1,"latitude":-5.084158,"longitude":-80.625826},{"name":"Moxe","country":"Peru","province":"Lambayeque","population":-1,"latitude":-6.680175,"longitude":-79.900354},{"name":"Mocán","country":"Peru","province":"La Libertad","population":915,"latitude":-7.656501770019531,"longitude":-79.24088287353516},{"name":"Hacienda Mira Flores","country":"Peru","province":"Lambayeque","population":-1,"latitude":-6.873317,"longitude":-79.837355},{"name":"Hacienda Miraflores","country":"Peru","province":"Piura","population":-1,"latitude":-4.914083,"longitude":-80.872911},{"name":"Mendoza","country":"Peru","province":"Amazonas","population":-1,"latitude":-6.3944444,"longitude":-77.4816667},{"name":"Mayas","country":"Peru","province":"Ancash","population":643,"latitude":-8.270298957824707,"longitude":-77.66218566894531},{"name":"Marceto","country":"Peru","province":"Piura","population":-1,"latitude":-4.33144,"longitude":-80.502314},{"name":"Mandorcillo","country":"Peru","province":"Piura","population":86,"latitude":-5.485101,"longitude":-79.409436},{"name":"Mancucur","country":"Peru","province":"Piura","population":241,"latitude":-5.401932,"longitude":-79.357659},{"name":"Mambiuque","country":"Peru","province":"Piura","population":-1,"latitude":-5.189176,"longitude":-79.86773},{"name":"Mamayaco","country":"Peru","province":"Piura","population":254,"latitude":-5.494425,"longitude":-79.710048},{"name":"Mamape","country":"Peru","province":"Lambayeque","population":173,"latitude":-6.65624,"longitude":-79.751299},{"name":"Mallaritos","country":"Peru","province":"Piura","population":-1,"latitude":-4.866458,"longitude":-80.717048},{"name":"Malingas","country":"Peru","province":"Piura","population":775,"latitude":-4.9527668952941895,"longitude":-80.25055694580078},{"name":"Maipuco","country":"Peru","province":"Loreto","population":-1,"latitude":-4.830186,"longitude":-75.1528},{"name":"Mahuisha","country":"Peru","province":"Loreto","population":-1,"latitude":-6.2833333,"longitude":-75.2},{"name":"Machaitambo","country":"Peru","province":"La Libertad","population":-1,"latitude":-8.144709,"longitude":-78.511253},{"name":"Machac","country":"Peru","province":"Ancash","population":-1,"latitude":-9.6833333,"longitude":-77.2166667},{"name":"Macabí Alto","country":"Peru","province":"La Libertad","population":666,"latitude":-7.715800762176514,"longitude":-79.36943817138672},{"name":"Hacienda Luya","country":"Peru","province":"Lambayeque","population":-1,"latitude":-6.686916,"longitude":-79.701906},{"name":"Los More","country":"Peru","province":"Piura","population":-1,"latitude":-5.336126,"longitude":-80.7001},{"name":"Los Chimús","country":"Peru","province":"Ancash","population":277,"latitude":-9.319166,"longitude":-78.47639},{"name":"Los Castillo","country":"Peru","province":"Piura","population":-1,"latitude":-5.341232,"longitude":-80.70626},{"name":"Los Carillo","country":"Peru","province":"Piura","population":-1,"latitude":-5.327292,"longitude":-80.739862},{"name":"Loma Negra","country":"Peru","province":"Piura","population":-1,"latitude":-5.325935,"longitude":-80.78765},{"name":"Llicuar","country":"Peru","province":"Piura","population":-1,"latitude":-5.470212,"longitude":-80.769066},{"name":"Llicsa Grande de Zapotal","country":"Peru","province":"Piura","population":-1,"latitude":-4.820279,"longitude":-80.054763},{"name":"Llaucán","country":"Peru","province":"Cajamarca","population":462,"latitude":-6.74711,"longitude":-78.528917},{"name":"Leymebamba","country":"Peru","province":"Amazonas","population":-1,"latitude":-6.707741,"longitude":-77.804228},{"name":"Laynas","country":"Peru","province":"Piura","population":-1,"latitude":-5.23176,"longitude":-80.052392},{"name":"La Viña","country":"Peru","province":"Lambayeque","population":722,"latitude":-6.371054172515869,"longitude":-79.76422119140625},{"name":"Laumache","country":"Peru","province":"Piura","population":314,"latitude":-5.190359115600586,"longitude":-79.46356964111328},{"name":"La Tina","country":"Peru","province":"Piura","population":-1,"latitude":-4.51106,"longitude":-79.99446},{"name":"La Saucha","country":"Peru","province":"Piura","population":300,"latitude":-4.595693111419678,"longitude":-80.07318878173828},{"name":"Larea","country":"Peru","province":"Ancash","population":-1,"latitude":-9.105503,"longitude":-78.13393},{"name":"Lancones","country":"Peru","province":"Piura","population":346,"latitude":-4.576939105987549,"longitude":-80.47792053222656},{"name":"Lamud","country":"Peru","province":"Amazonas","population":-1,"latitude":-6.1372222,"longitude":-77.9536111},{"name":"La Jalca","country":"Peru","province":"Amazonas","population":-1,"latitude":-6.4861111,"longitude":-77.8152778},{"name":"Huamantanga","country":"Peru","province":"Lambayeque","population":-1,"latitude":-6.651045,"longitude":-79.855722},{"name":"Lagunas","country":"Peru","province":"Loreto","population":9197,"latitude":-5.2269444,"longitude":-75.6752778},{"name":"Laguna","country":"Peru","province":"Piura","population":-1,"latitude":-5.249729,"longitude":-80.712669},{"name":"La Fortuna","country":"Peru","province":"La Libertad","population":-1,"latitude":-7.8333333,"longitude":-79.25},{"name":"La Cramarca","country":"Peru","province":"Ancash","population":-1,"latitude":-8.888916,"longitude":-78.264699},{"name":"La Arenita","country":"Peru","province":"La Libertad","population":-1,"latitude":-7.680357,"longitude":-79.327075},{"name":"Las Juntas","country":"Peru","province":"Piura","population":-1,"latitude":-5.42833,"longitude":-79.417951},{"name":"Juscusbamba","country":"Peru","province":"San Martín","population":-1,"latitude":-7.878637,"longitude":-77.185002},{"name":"Juana Ríos","country":"Peru","province":"Lambayeque","population":359,"latitude":-6.627778,"longitude":-79.408611},{"name":"Puesto de Vigilancia Jiménez Banda","country":"Peru","province":"Amazonas","population":-1,"latitude":-3.719778,"longitude":-78.29244},{"name":"Hacienda Jerez","country":"Peru","province":"Cajamarca","population":-1,"latitude":-6.797534,"longitude":-78.293446},{"name":"Jeberos","country":"Peru","province":"Loreto","population":-1,"latitude":-5.2833333,"longitude":-76.2833333},{"name":"Hambul","country":"Peru","province":"Piura","population":-1,"latitude":-4.615886,"longitude":-79.967657},{"name":"Hacienda Jaigua Baja","country":"Peru","province":"Ancash","population":-1,"latitude":-9.528611,"longitude":-78.070832},{"name":"Insculas","country":"Peru","province":"Lambayeque","population":676,"latitude":-5.756153106689453,"longitude":-79.85891723632812},{"name":"Huicungo","country":"Peru","province":"San Martín","population":6757,"latitude":-7.318595,"longitude":-76.775558},{"name":"Huaylas","country":"Peru","province":"Ancash","population":576,"latitude":-8.86954116821289,"longitude":-77.89260864257812},{"name":"Huasimal","country":"Peru","province":"Piura","population":-1,"latitude":-5.45,"longitude":-79.6},{"name":"Huaracas","country":"Peru","province":"Piura","population":-1,"latitude":-4.929509,"longitude":-79.77077},{"name":"Huara","country":"Peru","province":"Piura","population":-1,"latitude":-4.564646,"longitude":-79.553274},{"name":"Huantaullo","country":"Peru","province":"Ancash","population":-1,"latitude":-8.2,"longitude":-77.6166667},{"name":"Huanchaco","country":"Peru","province":"La Libertad","population":-1,"latitude":-8.0833333,"longitude":-79.1166667},{"name":"Huancay","country":"Peru","province":"La Libertad","population":371,"latitude":-7.605187,"longitude":-78.689909},{"name":"Huan","country":"Peru","province":"Piura","population":-1,"latitude":-5.131421,"longitude":-80.641729},{"name":"Huambacho Viejo","country":"Peru","province":"Ancash","population":98,"latitude":-9.2666667,"longitude":-78.4333333},{"name":"Hualtacal","country":"Peru","province":"Lambayeque","population":-1,"latitude":-5.790206,"longitude":-79.868868},{"name":"Hualcuy","country":"Peru","province":"Piura","population":244,"latitude":-4.734726,"longitude":-79.609952},{"name":"Huala","country":"Peru","province":"Piura","population":-1,"latitude":-5.018026,"longitude":-79.937176},{"name":"Huajambe","country":"Peru","province":"Piura","population":-1,"latitude":-5.225481,"longitude":-79.623295},{"name":"Huaipirá","country":"Peru","province":"Piura","population":-1,"latitude":-4.655755,"longitude":-80.478038},{"name":"Huacrachuco","country":"Peru","province":"Huanuco","population":-1,"latitude":-8.65,"longitude":-77.0833333},{"name":"Huacaybamba","country":"Peru","province":"Huanuco","population":-1,"latitude":-9.03819,"longitude":-76.95293},{"name":"Hacienda Huacatambo","country":"Peru","province":"Ancash","population":-1,"latitude":-9.231554,"longitude":-78.415777},{"name":"Hacienda Porcón","country":"Peru","province":"Cajamarca","population":-1,"latitude":-7.083333,"longitude":-78.583333},{"name":"Los Cocos","country":"Peru","province":"Lambayeque","population":-1,"latitude":-6.586645,"longitude":-79.82295},{"name":"Llicsa Saccha Palmo","country":"Peru","province":"Piura","population":-1,"latitude":-4.835937,"longitude":-80.041926},{"name":"Güeppí","country":"Peru","province":"Loreto","population":-1,"latitude":-0.117222,"longitude":-75.2491},{"name":"Guar Guar","country":"Peru","province":"Piura","population":-1,"latitude":-5.086536,"longitude":-79.462121},{"name":"Granada","country":"Peru","province":"Amazonas","population":143,"latitude":-6.0991667,"longitude":-77.6266667},{"name":"Gongoña","country":"Peru","province":"Piura","population":-1,"latitude":-5.6788889,"longitude":-79.5502778},{"name":"La Golondrina","country":"Peru","province":"Piura","population":-1,"latitude":-4.845446,"longitude":-80.781798},{"name":"Gollón","country":"Peru","province":"Amazonas","population":178,"latitude":-6.736389,"longitude":-77.940833},{"name":"Gigante","country":"Peru","province":"Piura","population":276,"latitude":-4.523528,"longitude":-79.56151},{"name":"Florida ( Pomacochas)","country":"Peru","province":"Amazonas","population":3570,"latitude":-5.825817,"longitude":-77.969613},{"name":"Farías","country":"Peru","province":"La Libertad","population":614,"latitude":-7.8067708015441895,"longitude":-79.224853515625},{"name":"Faclo Grande","country":"Peru","province":"La Libertad","population":209,"latitude":-7.3166667,"longitude":-79.55},{"name":"Facalá","country":"Peru","province":"La Libertad","population":250,"latitude":-7.720583,"longitude":-79.157958},{"name":"Encalada","country":"Peru","province":"La Libertad","population":-1,"latitude":-8.1341667,"longitude":-79.0230556},{"name":"El Tingo","country":"Peru","province":"Cajamarca","population":-1,"latitude":-7.35,"longitude":-77.8333333},{"name":"Tambo","country":"Peru","province":"La Libertad","population":-1,"latitude":-7.228379,"longitude":-79.447024},{"name":"El Salto","country":"Peru","province":"Tumbes","population":-1,"latitude":-3.429096,"longitude":-80.297224},{"name":"Progreso","country":"Peru","province":"Piura","population":-1,"latitude":-4.575107,"longitude":-80.17916},{"name":"Hacienda El Muerto","country":"Peru","province":"Piura","population":-1,"latitude":-4.398253,"longitude":-80.949374},{"name":"Molino","country":"Peru","province":"La Libertad","population":-1,"latitude":-7.227012,"longitude":-79.45212},{"name":"El Huáscar","country":"Peru","province":"La Libertad","population":-1,"latitude":-7.337469,"longitude":-79.518397},{"name":"Bendito","country":"Peru","province":"Tumbes","population":-1,"latitude":-3.451615,"longitude":-80.317561},{"name":"Sección Castillo","country":"Peru","province":"Ancash","population":-1,"latitude":-8.931743,"longitude":-78.573618},{"name":"El Brujo","country":"Peru","province":"La Libertad","population":11,"latitude":-7.91354,"longitude":-79.30382},{"name":"El Alto","country":"Peru","province":"Piura","population":9303,"latitude":-4.268506,"longitude":-81.217191},{"name":"Algarrobo","country":"Peru","province":"Tumbes","population":-1,"latitude":-3.452071,"longitude":-80.280218},{"name":"Egidos","country":"Peru","province":"Piura","population":-1,"latitude":-5.152197,"longitude":-80.62013},{"name":"Edelmira","country":"Peru","province":"Cajamarca","population":244,"latitude":-7.332422,"longitude":-78.250251},{"name":"Cutervo","country":"Peru","province":"Cajamarca","population":-1,"latitude":-6.3666667,"longitude":-78.85},{"name":"Cusco","country":"Peru","province":"San Martín","population":-1,"latitude":-7.255558,"longitude":-76.475553},{"name":"Pucusula","country":"Peru","province":"Piura","population":319,"latitude":-4.917311191558838,"longitude":-81.0000991821289},{"name":"Zorro Cote","country":"Peru","province":"Lambayeque","population":-1,"latitude":-6.853155,"longitude":-79.900525},{"name":"Zapote","country":"Peru","province":"Loreto","population":-1,"latitude":-5.2833333,"longitude":-74.1666667},{"name":"San Francisco de Yuscay","country":"Peru","province":"Piura","population":271,"latitude":-4.725536,"longitude":-80.270497},{"name":"Yuracyacu","country":"Peru","province":"Loreto","population":-1,"latitude":-3.35,"longitude":-73.0166667},{"name":"Yunchicate","country":"Peru","province":"Amazonas","population":-1,"latitude":-5.7833333,"longitude":-78.2333333},{"name":"Yucuruche","country":"Peru","province":"Loreto","population":-1,"latitude":-4.6333333,"longitude":-73.4833333},{"name":"Yomblom","country":"Peru","province":"Amazonas","population":-1,"latitude":-6.587683,"longitude":-78.104978},{"name":"Yencalaleon","country":"Peru","province":"Lambayeque","population":-1,"latitude":-6.695042,"longitude":-79.959113},{"name":"Yaypón","country":"Peru","province":"Lambayeque","population":4,"latitude":-6.5333333,"longitude":-79.4333333},{"name":"Yarumayo","country":"Peru","province":"Huanuco","population":-1,"latitude":-9.937692,"longitude":-76.489304},{"name":"Yanta","country":"Peru","province":"Piura","population":-1,"latitude":-4.843512,"longitude":-79.649203},{"name":"Yagen","country":"Peru","province":"Cajamarca","population":-1,"latitude":-6.5166667,"longitude":-78.2666667},{"name":"Viviate","country":"Peru","province":"Piura","population":-1,"latitude":-4.919584,"longitude":-80.916219},{"name":"Vista Florida","country":"Peru","province":"Piura","population":34,"latitude":-4.851038,"longitude":-81.047828},{"name":"Vircales","country":"Peru","province":"Piura","population":-1,"latitude":-4.802785,"longitude":-79.525064},{"name":"Vatahual","country":"Peru","province":"Cajamarca","population":-1,"latitude":-7.18442,"longitude":-79.022623},{"name":"Vainillas","country":"Peru","province":"San Martín","population":-1,"latitude":-7.07681,"longitude":-76.550653},{"name":"Uningambal","country":"Peru","province":"La Libertad","population":439,"latitude":-8.2833333,"longitude":-78.4},{"name":"Ulunche","country":"Peru","province":"Piura","population":-1,"latitude":-4.67504,"longitude":-79.827982},{"name":"Comunidad Uchupata","country":"Peru","province":"Piura","population":-1,"latitude":-5.386051,"longitude":-79.472662},{"name":"Tunigrama","country":"Peru","province":"Loreto","population":9,"latitude":-2.72858,"longitude":-76.626717},{"name":"Tunas","country":"Peru","province":"Piura","population":97,"latitude":-5.506198,"longitude":-79.566531},{"name":"Trompeteros","country":"Peru","province":"Loreto","population":-1,"latitude":-3.8141667,"longitude":-75.0583333},{"name":"Tranca de Reque","country":"Peru","province":"Lambayeque","population":-1,"latitude":-6.822866,"longitude":-79.767059},{"name":"Actual Tipishca","country":"Peru","province":"Loreto","population":-1,"latitude":-5.453013,"longitude":-75.815347},{"name":"Teniente Pinglo","country":"Peru","province":"Amazonas","population":30,"latitude":-4.429597,"longitude":-77.64055},{"name":"Tayabamba","country":"Peru","province":"La Libertad","population":-1,"latitude":-8.2769444,"longitude":-77.2963889},{"name":"Tarapoto","country":"Peru","province":"Loreto","population":-1,"latitude":-2.1833333,"longitude":-74.1},{"name":"Taquilpón","country":"Peru","province":"Ancash","population":60,"latitude":-8.67569,"longitude":-78.14641},{"name":"Hacienda Tambo Real","country":"Peru","province":"Ancash","population":-1,"latitude":-8.964709,"longitude":-78.575833},{"name":"Tambo Grande","country":"Peru","province":"Piura","population":30033,"latitude":-4.9269444,"longitude":-80.3447222},{"name":"Tabona","country":"Peru","province":"Piura","population":-1,"latitude":-4.889263,"longitude":-81.037938},{"name":"Tablazo","country":"Peru","province":"Lambayeque","population":-1,"latitude":-6.697577,"longitude":-79.431062},{"name":"Suyupampa","country":"Peru","province":"Piura","population":-1,"latitude":-4.659032,"longitude":-79.699592},{"name":"Suchiman","country":"Peru","province":"Ancash","population":-1,"latitude":-8.723072,"longitude":-78.419631},{"name":"Succhubamba","country":"Peru","province":"La Libertad","population":-1,"latitude":-7.75335,"longitude":-78.639333},{"name":"Succha","country":"Peru","province":"La Libertad","population":-1,"latitude":-7.894616,"longitude":-77.687889},{"name":"La Soccha","country":"Peru","province":"Piura","population":-1,"latitude":-5.260453,"longitude":-79.638658},{"name":"Hacienda Soquián","country":"Peru","province":"La Libertad","population":-1,"latitude":-7.849233,"longitude":-77.68417},{"name":"Solsol","country":"Peru","province":"Piura","population":-1,"latitude":-5.035462,"longitude":-80.190562},{"name":"Solana Central","country":"Peru","province":"Piura","population":167,"latitude":-4.506996,"longitude":-80.435196},{"name":"Culebras","country":"Peru","province":"Ancash","population":-1,"latitude":-9.8833333,"longitude":-78.1},{"name":"Cullca Pampa","country":"Peru","province":"Piura","population":-1,"latitude":-4.788005,"longitude":-79.582218},{"name":"Coigo Bamba","country":"Peru","province":"La Libertad","population":-1,"latitude":-7.818076,"longitude":-77.997897},{"name":"Coscomba","country":"Peru","province":"Piura","population":188,"latitude":-5.214154,"longitude":-80.643016},{"name":"San Nicolas","country":"Peru","province":"La Libertad","population":-1,"latitude":-8.102122517015077,"longitude":-79.03727531433105},{"name":"El Cortezo","country":"Peru","province":"Piura","population":39,"latitude":-4.553637,"longitude":-80.247413},{"name":"Corongo","country":"Peru","province":"Ancash","population":-1,"latitude":-8.5833333,"longitude":-77.9166667},{"name":"Coronel Portillo","country":"Peru","province":"Loreto","population":-1,"latitude":-3.25,"longitude":-76.6},{"name":"Copal Urco","country":"Peru","province":"Loreto","population":404,"latitude":-2.348847,"longitude":-73.789405},{"name":"Copallín","country":"Peru","province":"Amazonas","population":-1,"latitude":-5.673704,"longitude":-78.422249},{"name":"Constancia","country":"Peru","province":"La Libertad","population":-1,"latitude":-8.003899,"longitude":-78.826819},{"name":"Constancia","country":"Peru","province":"La Libertad","population":-1,"latitude":-7.7697222,"longitude":-79.2227778},{"name":"Congoña","country":"Peru","province":"Lambayeque","population":323,"latitude":-6.061612129211426,"longitude":-79.33512878417969},{"name":"Conchu","country":"Peru","province":"Cajamarca","population":-1,"latitude":-6.428023,"longitude":-78.445486},{"name":"Concepción","country":"Peru","province":"Piura","population":-1,"latitude":-4.9166667,"longitude":-80.8833333},{"name":"Colquimarca","country":"Peru","province":"Cajamarca","population":-1,"latitude":-7.461882,"longitude":-78.591662},{"name":"Colambay","country":"Peru","province":"Cajamarca","population":-1,"latitude":-7.31425,"longitude":-78.23851},{"name":"Hacienda Cojal","country":"Peru","province":"Lambayeque","population":-1,"latitude":-6.884437,"longitude":-79.497158},{"name":"Hacienda Cochabamba","country":"Peru","province":"La Libertad","population":-1,"latitude":-7.830224,"longitude":-77.881058},{"name":"Coca","country":"Peru","province":"Piura","population":253,"latitude":-5.195305,"longitude":-79.840838},{"name":"Sirabamba","country":"Peru","province":"Huanuco","population":-1,"latitude":-9.790369,"longitude":-76.313375},{"name":"El Ciénego Sur","country":"Peru","province":"Tumbes","population":78,"latitude":-4.053946,"longitude":-80.695023},{"name":"Chuquique","country":"Peru","province":"La Libertad","population":-1,"latitude":-7.560118,"longitude":-77.656408},{"name":"Chuquibamba","country":"Peru","province":"Cajamarca","population":324,"latitude":-7.635293960571289,"longitude":-78.14264678955078},{"name":"Chulucanitas","country":"Peru","province":"Piura","population":306,"latitude":-5.034533977508545,"longitude":-79.59288024902344},{"name":"Chuín","country":"Peru","province":"La Libertad","population":230,"latitude":-7.749167,"longitude":-79.278889},{"name":"Chorobal","country":"Peru","province":"La Libertad","population":110,"latitude":-8.435564,"longitude":-78.488081},{"name":"Hacienda Choloque","country":"Peru","province":"Cajamarca","population":-1,"latitude":-5.791171,"longitude":-79.332949},{"name":"Chocope","country":"Peru","province":"La Libertad","population":32370,"latitude":-7.7913889,"longitude":-79.2216667},{"name":"Chócope","country":"Peru","province":"Lambayeque","population":-1,"latitude":-6.157935,"longitude":-79.648159},{"name":"Chinchinpampa","country":"Peru","province":"Piura","population":-1,"latitude":-4.674442,"longitude":-79.759171},{"name":"Chiliquini","country":"Peru","province":"Amazonas","population":-1,"latitude":-6.077384,"longitude":-77.7374},{"name":"Chilcaya","country":"Peru","province":"Piura","population":-1,"latitude":-5.346015,"longitude":-79.407023},{"name":"Hacienda Chilaco","country":"Peru","province":"Piura","population":-1,"latitude":-4.702268,"longitude":-80.506879},{"name":"La Chignia","country":"Peru","province":"Piura","population":-1,"latitude":-5.584011,"longitude":-79.688635},{"name":"Chiclayito","country":"Peru","province":"Piura","population":-1,"latitude":-5.2333333,"longitude":-80.6333333},{"name":"Shishita","country":"Peru","province":"Loreto","population":153,"latitude":-3.39863,"longitude":-71.752859},{"name":"Chico Alto","country":"Peru","province":"Piura","population":-1,"latitude":-4.885271,"longitude":-80.39735},{"name":"Chayahuitas","country":"Peru","province":"Loreto","population":-1,"latitude":-5.45,"longitude":-76.8},{"name":"Chavinillo","country":"Peru","province":"Huanuco","population":-1,"latitude":-9.8585,"longitude":-76.60855},{"name":"Chaupi-loma","country":"Peru","province":"Cajamarca","population":-1,"latitude":-7,"longitude":-78.7},{"name":"Charapilla","country":"Peru","province":"Loreto","population":-1,"latitude":-5.9833333,"longitude":-75.9},{"name":"Charán Grande","country":"Peru","province":"Piura","population":-1,"latitude":-4.533723,"longitude":-80.314482},{"name":"Chaquira","country":"Peru","province":"Piura","population":349,"latitude":-5.307056903839111,"longitude":-80.75335693359375},{"name":"Chanro","country":"Peru","province":"Piura","population":281,"latitude":-5.423418,"longitude":-79.710399},{"name":"Chambira","country":"Peru","province":"Loreto","population":-1,"latitude":-4.530096,"longitude":-74.78507},{"name":"Challe Chico","country":"Peru","province":"Piura","population":-1,"latitude":-4.904539,"longitude":-79.947789},{"name":"Chafán Grande","country":"Peru","province":"La Libertad","population":527,"latitude":-7.315730094909668,"longitude":-79.38031768798828},{"name":"Chacas","country":"Peru","province":"Ancash","population":-1,"latitude":-9.2333333,"longitude":-77.3833333},{"name":"Cerpaquino","country":"Peru","province":"La Libertad","population":446,"latitude":-7.937792,"longitude":-77.945886},{"name":"Hacienda Cazaderos","country":"Peru","province":"Tumbes","population":-1,"latitude":-4.08642,"longitude":-80.480867},{"name":"Cayanchal","country":"Peru","province":"La Libertad","population":-1,"latitude":-7.774603,"longitude":-78.535875},{"name":"Cayalti","country":"Peru","province":"Lambayeque","population":-1,"latitude":-6.887698,"longitude":-79.559308},{"name":"Casma","country":"Peru","province":"Ancash","population":-1,"latitude":-9.4747222,"longitude":-78.3016667},{"name":"Cashamano","country":"Peru","province":"Piura","population":-1,"latitude":-5.498533,"longitude":-79.328234},{"name":"Cascay","country":"Peru","province":"Huanuco","population":251,"latitude":-9.838591,"longitude":-76.150397},{"name":"Hacienda Cascapampa","country":"Peru","province":"Piura","population":-1,"latitude":-5.316526,"longitude":-79.531776},{"name":"La Rosada","country":"Peru","province":"Lambayeque","population":85,"latitude":-6.632132,"longitude":-79.877392},{"name":"Casa Grande","country":"Peru","province":"La Libertad","population":-1,"latitude":-7.7438889,"longitude":-79.1863889},{"name":"Cartagena","country":"Peru","province":"Lambayeque","population":259,"latitude":-6.593242,"longitude":-80.024934},{"name":"Hacienda Carrizal","country":"Peru","province":"Cajamarca","population":-1,"latitude":-6.581636,"longitude":-79.235932},{"name":"Hacienda Capullana","country":"Peru","province":"Piura","population":-1,"latitude":-4.885344,"longitude":-80.93867},{"name":"La Capilla","country":"Peru","province":"Ancash","population":320,"latitude":-9.266562461853027,"longitude":-78.47492218017578},{"name":"Capillania","country":"Peru","province":"Ancash","population":-1,"latitude":-9.201586,"longitude":-78.379635},{"name":"Cañaveral","country":"Peru","province":"Tumbes","population":351,"latitude":-3.9416667,"longitude":-80.6508333},{"name":"Camporredondo","country":"Peru","province":"Amazonas","population":-1,"latitude":-6.214719,"longitude":-78.319745},{"name":"Calvas","country":"Peru","province":"Piura","population":-1,"latitude":-4.556189,"longitude":-79.516487},{"name":"Calipuy","country":"Peru","province":"La Libertad","population":499,"latitude":-8.3666667,"longitude":-78.2166667},{"name":"Caleta Chérrepe","country":"Peru","province":"Lambayeque","population":-1,"latitude":-7.166667,"longitude":-79.7},{"name":"Cajas","country":"Peru","province":"Piura","population":-1,"latitude":-5.168665,"longitude":-79.430387},{"name":"Cafetal","country":"Peru","province":"La Libertad","population":-1,"latitude":-7.252621,"longitude":-79.476308},{"name":"Cachiaco","country":"Peru","province":"Piura","population":-1,"latitude":-4.968604,"longitude":-79.552694},{"name":"Cacaturo","country":"Peru","province":"Piura","population":267,"latitude":-4.712095,"longitude":-79.950636},{"name":"Cabo Inga","country":"Peru","province":"Tumbes","population":-1,"latitude":-3.975203,"longitude":-80.402027},{"name":"Cabana","country":"Peru","province":"Ancash","population":-1,"latitude":-8.4,"longitude":-78.0333333},{"name":"Caballococha","country":"Peru","province":"Loreto","population":-1,"latitude":-3.9058333,"longitude":-70.5163889},{"name":"Buildibuyo","country":"Peru","province":"La Libertad","population":-1,"latitude":-8.127045,"longitude":-77.395238},{"name":"Buenos Aires","country":"Peru","province":"La Libertad","population":-1,"latitude":-8.1386111,"longitude":-79.0402778},{"name":"Buena Vista","country":"Peru","province":"La Libertad","population":971,"latitude":-8.479710578918457,"longitude":-78.63263702392578},{"name":"Hacienda Bigote","country":"Peru","province":"Piura","population":-1,"latitude":-5.318689,"longitude":-79.78569},{"name":"Balneario Leguía","country":"Peru","province":"Piura","population":-1,"latitude":-5.566667,"longitude":-80.866667},{"name":"Ayacucho","country":"Peru","province":"Loreto","population":-1,"latitude":-6.1,"longitude":-73.3833333},{"name":"Aucantagua","country":"Peru","province":"Huanuco","population":-1,"latitude":-9.1333333,"longitude":-76.4833333},{"name":"Asunción","country":"Peru","province":"Amazonas","population":150,"latitude":-6.032529,"longitude":-77.71041},{"name":"Asiayaca","country":"Peru","province":"Piura","population":-1,"latitude":-4.622529,"longitude":-79.608224},{"name":"Arrepite Alto","country":"Peru","province":"Piura","population":-1,"latitude":-4.709376,"longitude":-79.802931},{"name":"Arica","country":"Peru","province":"Huanuco","population":-1,"latitude":-9.0833333,"longitude":-76.3333333},{"name":"Arenales","country":"Peru","province":"Piura","population":143,"latitude":-4.923037,"longitude":-79.848165},{"name":"Arbol Sol","country":"Peru","province":"Lambayeque","population":-1,"latitude":-6.541007,"longitude":-79.960647},{"name":"Araqueda","country":"Peru","province":"Cajamarca","population":352,"latitude":-7.657988,"longitude":-78.179991},{"name":"Aramango","country":"Peru","province":"Amazonas","population":-1,"latitude":-5.4163889,"longitude":-78.4358333},{"name":"Anta","country":"Peru","province":"Ancash","population":614,"latitude":-9.356980323791504,"longitude":-77.59796142578125},{"name":"Angulis","country":"Peru","province":"Cajamarca","population":80,"latitude":-6.360538,"longitude":-79.366286},{"name":"Andaymayo","country":"Peru","province":"Ancash","population":161,"latitude":-8.6666667,"longitude":-77.6333333},{"name":"Amelia","country":"Peru","province":"Loreto","population":3,"latitude":-4.333411,"longitude":-70.201118},{"name":"Ambrosio","country":"Peru","province":"Loreto","population":-1,"latitude":-5.9833333,"longitude":-76.0666667},{"name":"Alto Perillo","country":"Peru","province":"Loreto","population":554,"latitude":-7.078689098358154,"longitude":-75.1433334350586},{"name":"Algamarca","country":"Peru","province":"Cajamarca","population":532,"latitude":-7.60706090927124,"longitude":-78.24539947509766},{"name":"Aija","country":"Peru","province":"Ancash","population":843,"latitude":-9.780986785888672,"longitude":-77.60973358154297},{"name":"Aguas Calientes","country":"Peru","province":"Huanuco","population":-1,"latitude":-8.81197,"longitude":-74.72094},{"name":"Campo Verde","country":"Peru","province":"Ucayali","population":8945,"latitude":-8.475327,"longitude":-74.807085},{"name":"Hacienda Victoria","country":"Peru","province":"La Libertad","population":-1,"latitude":-7.616582,"longitude":-77.75354},{"name":"Hacienda Laredito","country":"Peru","province":"La Libertad","population":-1,"latitude":-7.673817,"longitude":-77.675132},{"name":"Hacienda Shitabal","country":"Peru","province":"La Libertad","population":-1,"latitude":-7.983639,"longitude":-77.76028},{"name":"Vista Florida","country":"Peru","province":"La Libertad","population":169,"latitude":-7.808538,"longitude":-77.61115},{"name":"Shumba Alto","country":"Peru","province":"Cajamarca","population":559,"latitude":-5.568789005279541,"longitude":-78.8148422241211},{"name":"Colcabamba","country":"Peru","province":"Huancavelica","population":-1,"latitude":-12.4,"longitude":-74.7},{"name":"Cochas","country":"Peru","province":"Junin","population":86,"latitude":-11.97182,"longitude":-75.80673},{"name":"Ccochapata","country":"Peru","province":"Apurímac","population":351,"latitude":-13.7261111,"longitude":-72.3527778},{"name":"Chuschi","country":"Peru","province":"Ayacucho","population":-1,"latitude":-13.5855556,"longitude":-74.3505556},{"name":"Churupampa","country":"Peru","province":"Puno","population":-1,"latitude":-15.813818,"longitude":-69.796983},{"name":"Churrutina","country":"Peru","province":"Ica","population":22,"latitude":-13.959403,"longitude":-75.721008},{"name":"Churcampa","country":"Peru","province":"Huancavelica","population":-1,"latitude":-12.7,"longitude":-74.4},{"name":"Fundo Chuquitanta","country":"Peru","province":"Lima region","population":-1,"latitude":-11.952652,"longitude":-77.097534},{"name":"Chuquibamba","country":"Peru","province":"Arequipa","population":-1,"latitude":-15.8380556,"longitude":-72.6536111},{"name":"Chullunquiane","country":"Peru","province":"Puno","population":-1,"latitude":-15.5166667,"longitude":-70.1833333},{"name":"Chuschuco","country":"Peru","province":"Tacna","population":-1,"latitude":-17.904794,"longitude":-70.074414},{"name":"Cuchina","country":"Peru","province":"Cusco","population":-1,"latitude":-13.96508,"longitude":-72.010243},{"name":"Chiuchin","country":"Peru","province":"Lima region","population":210,"latitude":-10.928187,"longitude":-76.780559},{"name":"Chucarapi","country":"Peru","province":"Arequipa","population":-1,"latitude":-17.071064,"longitude":-71.722596},{"name":"Chopca","country":"Peru","province":"Huancavelica","population":-1,"latitude":-12.75,"longitude":-74.7333333},{"name":"Chiquintirca","country":"Peru","province":"Ayacucho","population":530,"latitude":-13.060469627380371,"longitude":-73.7068099975586},{"name":"Chiquerillo","country":"Peru","province":"Ica","population":212,"latitude":-14.647141,"longitude":-75.239389},{"name":"Chipispaya","country":"Peru","province":"Tacna","population":1932,"latitude":-17.497901,"longitude":-70.217141},{"name":"Chingora","country":"Peru","province":"Puno","population":595,"latitude":-15.384268760681152,"longitude":-70.16551971435547},{"name":"Chingarane","country":"Peru","province":"Puno","population":-1,"latitude":-15.764714,"longitude":-70.139526},{"name":"Chincoropata","country":"Peru","province":"Puno","population":-1,"latitude":-15.3,"longitude":-70.2333333},{"name":"Chincheros","country":"Peru","province":"Puno","population":98,"latitude":-15.79102,"longitude":-70.021901},{"name":"Chinchaypujio","country":"Peru","province":"Cusco","population":943,"latitude":-13.629496574401855,"longitude":-72.23297882080078},{"name":"Chinchaybamba","country":"Peru","province":"Cusco","population":126,"latitude":-13.4861111,"longitude":-72.4561111},{"name":"Chillhuane","country":"Peru","province":"Ayacucho","population":-1,"latitude":-15.225275,"longitude":-73.733106},{"name":"Chillca","country":"Peru","province":"Ayacucho","population":-1,"latitude":-14.814458,"longitude":-74.483867},{"name":"Chilhua","country":"Peru","province":"Ayacucho","population":-1,"latitude":-14.905123,"longitude":-74.115088},{"name":"Chilca","country":"Peru","province":"Lima region","population":12884,"latitude":-12.5211111,"longitude":-76.7372222},{"name":"Chigrin","country":"Peru","province":"Pasco","population":-1,"latitude":-10.5833333,"longitude":-76.15},{"name":"Checa Bajo","country":"Peru","province":"Arequipa","population":-1,"latitude":-17.002104,"longitude":-71.580894},{"name":"Chasquitambo","country":"Peru","province":"Ancash","population":-1,"latitude":-10.3,"longitude":-77.6},{"name":"Chasquiocco","country":"Peru","province":"Puno","population":-1,"latitude":-15.381088,"longitude":-69.441398},{"name":"Charcani Grande","country":"Peru","province":"Arequipa","population":7,"latitude":-16.261367,"longitude":-71.447187},{"name":"Hacienda Charamaya","country":"Peru","province":"Puno","population":-1,"latitude":-15.983867,"longitude":-70.512126},{"name":"Chancayllo","country":"Peru","province":"Lima region","population":-1,"latitude":-11.4852778,"longitude":-77.3088889},{"name":"Chañacahua","country":"Peru","province":"Puno","population":-1,"latitude":-15.394398,"longitude":-70.281824},{"name":"Challapatia","country":"Peru","province":"Puno","population":-1,"latitude":-17.010158,"longitude":-69.936402},{"name":"Challahuaya","country":"Peru","province":"Tacna","population":-1,"latitude":-17.401113,"longitude":-70.11014},{"name":"Chalhuanca","country":"Peru","province":"Apurímac","population":-1,"latitude":-14.3005556,"longitude":-73.2308333},{"name":"Chala Viejo","country":"Peru","province":"Arequipa","population":24,"latitude":-15.76867,"longitude":-74.21183},{"name":"Chala","country":"Peru","province":"Arequipa","population":-1,"latitude":-15.8658333,"longitude":-74.2469444},{"name":"Chacra Alta","country":"Peru","province":"Lima region","population":-1,"latitude":-12.024373,"longitude":-76.697288},{"name":"Chaclla","country":"Peru","province":"Lima region","population":-1,"latitude":-11.739543,"longitude":-76.646985},{"name":"Chacarrilla","country":"Peru","province":"Lima region","population":-1,"latitude":-12.0333333,"longitude":-77.0166667},{"name":"Chacarilla","country":"Peru","province":"Callao","population":-1,"latitude":-12.0333333,"longitude":-77.1},{"name":"Cerro Blanco","country":"Peru","province":"Lima region","population":379,"latitude":-10.610765,"longitude":-77.755298},{"name":"Jesjenioc","country":"Peru","province":"Apurímac","population":-1,"latitude":-13.360265,"longitude":-73.791429},{"name":"Ccaqui","country":"Peru","province":"Lima region","population":-1,"latitude":-11.5166667,"longitude":-77.15},{"name":"Ccachiña","country":"Peru","province":"Puno","population":-1,"latitude":-15.45,"longitude":-70.6833333},{"name":"Cavala","country":"Peru","province":"Puno","population":-1,"latitude":-16.1666667,"longitude":-70.0166667},{"name":"Hacienda Caucato Alto","country":"Peru","province":"Ica","population":-1,"latitude":-13.662405,"longitude":-76.177073},{"name":"Ccatca","country":"Peru","province":"Cusco","population":538,"latitude":-13.60506534576416,"longitude":-71.5635986328125},{"name":"Castrovirreyna","country":"Peru","province":"Huancavelica","population":-1,"latitude":-13.2666667,"longitude":-75.3166667},