[
    {
        "name": "Manila",
        "country": "Philippines",
        "province": "National Capital Region",
        "population": 1600000,
        "latitude": 14.6042,
        "longitude": 120.9822
    },
    {
        "name": "Quezon City",
        "country": "Philippines",
        "province": "National Capital Region",
        "population": 2761720,
        "latitude": 14.6488,
        "longitude": 121.0509
    },
    {
        "name": "Caloocan City",
        "country": "Philippines",
        "province": "National Capital Region",
        "population": 1500000,
        "latitude": 14.64953,
        "longitude": 120.96788
    },
    {
        "name": "Budta",
        "country": "Philippines",
        "province": "Autonomous Region in Muslim Mindanao",
        "population": 1273715,
        "latitude": 7.2041667,
        "longitude": 124.4397222
    },
    {
        "name": "Taguig",
        "country": "Philippines",
        "province": "National Capital Region",
        "population": 644473,
        "latitude": 14.5243,
        "longitude": 121.0792
    },
    {
        "name": "Malingao",
        "country": "Philippines",
        "province": "Soccsksargen",
        "population": 1121974,
        "latitude": 7.1608333,
        "longitude": 124.475
    },
    {
        "name": "Davao City",
        "country": "Philippines",
        "province": "Davao",
        "population": 1776949,
        "latitude": 7.0730556,
        "longitude": 125.6127778
    },
    {
        "name": "General Santos",
        "country": "Philippines",
        "province": "Soccsksargen",
        "population": 679588,
        "latitude": 6.1127778,
        "longitude": 125.1716667
    },
    {
        "name": "San Fernando City",
        "country": "Philippines",
        "province": "Central Luzon",
        "population": 251248,
        "latitude": 15.034251,
        "longitude": 120.684446
    },
    {
        "name": "Calamba",
        "country": "Philippines",
        "province": "Calabarzon",
        "population": 539671,
        "latitude": 14.2116667,
        "longitude": 121.1652778
    },
    {
        "name": "Butuan",
        "country": "Philippines",
        "province": "Caraga",
        "population": 309709,
        "latitude": 8.9491667,
        "longitude": 125.5436111
    },
    {
        "name": "Tuguegarao City",
        "country": "Philippines",
        "province": "Cagayan Valley",
        "population": 166334,
        "latitude": 17.615772,
        "longitude": 121.722849
    },
    {
        "name": "Cotabato City",
        "country": "Philippines",
        "province": "Autonomous Region in Muslim Mindanao",
        "population": 325079,
        "latitude": 7.2236111,
        "longitude": 124.2463889
    },
    {
        "name": "Cebu City",
        "country": "Philippines",
        "province": "Central Visayas",
        "population": 964169,
        "latitude": 10.3167216222722,
        "longitude": 123.890708684921
    },
    {
        "name": "Koronadal",
        "country": "Philippines",
        "province": "Soccsksargen",
        "population": 195398,
        "latitude": 6.5030556,
        "longitude": 124.8469444
    },
    {
        "name": "Baguio City",
        "country": "Philippines",
        "province": "Cordillera",
        "population": 272714,
        "latitude": 16.4163889,
        "longitude": 120.5930556
    },
    {
        "name": "Pasig",
        "country": "Philippines",
        "province": "National Capital Region",
        "population": 617301,
        "latitude": 14.586906043687145,
        "longitude": 121.06139659881592
    },
    {
        "name": "Calapan",
        "country": "Philippines",
        "province": "Mimaropa",
        "population": 66008,
        "latitude": 13.4117,
        "longitude": 121.1803
    },
    {
        "name": "Cabanatuan City",
        "country": "Philippines",
        "province": "Central Luzon",
        "population": 327325,
        "latitude": 15.485863,
        "longitude": 120.966476
    },
    {
        "name": "Tacloban City",
        "country": "Philippines",
        "province": "Eastern Visayas",
        "population": 242089,
        "latitude": 11.2433333,
        "longitude": 125.0047222
    },
    {
        "name": "Puerto Princesa City",
        "country": "Philippines",
        "province": "Mimaropa",
        "population": 222673,
        "latitude": 9.7391667,
        "longitude": 118.7352778
    },
    {
        "name": "Cavite City",
        "country": "Philippines",
        "province": "Calabarzon",
        "population": 115932,
        "latitude": 14.48369,
        "longitude": 120.898784
    },
    {
        "name": "Laoag",
        "country": "Philippines",
        "province": "Ilocos",
        "population": 102105,
        "latitude": 18.1978,
        "longitude": 120.5957
    },
    {
        "name": "Dumaguete",
        "country": "Philippines",
        "province": "Central Visayas",
        "population": 113541,
        "latitude": 9.30722,
        "longitude": 123.30261
    },
    {
        "name": "Pagadian",
        "country": "Philippines",
        "province": "Zamboanga Peninsula",
        "population": 186852,
        "latitude": 7.8257,
        "longitude": 123.437
    },
    {
        "name": "Ormoc City",
        "country": "Philippines",
        "province": "Eastern Visayas",
        "population": 191200,
        "latitude": 11.0063889,
        "longitude": 124.6075
    },
    {
        "name": "Naga",
        "country": "Philippines",
        "province": "Bicol",
        "population": 174931,
        "latitude": 13.6191667,
        "longitude": 123.1813889
    },
    {
        "name": "Surigao City",
        "country": "Philippines",
        "province": "Caraga",
        "population": 87832,
        "latitude": 9.789,
        "longitude": 125.495
    },
    {
        "name": "San Pablo City",
        "country": "Philippines",
        "province": "Calabarzon",
        "population": 207577,
        "latitude": 14.0683,
        "longitude": 121.3256
    },
    {
        "name": "San Jose del Monte",
        "country": "Philippines",
        "province": "Central Luzon",
        "population": 357828,
        "latitude": 14.8138889,
        "longitude": 121.0452778
    },
    {
        "name": "San Jose",
        "country": "Philippines",
        "province": "Mimaropa",
        "population": 118807,
        "latitude": 12.352748,
        "longitude": 121.067613
    },
    {
        "name": "San Fernando",
        "country": "Philippines",
        "province": "Ilocos",
        "population": 83003,
        "latitude": 16.6159088641104,
        "longitude": 120.31663030386
    },
    {
        "name": "Cagayan de Oro",
        "country": "Philippines",
        "province": "Northern Mindanao",
        "population": 445103,
        "latitude": 8.4822222,
        "longitude": 124.6472222
    },
    {
        "name": "Biñan",
        "country": "Philippines",
        "province": "Calabarzon",
        "population": 300000,
        "latitude": 14.342671,
        "longitude": 121.080707
    },
    {
        "name": "NIA Valencia",
        "country": "Philippines",
        "province": "Northern Mindanao",
        "population": 83591,
        "latitude": 7.9063889,
        "longitude": 125.0941667
    },
    {
        "name": "Toledo City",
        "country": "Philippines",
        "province": "Central Visayas",
        "population": 207314,
        "latitude": 10.3773,
        "longitude": 123.6386
    },
    {
        "name": "Tanjay",
        "country": "Philippines",
        "province": "Central Visayas",
        "population": 82642,
        "latitude": 9.5162,
        "longitude": 123.158
    },
    {
        "name": "Magugpo Poblacion",
        "country": "Philippines",
        "province": "Davao",
        "population": 233254,
        "latitude": 7.4475,
        "longitude": 125.8046
    },
    {
        "name": "Tagbilaran",
        "country": "Philippines",
        "province": "Central Visayas",
        "population": 86411,
        "latitude": 9.655563,
        "longitude": 123.852187
    },
    {
        "name": "Tagaytay",
        "country": "Philippines",
        "province": "Calabarzon",
        "population": 85330,
        "latitude": 14.095321,
        "longitude": 120.93355
    },
    {
        "name": "Mati",
        "country": "Philippines",
        "province": "Davao",
        "population": 105908,
        "latitude": 6.955081,
        "longitude": 126.216552
    },
    {
        "name": "Marawi City",
        "country": "Philippines",
        "province": "Autonomous Region in Muslim Mindanao",
        "population": 143627,
        "latitude": 8.003404,
        "longitude": 124.283948
    },
    {
        "name": "Mandaluyong City",
        "country": "Philippines",
        "province": "National Capital Region",
        "population": 425758,
        "latitude": 14.5832,
        "longitude": 121.0409
    },
    {
        "name": "Malolos",
        "country": "Philippines",
        "province": "Central Luzon",
        "population": 198748,
        "latitude": 14.844302,
        "longitude": 120.810388
    },
    {
        "name": "Roxas City",
        "country": "Philippines",
        "province": "Western Visayas",
        "population": 102688,
        "latitude": 11.585278,
        "longitude": 122.751111
    },
    {
        "name": "Pulong Santa Cruz",
        "country": "Philippines",
        "province": "Calabarzon",
        "population": 101914,
        "latitude": 14.273238,
        "longitude": 121.076431
    },
    {
        "name": "Paranaque City",
        "country": "Philippines",
        "province": "National Capital Region",
        "population": 689992,
        "latitude": 14.4815556442396,
        "longitude": 121.01749420166
    },
    {
        "name": "Dasmariñas",
        "country": "Philippines",
        "province": "Calabarzon",
        "population": 441876,
        "latitude": 14.3294444,
        "longitude": 120.9366667
    },
    {
        "name": "Dapitan",
        "country": "Philippines",
        "province": "Zamboanga Peninsula",
        "population": 85202,
        "latitude": 8.6561,
        "longitude": 123.4227
    },
    {
        "name": "Dagupan",
        "country": "Philippines",
        "province": "Ilocos",
        "population": 171271,
        "latitude": 16.04313,
        "longitude": 120.33325
    },
    {
        "name": "Lucena City",
        "country": "Philippines",
        "province": "Calabarzon",
        "population": 228758,
        "latitude": 13.9313889,
        "longitude": 121.6172222
    },
    {
        "name": "Lipa City",
        "country": "Philippines",
        "province": "Calabarzon",
        "population": 212287,
        "latitude": 13.9411,
        "longitude": 121.1631
    },
    {
        "name": "Las Piñas",
        "country": "Philippines",
        "province": "National Capital Region",
        "population": 590000,
        "latitude": 14.4505556,
        "longitude": 120.9827778
    },
    {
        "name": "Lapu-Lapu City",
        "country": "Philippines",
        "province": "Central Visayas",
        "population": 350467,
        "latitude": 10.3102778,
        "longitude": 123.9494444
    },
    {
        "name": "Kalibo Town",
        "country": "Philippines",
        "province": "Western Visayas",
        "population": 89127,
        "latitude": 11.7061111,
        "longitude": 122.3644444
    },
    {
        "name": "Jolo",
        "country": "Philippines",
        "province": "Autonomous Region in Muslim Mindanao",
        "population": 101002,
        "latitude": 6.0522222,
        "longitude": 121.0022222
    },
    {
        "name": "Iriga City",
        "country": "Philippines",
        "province": "Bicol",
        "population": 114457,
        "latitude": 13.4324,
        "longitude": 123.4115
    },
    {
        "name": "Iloilo City",
        "country": "Philippines",
        "province": "Western Visayas",
        "population": 387681,
        "latitude": 10.6969444,
        "longitude": 122.5644444
    },
    {
        "name": "Iligan",
        "country": "Philippines",
        "province": "Northern Mindanao",
        "population": 342618,
        "latitude": 8.2289,
        "longitude": 124.24344
    },
    {
        "name": "Hagonoy",
        "country": "Philippines",
        "province": "Central Luzon",
        "population": 123531,
        "latitude": 14.834134,
        "longitude": 120.732708
    },
    {
        "name": "Dipolog City",
        "country": "Philippines",
        "province": "Zamboanga Peninsula",
        "population": 93549,
        "latitude": 8.56697,
        "longitude": 123.33471
    },
    {
        "name": "Ozamiz",
        "country": "Philippines",
        "province": "Northern Mindanao",
        "population": 93082,
        "latitude": 8.1481,
        "longitude": 123.8405
    },
    {
        "name": "Olongapo City",
        "country": "Philippines",
        "province": "Central Luzon",
        "population": 221178,
        "latitude": 14.8291667,
        "longitude": 120.2827778
    },
    {
        "name": "Norzagaray",
        "country": "Philippines",
        "province": "Central Luzon",
        "population": 79508,
        "latitude": 14.9109,
        "longitude": 121.0493
    },
    {
        "name": "Rodriguez",
        "country": "Philippines",
        "province": "Calabarzon",
        "population": 134432,
        "latitude": 14.76011,
        "longitude": 121.19993
    },
    {
        "name": "Zamboanga City",
        "country": "Philippines",
        "province": "Zamboanga Peninsula",
        "population": 457623,
        "latitude": 6.9102778,
        "longitude": 122.0738889
    },
    {
        "name": "Bayawan",
        "country": "Philippines",
        "province": "Central Visayas",
        "population": 122747,
        "latitude": 9.3649,
        "longitude": 122.804
    },
    {
        "name": "Bago City",
        "country": "Philippines",
        "province": "Western Visayas",
        "population": 191210,
        "latitude": 10.5333333,
        "longitude": 122.8333333
    },
    {
        "name": "Bacolod City",
        "country": "Philippines",
        "province": "Western Visayas",
        "population": 454898,
        "latitude": 10.6666667,
        "longitude": 122.95
    },
    {
        "name": "Antipolo City",
        "country": "Philippines",
        "province": "Calabarzon",
        "population": 549543,
        "latitude": 14.62578,
        "longitude": 121.12251
    },
    {
        "name": "Angeles City",
        "country": "Philippines",
        "province": "Central Luzon",
        "population": 299391,
        "latitude": 15.15,
        "longitude": 120.5833333
    },
    {
        "name": "Bagong Silangan",
        "country": "Philippines",
        "province": "National Capital Region",
        "population": 106886,
        "latitude": 14.706,
        "longitude": 121.108
    },
    {
        "name": "Tabaco",
        "country": "Philippines",
        "province": "Bicol",
        "population": 57860,
        "latitude": 13.3586111,
        "longitude": 123.7336111
    },
    {
        "name": "Sorsogon",
        "country": "Philippines",
        "province": "Bicol",
        "population": 82730,
        "latitude": 12.9738889,
        "longitude": 123.9933333
    },
    {
        "name": "Santa Rosa",
        "country": "Philippines",
        "province": "Calabarzon",
        "population": 216650,
        "latitude": 14.3122222,
        "longitude": 121.1113889
    },
    {
        "name": "Santa Cruz",
        "country": "Philippines",
        "province": "National Capital Region",
        "population": 126735,
        "latitude": 14.6,
        "longitude": 120.9833333
    },
    {
        "name": "San Pedro",
        "country": "Philippines",
        "province": "Calabarzon",
        "population": 270216,
        "latitude": 14.3595,
        "longitude": 121.0473
    },
    {
        "name": "San Juan",
        "country": "Philippines",
        "province": "National Capital Region",
        "population": 121430,
        "latitude": 14.6,
        "longitude": 121.0333
    },
    {
        "name": "Calumpit",
        "country": "Philippines",
        "province": "Central Luzon",
        "population": 91815,
        "latitude": 14.9163889,
        "longitude": 120.7658333
    },
    {
        "name": "Calbayog City",
        "country": "Philippines",
        "province": "Eastern Visayas",
        "population": 67921,
        "latitude": 12.0668,
        "longitude": 124.5962
    },
    {
        "name": "Cadiz",
        "country": "Philippines",
        "province": "Western Visayas",
        "population": 129053,
        "latitude": 10.9465,
        "longitude": 123.288
    },
    {
        "name": "Cabuyao",
        "country": "Philippines",
        "province": "Calabarzon",
        "population": 308745,
        "latitude": 14.2726,
        "longitude": 121.1262
    },
    {
        "name": "Bulaon",
        "country": "Philippines",
        "province": "Central Luzon",
        "population": 131818,
        "latitude": 15.082618,
        "longitude": 120.662881
    },
    {
        "name": "Buenavista",
        "country": "Philippines",
        "province": "Caraga",
        "population": 68892,
        "latitude": 8.9769444,
        "longitude": 125.4088889
    },
    {
        "name": "Bislig",
        "country": "Philippines",
        "province": "Caraga",
        "population": 67567,
        "latitude": 8.2152778,
        "longitude": 126.3163889
    },
    {
        "name": "Binangonan",
        "country": "Philippines",
        "province": "Calabarzon",
        "population": 219204,
        "latitude": 14.4646,
        "longitude": 121.1929
    },
    {
        "name": "Vigan",
        "country": "Philippines",
        "province": "Ilocos",
        "population": 48545,
        "latitude": 17.5747222,
        "longitude": 120.3869444
    },
    {
        "name": "Victorias City",
        "country": "Philippines",
        "province": "Western Visayas",
        "population": 86510,
        "latitude": 10.901537,
        "longitude": 123.070504
    },
    {
        "name": "Urdaneta",
        "country": "Philippines",
        "province": "Ilocos",
        "population": 101037,
        "latitude": 15.9761111,
        "longitude": 120.5711111
    },
    {
        "name": "Tarlac City",
        "country": "Philippines",
        "province": "Central Luzon",
        "population": 183930,
        "latitude": 15.480169,
        "longitude": 120.59794
    },
    {
        "name": "Talisay",
        "country": "Philippines",
        "province": "Western Visayas",
        "population": 65265,
        "latitude": 10.7375,
        "longitude": 122.9666
    },
    {
        "name": "Talisay City",
        "country": "Philippines",
        "province": "Central Visayas",
        "population": 133148,
        "latitude": 10.2447222,
        "longitude": 123.8494444
    },
    {
        "name": "Tacurong",
        "country": "Philippines",
        "province": "Soccsksargen",
        "population": 54648,
        "latitude": 6.6925,
        "longitude": 124.6763889
    },
    {
        "name": "Tabuk",
        "country": "Philippines",
        "province": "Cordillera",
        "population": 27048,
        "latitude": 17.473778,
        "longitude": 121.46799
    },
    {
        "name": "Mariveles",
        "country": "Philippines",
        "province": "Central Luzon",
        "population": 84567,
        "latitude": 14.43385,
        "longitude": 120.48569
    },
    {
        "name": "Mangaldan",
        "country": "Philippines",
        "province": "Ilocos",
        "population": 88818,
        "latitude": 16.07,
        "longitude": 120.4025
    },
    {
        "name": "Mandaue City",
        "country": "Philippines",
        "province": "Central Visayas",
        "population": 331320,
        "latitude": 10.3236111,
        "longitude": 123.9222222
    },
    {
        "name": "Malaybalay",
        "country": "Philippines",
        "province": "Northern Mindanao",
        "population": 61524,
        "latitude": 8.1575,
        "longitude": 125.127778
    },
    {
        "name": "Makati City",
        "country": "Philippines",
        "province": "National Capital Region",
        "population": 510383,
        "latitude": 14.550271736517931,
        "longitude": 121.03268623352051
    },
    {
        "name": "Magalang",
        "country": "Philippines",
        "province": "Central Luzon",
        "population": 68988,
        "latitude": 15.2151,
        "longitude": 120.6596
    },
    {
        "name": "Mabalacat",
        "country": "Philippines",
        "province": "Central Luzon",
        "population": 188050,
        "latitude": 15.22303,
        "longitude": 120.57117
    },
    {
        "name": "Pulilan",
        "country": "Philippines",
        "province": "Central Luzon",
        "population": 77186,
        "latitude": 14.9016667,
        "longitude": 120.8491667
    },
    {
        "name": "Polangui",
        "country": "Philippines",
        "province": "Bicol",
        "population": 77122,
        "latitude": 13.2923,
        "longitude": 123.4855
    },
    {
        "name": "Pasay",
        "country": "Philippines",
        "province": "National Capital Region",
        "population": 416522,
        "latitude": 14.53748,
        "longitude": 121.00144
    },
    {
        "name": "Daet",
        "country": "Philippines",
        "province": "Bicol",
        "population": 78142,
        "latitude": 14.1122,
        "longitude": 122.9553
    },
    {
        "name": "Catbalogan",
        "country": "Philippines",
        "province": "Eastern Visayas",
        "population": 68081,
        "latitude": 11.7752778,
        "longitude": 124.8861111
    },
    {
        "name": "Cogan",
        "country": "Philippines",
        "province": "Central Visayas",
        "population": 57897,
        "latitude": 10.593056,
        "longitude": 124.017778
    },
    {
        "name": "Capas",
        "country": "Philippines",
        "province": "Central Luzon",
        "population": 72070,
        "latitude": 15.331167,
        "longitude": 120.589803
    },
    {
        "name": "Los Baños",
        "country": "Philippines",
        "province": "Calabarzon",
        "population": 95750,
        "latitude": 14.17025,
        "longitude": 121.24181
    },
    {
        "name": "Legazpi",
        "country": "Philippines",
        "province": "Bicol",
        "population": 179481,
        "latitude": 13.14125,
        "longitude": 123.74073
    },
    {
        "name": "La Carlota",
        "country": "Philippines",
        "province": "Western Visayas",
        "population": 41157,
        "latitude": 10.4242,
        "longitude": 122.9212
    },
    {
        "name": "Kidapawan",
        "country": "Philippines",
        "province": "Soccsksargen",
        "population": 79652,
        "latitude": 7.0083333,
        "longitude": 125.0894444
    },
    {
        "name": "Kabankalan",
        "country": "Philippines",
        "province": "Western Visayas",
        "population": 136483,
        "latitude": 9.9839,
        "longitude": 122.81423
    },
    {
        "name": "Isabela",
        "country": "Philippines",
        "province": "Autonomous Region in Muslim Mindanao",
        "population": 67336,
        "latitude": 6.704071,
        "longitude": 121.971171
    },
    {
        "name": "Imus",
        "country": "Philippines",
        "province": "Calabarzon",
        "population": 216099,
        "latitude": 14.4297222,
        "longitude": 120.9366667
    },
    {
        "name": "Iligan City",
        "country": "Philippines",
        "province": "Soccsksargen",
        "population": 312323,
        "latitude": 8.25,
        "longitude": 124.4
    },
    {
        "name": "Guyong",
        "country": "Philippines",
        "province": "Central Luzon",
        "population": 155391,
        "latitude": 14.836102,
        "longitude": 120.978439
    },
    {
        "name": "Guiguinto",
        "country": "Philippines",
        "province": "Central Luzon",
        "population": 76613,
        "latitude": 14.8333333,
        "longitude": 120.8833333
    },
    {
        "name": "Gapan",
        "country": "Philippines",
        "province": "Central Luzon",
        "population": 79064,
        "latitude": 15.3072,
        "longitude": 120.9464
    },
    {
        "name": "Dinalupihan",
        "country": "Philippines",
        "province": "Central Luzon",
        "population": 66670,
        "latitude": 14.87827,
        "longitude": 120.45221
    },
    {
        "name": "Digos",
        "country": "Philippines",
        "province": "Davao",
        "population": 116122,
        "latitude": 6.7497222,
        "longitude": 125.3572222
    },
    {
        "name": "Panabo",
        "country": "Philippines",
        "province": "Davao",
        "population": 84749,
        "latitude": 7.3080556,
        "longitude": 125.6841667
    },
    {
        "name": "Paco",
        "country": "Philippines",
        "province": "National Capital Region",
        "population": 79839,
        "latitude": 14.5833333,
        "longitude": 120.9833333
    },
    {
        "name": "Navotas",
        "country": "Philippines",
        "province": "National Capital Region",
        "population": 249463,
        "latitude": 14.6666667,
        "longitude": 120.95
    },
    {
        "name": "Muricay",
        "country": "Philippines",
        "province": "Zamboanga Peninsula",
        "population": 132094,
        "latitude": 7.8275,
        "longitude": 123.4782
    },
    {
        "name": "Meycauayan",
        "country": "Philippines",
        "province": "Central Luzon",
        "population": 184839,
        "latitude": 14.7369444,
        "longitude": 120.9608333
    },
    {
        "name": "Batangas",
        "country": "Philippines",
        "province": "Calabarzon",
        "population": 237370,
        "latitude": 13.7567,
        "longitude": 121.0584
    },
    {
        "name": "Batac City",
        "country": "Philippines",
        "province": "Ilocos",
        "population": 55484,
        "latitude": 18.0553964886205,
        "longitude": 120.564887523651
    },
    {
        "name": "Baliuag",
        "country": "Philippines",
        "province": "Central Luzon",
        "population": 135679,
        "latitude": 14.9547222,
        "longitude": 120.8969444
    },
    {
        "name": "Bais City",
        "country": "Philippines",
        "province": "Central Visayas",
        "population": 65594,
        "latitude": 9.591111,
        "longitude": 123.122778
    },
    {
        "name": "Bacoor",
        "country": "Philippines",
        "province": "Calabarzon",
        "population": 356974,
        "latitude": 14.45896,
        "longitude": 120.93851
    },
    {
        "name": "Arayat",
        "country": "Philippines",
        "province": "Central Luzon",
        "population": 87987,
        "latitude": 15.1505,
        "longitude": 120.7697
    },
    {
        "name": "Apalit",
        "country": "Philippines",
        "province": "Central Luzon",
        "population": 77418,
        "latitude": 14.9533333,
        "longitude": 120.77
    },
    {
        "name": "Angono",
        "country": "Philippines",
        "province": "Calabarzon",
        "population": 87199,
        "latitude": 14.5266,
        "longitude": 121.1536
    },
    {
        "name": "Pandan",
        "country": "Philippines",
        "province": "Western Visayas",
        "population": 35965,
        "latitude": 11.744794053889125,
        "longitude": 122.10026979446411
    },
    {
        "name": "Bagong Pagasa",
        "country": "Philippines",
        "province": "Calabarzon",
        "population": 46365,
        "latitude": 14.6627,
        "longitude": 121.0328
    },
    {
        "name": "Taal",
        "country": "Philippines",
        "province": "Calabarzon",
        "population": 39745,
        "latitude": 13.879923,
        "longitude": 120.923114
    },
    {
        "name": "Surallah",
        "country": "Philippines",
        "province": "Soccsksargen",
        "population": 31089,
        "latitude": 6.375267867991741,
        "longitude": 124.74520683288574
    },
    {
        "name": "Sum-Ag",
        "country": "Philippines",
        "province": "Western Visayas",
        "population": 18752,
        "latitude": 10.601389017193798,
        "longitude": 122.91924476623535
    },
    {
        "name": "Solana",
        "country": "Philippines",
        "province": "Cagayan Valley",
        "population": 71475,
        "latitude": 17.6528,
        "longitude": 121.691
    },
    {
        "name": "Sitangkai",
        "country": "Philippines",
        "province": "Autonomous Region in Muslim Mindanao",
        "population": 17200,
        "latitude": 4.661154,
        "longitude": 119.396474
    },
    {
        "name": "Silang",
        "country": "Philippines",
        "province": "Calabarzon",
        "population": 119475,
        "latitude": 14.215669,
        "longitude": 120.971374
    },
    {
        "name": "Sibulan",
        "country": "Philippines",
        "province": "Central Visayas",
        "population": 28079,
        "latitude": 9.3584,
        "longitude": 123.285
    },
    {
        "name": "Siasi",
        "country": "Philippines",
        "province": "Autonomous Region in Muslim Mindanao",
        "population": 12566,
        "latitude": 5.5462,
        "longitude": 120.8145
    },
    {
        "name": "Santo Tomas",
        "country": "Philippines",
        "province": "Calabarzon",
        "population": 57438,
        "latitude": 14.107897,
        "longitude": 121.141359
    },
    {
        "name": "Santol",
        "country": "Philippines",
        "province": "Central Luzon",
        "population": 298976,
        "latitude": 15.1622222,
        "longitude": 120.5675
    },
    {
        "name": "Santiago",
        "country": "Philippines",
        "province": "Cagayan Valley",
        "population": 108414,
        "latitude": 16.68808,
        "longitude": 121.5487
    },
    {
        "name": "Santa Cruz",
        "country": "Philippines",
        "province": "Central Luzon",
        "population": 26429,
        "latitude": 15.7654,
        "longitude": 119.9092
    },
    {
        "name": "Santa Cruz",
        "country": "Philippines",
        "province": "Calabarzon",
        "population": 108145,
        "latitude": 14.2814,
        "longitude": 121.4161
    },
    {
        "name": "Santa Catalina",
        "country": "Philippines",
        "province": "Central Visayas",
        "population": 26457,
        "latitude": 9.3337,
        "longitude": 122.8637
    },
    {
        "name": "Santa Ana",
        "country": "Philippines",
        "province": "Central Luzon",
        "population": 47158,
        "latitude": 15.0955,
        "longitude": 120.767
    },
    {
        "name": "San Simon",
        "country": "Philippines",
        "province": "Central Luzon",
        "population": 29049,
        "latitude": 14.9996,
        "longitude": 120.7808
    },
    {
        "name": "San Miguel",
        "country": "Philippines",
        "province": "Central Luzon",
        "population": 18582,
        "latitude": 15.443973,
        "longitude": 120.599232
    },
    {
        "name": "San Miguel",
        "country": "Philippines",
        "province": "Central Luzon",
        "population": 65661,
        "latitude": 15.142302,
        "longitude": 120.975685
    },
    {
        "name": "San Mateo",
        "country": "Philippines",
        "province": "Calabarzon",
        "population": 134327,
        "latitude": 14.6982,
        "longitude": 121.1236
    },
    {
        "name": "San Mariano",
        "country": "Philippines",
        "province": "Cagayan Valley",
        "population": 12441,
        "latitude": 16.982648,
        "longitude": 122.014042
    },
    {
        "name": "San Marcelino",
        "country": "Philippines",
        "province": "Central Luzon",
        "population": 18721,
        "latitude": 14.974184,
        "longitude": 120.157329
    },
    {
        "name": "San Leonardo",
        "country": "Philippines",
        "province": "Central Luzon",
        "population": 34743,
        "latitude": 15.363,
        "longitude": 120.9639
    },
    {
        "name": "San Jose",
        "country": "Philippines",
        "province": "Bicol",
        "population": 35768,
        "latitude": 13.35,
        "longitude": 123.55
    },
    {
        "name": "San Antonio",
        "country": "Philippines",
        "province": "Central Luzon",
        "population": 26247,
        "latitude": 15.3062,
        "longitude": 120.856
    },
    {
        "name": "San Antonio",
        "country": "Philippines",
        "province": "Central Luzon",
        "population": 34217,
        "latitude": 14.946586,
        "longitude": 120.086729
    },
    {
        "name": "Calumpang",
        "country": "Philippines",
        "province": "National Capital Region",
        "population": 15602,
        "latitude": 14.6228,
        "longitude": 121.0897
    },
    {
        "name": "San Isidro",
        "country": "Philippines",
        "province": "Central Luzon",
        "population": 4121,
        "latitude": 15.442496,
        "longitude": 120.725651
    },
    {
        "name": "Calubcub Dos",
        "country": "Philippines",
        "province": "Calabarzon",
        "population": 5019,
        "latitude": 13.7393,
        "longitude": 121.42193
    },
    {
        "name": "Calauan",
        "country": "Philippines",
        "province": "Calabarzon",
        "population": 36580,
        "latitude": 14.14989,
        "longitude": 121.3152
    },
    {
        "name": "Calauag",
        "country": "Philippines",
        "province": "Calabarzon",
        "population": 20837,
        "latitude": 13.9575,
        "longitude": 122.288
    },
    {
        "name": "Calabanga",
        "country": "Philippines",
        "province": "Bicol",
        "population": 26798,
        "latitude": 13.7068,
        "longitude": 123.2087
    },
    {
        "name": "Cainta",
        "country": "Philippines",
        "province": "Calabarzon",
        "population": 283172,
        "latitude": 14.5786,
        "longitude": 121.1222
    },
    {
        "name": "Cagayan",
        "country": "Philippines",
        "province": "Mimaropa",
        "population": 3847,
        "latitude": 6.9747,
        "longitude": 118.5144
    },
    {
        "name": "Cabadbaran",
        "country": "Philippines",
        "province": "Caraga",
        "population": 31114,
        "latitude": 9.12261,
        "longitude": 125.53549
    },
    {
        "name": "Butubut Norte",
        "country": "Philippines",
        "province": "Ilocos",
        "population": 3193,
        "latitude": 16.8034,
        "longitude": 120.4344
    },
    {
        "name": "Bustos",
        "country": "Philippines",
        "province": "Central Luzon",
        "population": 42139,
        "latitude": 14.9580556,
        "longitude": 120.9177778
    },
    {
        "name": "Buluan",
        "country": "Philippines",
        "province": "Autonomous Region in Muslim Mindanao",
        "population": 28025,
        "latitude": 6.7202778,
        "longitude": 124.8019444
    },
    {
        "name": "Bulan",
        "country": "Philippines",
        "province": "Bicol",
        "population": 28529,
        "latitude": 12.6713889,
        "longitude": 123.875
    },
    {
        "name": "Bulacan",
        "country": "Philippines",
        "province": "Central Luzon",
        "population": 71274,
        "latitude": 14.7927778,
        "longitude": 120.8788889
    },
    {
        "name": "Buayan",
        "country": "Philippines",
        "province": "Soccsksargen",
        "population": 14607,
        "latitude": 6.1163889,
        "longitude": 125.2347222
    },
    {
        "name": "Botolan",
        "country": "Philippines",
        "province": "Central Luzon",
        "population": 22994,
        "latitude": 15.2896,
        "longitude": 120.0245
    },
    {
        "name": "Bongao",
        "country": "Philippines",
        "province": "Autonomous Region in Muslim Mindanao",
        "population": 26518,
        "latitude": 5.0291667,
        "longitude": 119.7730556
    },
    {
        "name": "Bongabon",
        "country": "Philippines",
        "province": "Central Luzon",
        "population": 36168,
        "latitude": 15.6321,
        "longitude": 121.1448
    },
    {
        "name": "Bocaue",
        "country": "Philippines",
        "province": "Central Luzon",
        "population": 98649,
        "latitude": 14.7983333,
        "longitude": 120.9261111
    },
    {
        "name": "Binonga",
        "country": "Philippines",
        "province": "Western Visayas",
        "population": 83980,
        "latitude": 10.7719,
        "longitude": 122.9817
    },
    {
        "name": "Biga",
        "country": "Philippines",
        "province": "Calabarzon",
        "population": 3096,
        "latitude": 13.904012,
        "longitude": 120.648754
    },
    {
        "name": "Ualog",
        "country": "Philippines",
        "province": "Western Visayas",
        "population": 60548,
        "latitude": 10.573958,
        "longitude": 123.393302
    },
    {
        "name": "Tubigagmanoc",
        "country": "Philippines",
        "province": "Central Visayas",
        "population": 3866,
        "latitude": 10.6282,
        "longitude": 123.7489
    },
    {
        "name": "Tinongan",
        "country": "Philippines",
        "province": "Western Visayas",
        "population": 62146,
        "latitude": 10.215,
        "longitude": 123.035278
    },
    {
        "name": "Tigui",
        "country": "Philippines",
        "province": "Mimaropa",
        "population": 2543,
        "latitude": 13.2681,
        "longitude": 122.0415
    },
    {
        "name": "Taytay",
        "country": "Philippines",
        "province": "Calabarzon",
        "population": 231460,
        "latitude": 14.55883,
        "longitude": 121.13285
    },
    {
        "name": "Tayabas",
        "country": "Philippines",
        "province": "Calabarzon",
        "population": 37330,
        "latitude": 14.0259,
        "longitude": 121.5929
    },
    {
        "name": "Tanza",
        "country": "Philippines",
        "province": "National Capital Region",
        "population": 105510,
        "latitude": 14.6753,
        "longitude": 120.9389
    },
    {
        "name": "Tangub",
        "country": "Philippines",
        "province": "Northern Mindanao",
        "population": 29721,
        "latitude": 8.0618,
        "longitude": 123.7477
    },
    {
        "name": "Tandag",
        "country": "Philippines",
        "province": "Caraga",
        "population": 29011,
        "latitude": 9.078333,
        "longitude": 126.198611
    },
    {
        "name": "Tanay",
        "country": "Philippines",
        "province": "Calabarzon",
        "population": 59950,
        "latitude": 14.4968,
        "longitude": 121.2846
    },
    {
        "name": "Tanauan",
        "country": "Philippines",
        "province": "Calabarzon",
        "population": 68456,
        "latitude": 14.086266,
        "longitude": 121.149751
    },
    {
        "name": "Talugtug",
        "country": "Philippines",
        "province": "Central Luzon",
        "population": 6307,
        "latitude": 15.7778,
        "longitude": 120.8111
    },
    {
        "name": "Talavera",
        "country": "Philippines",
        "province": "Central Luzon",
        "population": 64610,
        "latitude": 15.5883,
        "longitude": 120.9192
    },
    {
        "name": "Masinloc",
        "country": "Philippines",
        "province": "Central Luzon",
        "population": 28041,
        "latitude": 15.5363,
        "longitude": 119.9502
    },
    {
        "name": "Marilao",
        "country": "Philippines",
        "province": "Central Luzon",
        "population": 83276,
        "latitude": 14.7577778,
        "longitude": 120.9483333
    },
    {
        "name": "Mariano",
        "country": "Philippines",
        "province": "Northern Mindanao",
        "population": 70516,
        "latitude": 8.833333,
        "longitude": 125.116667
    },
    {
        "name": "Maramag",
        "country": "Philippines",
        "province": "Northern Mindanao",
        "population": 33844,
        "latitude": 7.7633333,
        "longitude": 125.0052778
    },
    {
        "name": "Manukan",
        "country": "Philippines",
        "province": "Zamboanga Peninsula",
        "population": 11523,
        "latitude": 8.5333333,
        "longitude": 123.1
    },
    {
        "name": "Mantampay",
        "country": "Philippines",
        "province": "Northern Mindanao",
        "population": 265032,
        "latitude": 8.1666667,
        "longitude": 124.2166667
    },
    {
        "name": "Mansilingan",
        "country": "Philippines",
        "province": "Western Visayas",
        "population": 454150,
        "latitude": 10.6311111,
        "longitude": 122.9788889
    },
    {
        "name": "Manolo Fortich",
        "country": "Philippines",
        "province": "Northern Mindanao",
        "population": 27064,
        "latitude": 8.3697222,
        "longitude": 124.8644444
    },
    {
        "name": "Manay",
        "country": "Philippines",
        "province": "Davao",
        "population": 20336,
        "latitude": 7.215,
        "longitude": 126.5397222
    },
    {
        "name": "Mamatid",
        "country": "Philippines",
        "province": "Calabarzon",
        "population": 40271,
        "latitude": 14.234896,
        "longitude": 121.159016
    },
    {
        "name": "Malvar",
        "country": "Philippines",
        "province": "Calabarzon",
        "population": 29880,
        "latitude": 14.0447222,
        "longitude": 121.1586111
    },
    {
        "name": "Maluso",
        "country": "Philippines",
        "province": "Autonomous Region in Muslim Mindanao",
        "population": 31374,
        "latitude": 6.543,
        "longitude": 121.8753
    },
    {
        "name": "Maluñgun",
        "country": "Philippines",
        "province": "Soccsksargen",
        "population": 52248,
        "latitude": 6.279167,
        "longitude": 125.281667
    },
    {
        "name": "Malita",
        "country": "Philippines",
        "province": "Davao",
        "population": 41114,
        "latitude": 6.415,
        "longitude": 125.611667
    },
    {
        "name": "Malilipot",
        "country": "Philippines",
        "province": "Bicol",
        "population": 33593,
        "latitude": 13.3188,
        "longitude": 123.7385
    },
    {
        "name": "Malapatan",
        "country": "Philippines",
        "province": "Soccsksargen",
        "population": 19439,
        "latitude": 5.969167,
        "longitude": 125.289444
    },
    {
        "name": "Malanday",
        "country": "Philippines",
        "province": "Central Luzon",
        "population": 19060,
        "latitude": 14.7169444,
        "longitude": 120.9580556
    },
    {
        "name": "Maao",
        "country": "Philippines",
        "province": "Western Visayas",
        "population": 25837,
        "latitude": 10.4896,
        "longitude": 122.9907
    },
    {
        "name": "Lupon",
        "country": "Philippines",
        "province": "Davao",
        "population": 27247,
        "latitude": 6.898143,
        "longitude": 126.009614
    },
    {
        "name": "Lun Pequeño",
        "country": "Philippines",
        "province": "Soccsksargen",
        "population": 11541,
        "latitude": 6.037778,
        "longitude": 125.283889
    },
    {
        "name": "Lumbang",
        "country": "Philippines",
        "province": "Calabarzon",
        "population": 30269,
        "latitude": 14.2973,
        "longitude": 121.4598
    },
    {
        "name": "Samal",
        "country": "Philippines",
        "province": "Central Luzon",
        "population": 29729,
        "latitude": 14.7677778,
        "longitude": 120.5430556
    },
    {
        "name": "Samal",
        "country": "Philippines",
        "province": "Davao",
        "population": 43526,
        "latitude": 7.0744444,
        "longitude": 125.7083333
    },
    {
        "name": "Sagay",
        "country": "Philippines",
        "province": "Western Visayas",
        "population": 72153,
        "latitude": 10.9447222,
        "longitude": 123.4241667
    },
    {
        "name": "Sablayan",
        "country": "Philippines",
        "province": "Mimaropa",
        "population": 38383,
        "latitude": 12.8346,
        "longitude": 120.769
    },
    {
        "name": "Rizal",
        "country": "Philippines",
        "province": "Central Luzon",
        "population": 26201,
        "latitude": 15.7118,
        "longitude": 121.1061
    },
    {
        "name": "Quiapo District",
        "country": "Philippines",
        "province": "National Capital Region",
        "population": 23138,
        "latitude": 14.6,
        "longitude": 120.9833
    },
    {
        "name": "Quezon",
        "country": "Philippines",
        "province": "Northern Mindanao",
        "population": 27212,
        "latitude": 7.7302778,
        "longitude": 125.0988889
    },
    {
        "name": "Pulo",
        "country": "Philippines",
        "province": "Central Luzon",
        "population": 10776,
        "latitude": 15.246,
        "longitude": 120.9285
    },
    {
        "name": "President Roxas",
        "country": "Philippines",
        "province": "Soccsksargen",
        "population": 10879,
        "latitude": 7.1544444,
        "longitude": 125.0558333
    },
    {
        "name": "Port Area",
        "country": "Philippines",
        "province": "National Capital Region",
        "population": 72605,
        "latitude": 14.58945,
        "longitude": 120.96698
    },
    {
        "name": "Polomolok",
        "country": "Philippines",
        "province": "Soccsksargen",
        "population": 63987,
        "latitude": 6.221666,
        "longitude": 125.063982
    },
    {
        "name": "Plaridel",
        "country": "Philippines",
        "province": "Central Luzon",
        "population": 70781,
        "latitude": 14.8872222,
        "longitude": 120.8572222
    },
    {
        "name": "Pio",
        "country": "Philippines",
        "province": "Central Luzon",
        "population": 24345,
        "latitude": 15.047409,
        "longitude": 120.518909
    },
    {
        "name": "Pinamungahan",
        "country": "Philippines",
        "province": "Central Visayas",
        "population": 23068,
        "latitude": 10.2708,
        "longitude": 123.5839
    },
    {
        "name": "Patuto",
        "country": "Philippines",
        "province": "Calabarzon",
        "population": 52883,
        "latitude": 14.116667,
        "longitude": 120.966667
    },
    {
        "name": "Papaya",
        "country": "Philippines",
        "province": "Central Luzon",
        "population": 38640,
        "latitude": 15.32016,
        "longitude": 120.835737
    },
    {
        "name": "Paombong",
        "country": "Philippines",
        "province": "Central Luzon",
        "population": 41384,
        "latitude": 14.8311111,
        "longitude": 120.7891667
    },
    {
        "name": "Pantubig",
        "country": "Philippines",
        "province": "Central Luzon",
        "population": 39285,
        "latitude": 14.9680556,
        "longitude": 120.9547222
    },
    {
        "name": "Paniqui",
        "country": "Philippines",
        "province": "Central Luzon",
        "population": 48261,
        "latitude": 15.6689,
        "longitude": 120.5806
    },
    {
        "name": "Pandi",
        "country": "Philippines",
        "province": "Central Luzon",
        "population": 34927,
        "latitude": 14.865,
        "longitude": 120.9572222
    },
    {
        "name": "Danao",
        "country": "Philippines",
        "province": "Central Visayas",
        "population": 70270,
        "latitude": 10.520833,
        "longitude": 124.027222
    },
    {
        "name": "Danao",
        "country": "Philippines",
        "province": "Central Visayas",
        "population": 20245,
        "latitude": 9.554213,
        "longitude": 123.756479
    },
    {
        "name": "Cordova",
        "country": "Philippines",
        "province": "Central Visayas",
        "population": 29289,
        "latitude": 10.24394,
        "longitude": 123.94222
    },
    {
        "name": "Concepcion",
        "country": "Philippines",
        "province": "Central Luzon",
        "population": 64402,
        "latitude": 15.325459,
        "longitude": 120.657231
    },
    {
        "name": "Concepcion Ibaba",
        "country": "Philippines",
        "province": "Calabarzon",
        "population": 25628,
        "latitude": 13.92309,
        "longitude": 121.460988
    },
    {
        "name": "Cawayan Bugtong",
        "country": "Philippines",
        "province": "Central Luzon",
        "population": 3605,
        "latitude": 15.633622,
        "longitude": 120.776947
    },
    {
        "name": "Caticlan",
        "country": "Philippines",
        "province": "Western Visayas",
        "population": 4223,
        "latitude": 11.933372,
        "longitude": 121.95981
    },
    {
        "name": "Catarman",
        "country": "Philippines",
        "province": "Eastern Visayas",
        "population": 47449,
        "latitude": 12.4989,
        "longitude": 124.6377
    },
    {
        "name": "Catanauan",
        "country": "Philippines",
        "province": "Calabarzon",
        "population": 26804,
        "latitude": 13.5926,
        "longitude": 122.3215
    },
    {
        "name": "Carmona",
        "country": "Philippines",
        "province": "Calabarzon",
        "population": 55887,
        "latitude": 14.3132,
        "longitude": 121.0576
    },
    {
        "name": "Cardona",
        "country": "Philippines",
        "province": "Calabarzon",
        "population": 30222,
        "latitude": 14.48646,
        "longitude": 121.22752
    },
    {
        "name": "Candelaria",
        "country": "Philippines",
        "province": "Calabarzon",
        "population": 60881,
        "latitude": 13.931111,
        "longitude": 121.423333
    },
    {
        "name": "Lubao",
        "country": "Philippines",
        "province": "Central Luzon",
        "population": 55645,
        "latitude": 14.9405,
        "longitude": 120.6011
    },
    {
        "name": "Limay",
        "country": "Philippines",
        "province": "Central Luzon",
        "population": 52824,
        "latitude": 14.5619444,
        "longitude": 120.5983333
    },
    {
        "name": "Libertad",
        "country": "Philippines",
        "province": "Caraga",
        "population": 250353,
        "latitude": 8.9441667,
        "longitude": 125.5019444
    },
    {
        "name": "La Trinidad",
        "country": "Philippines",
        "province": "Cordillera",
        "population": 41258,
        "latitude": 16.455,
        "longitude": 120.5875
    },
    {
        "name": "La Paz",
        "country": "Philippines",
        "province": "Central Luzon",
        "population": 25801,
        "latitude": 15.441251,
        "longitude": 120.728632
    },
    {
        "name": "Lambayong",
        "country": "Philippines",
        "province": "Soccsksargen",
        "population": 11009,
        "latitude": 6.5194444,
        "longitude": 125.0444444
    },
    {
        "name": "Laguilayan",
        "country": "Philippines",
        "province": "Soccsksargen",
        "population": 17764,
        "latitude": 6.672131,
        "longitude": 124.52491
    },
    {
        "name": "Labangan",
        "country": "Philippines",
        "province": "Zamboanga Peninsula",
        "population": 10780,
        "latitude": 7.8654,
        "longitude": 123.5123
    },
    {
        "name": "Kansipati",
        "country": "Philippines",
        "province": "Autonomous Region in Muslim Mindanao",
        "population": 14552,
        "latitude": 6.0011111,
        "longitude": 121.2344444
    },
    {
        "name": "Kalamansig",
        "country": "Philippines",
        "province": "Soccsksargen",
        "population": 12821,
        "latitude": 6.55187,
        "longitude": 124.051111
    },
    {
        "name": "Itogon",
        "country": "Philippines",
        "province": "Cordillera",
        "population": 28407,
        "latitude": 16.3638889,
        "longitude": 120.6769444
    },
    {
        "name": "Isulan",
        "country": "Philippines",
        "province": "Soccsksargen",
        "population": 31717,
        "latitude": 6.629444,
        "longitude": 124.605
    },
    {
        "name": "Indang",
        "country": "Philippines",
        "province": "Calabarzon",
        "population": 41159,
        "latitude": 14.1952778,
        "longitude": 120.8769444
    },
    {
        "name": "Ilagan",
        "country": "Philippines",
        "province": "Cagayan Valley",
        "population": 72363,
        "latitude": 17.148539,
        "longitude": 121.889244
    },
    {
        "name": "Iba",
        "country": "Philippines",
        "province": "Central Luzon",
        "population": 26935,
        "latitude": 15.3276,
        "longitude": 119.978
    },
    {
        "name": "Himamaylan",
        "country": "Philippines",
        "province": "Western Visayas",
        "population": 25089,
        "latitude": 10.0988889,
        "longitude": 122.8705556
    },
    {
        "name": "Gumaca",
        "country": "Philippines",
        "province": "Calabarzon",
        "population": 22496,
        "latitude": 13.921,
        "longitude": 122.1002
    },
    {
        "name": "Guiset East",
        "country": "Philippines",
        "province": "Ilocos",
        "population": 21994,
        "latitude": 16.0666667,
        "longitude": 120.6833333
    },
    {
        "name": "Guihulñgan",
        "country": "Philippines",
        "province": "Central Visayas",
        "population": 22931,
        "latitude": 10.1214,
        "longitude": 123.2742
    },
    {
        "name": "Sigaboy",
        "country": "Philippines",
        "province": "Davao",
        "population": 7981,
        "latitude": 6.654131,
        "longitude": 126.072682
    },
    {
        "name": "Glan",
        "country": "Philippines",
        "province": "Soccsksargen",
        "population": 24256,
        "latitude": 5.824167,
        "longitude": 125.203333
    },
    {
        "name": "General Trias",
        "country": "Philippines",
        "province": "Calabarzon",
        "population": 96022,
        "latitude": 14.3869444,
        "longitude": 120.8816667
    },
    {
        "name": "General Mamerto Natividad",
        "country": "Philippines",
        "province": "Central Luzon",
        "population": 18393,
        "latitude": 15.6025,
        "longitude": 121.0515
    },
    {
        "name": "Escalante",
        "country": "Philippines",
        "province": "Western Visayas",
        "population": 39177,
        "latitude": 10.8402778,
        "longitude": 123.4991667
    },
    {
        "name": "Talagutong",
        "country": "Philippines",
        "province": "Davao",
        "population": 7983,
        "latitude": 6.264444,
        "longitude": 125.667778
    },
    {
        "name": "Domalanoan",
        "country": "Philippines",
        "province": "Ilocos",
        "population": 15108,
        "latitude": 16.00292,
        "longitude": 120.211536
    },
    {
        "name": "Pandacaqui",
        "country": "Philippines",
        "province": "Central Luzon",
        "population": 28603,
        "latitude": 15.1719,
        "longitude": 120.654566
    },
    {
        "name": "Panalanoy",
        "country": "Philippines",
        "province": "Eastern Visayas",
        "population": 189090,
        "latitude": 11.2511111,
        "longitude": 125.0063889
    },
    {
        "name": "Pagbilao",
        "country": "Philippines",
        "province": "Calabarzon",
        "population": 40818,
        "latitude": 13.96689,
        "longitude": 121.69835
    },
    {
        "name": "Pagaluñgan",
        "country": "Philippines",
        "province": "Autonomous Region in Muslim Mindanao",
        "population": 31052,
        "latitude": 7.141667,
        "longitude": 124.380556
    },
    {
        "name": "Oroquieta",
        "country": "Philippines",
        "province": "Northern Mindanao",
        "population": 39279,
        "latitude": 8.4859,
        "longitude": 123.8048
    },
    {
        "name": "Orion",
        "country": "Philippines",
        "province": "Central Luzon",
        "population": 46991,
        "latitude": 14.6205556,
        "longitude": 120.5816667
    },
    {
        "name": "Noveleta",
        "country": "Philippines",
        "province": "Calabarzon",
        "population": 37299,
        "latitude": 14.42922,
        "longitude": 120.87989
    },
    {
        "name": "Nibaliw Central",
        "country": "Philippines",
        "province": "Ilocos",
        "population": 13631,
        "latitude": 16.1275,
        "longitude": 120.4027
    },
    {
        "name": "Nasugbu",
        "country": "Philippines",
        "province": "Calabarzon",
        "population": 62857,
        "latitude": 14.06694,
        "longitude": 120.63181
    },
    {
        "name": "Naic",
        "country": "Philippines",
        "province": "Calabarzon",
        "population": 55195,
        "latitude": 14.318123,
        "longitude": 120.766089
    },
    {
        "name": "Naga",
        "country": "Philippines",
        "province": "Central Visayas",
        "population": 28571,
        "latitude": 10.208982,
        "longitude": 123.758
    },
    {
        "name": "Muñoz",
        "country": "Philippines",
        "province": "Central Luzon",
        "population": 37141,
        "latitude": 15.7161111,
        "longitude": 120.9030556
    },
    {
        "name": "Monkayo",
        "country": "Philippines",
        "province": "Davao",
        "population": 51393,
        "latitude": 7.8152778,
        "longitude": 126.0544444
    },
    {
        "name": "Minglanilla",
        "country": "Philippines",
        "province": "Central Visayas",
        "population": 62058,
        "latitude": 10.24498,
        "longitude": 123.7964
    },
    {
        "name": "Midsayap",
        "country": "Philippines",
        "province": "Soccsksargen",
        "population": 32932,
        "latitude": 7.1908333,
        "longitude": 124.5302778
    },
    {
        "name": "Mauban",
        "country": "Philippines",
        "province": "Calabarzon",
        "population": 32739,
        "latitude": 14.191,
        "longitude": 121.7309
    },
    {
        "name": "Binalbagan",
        "country": "Philippines",
        "province": "Western Visayas",
        "population": 38587,
        "latitude": 10.1948,
        "longitude": 122.8581
    },
    {
        "name": "Upper Bicutan",
        "country": "Philippines",
        "province": "National Capital Region",
        "population": 47127,
        "latitude": 14.4996,
        "longitude": 121.0507
    },
    {
        "name": "Bel Air",
        "country": "Philippines",
        "province": "National Capital Region",
        "population": 36007,
        "latitude": 14.5594,
        "longitude": 121.0258
    },
    {
        "name": "Bayugan",
        "country": "Philippines",
        "province": "Caraga",
        "population": 40561,
        "latitude": 8.7561111,
        "longitude": 125.7675
    },
    {
        "name": "Bay",
        "country": "Philippines",
        "province": "Calabarzon",
        "population": 33547,
        "latitude": 14.18368,
        "longitude": 121.28554
    },
    {
        "name": "Barra",
        "country": "Philippines",
        "province": "Northern Mindanao",
        "population": 12442,
        "latitude": 8.510278,
        "longitude": 124.604444
    },
    {
        "name": "Balayan",
        "country": "Philippines",
        "province": "Calabarzon",
        "population": 50115,
        "latitude": 13.937141,
        "longitude": 120.732241
    },
    {
        "name": "Balanga",
        "country": "Philippines",
        "province": "Central Luzon",
        "population": 72954,
        "latitude": 14.6761111,
        "longitude": 120.5361111
    },
    {
        "name": "Bahay Pare",
        "country": "Philippines",
        "province": "Central Luzon",
        "population": 9726,
        "latitude": 15.032382,
        "longitude": 120.880832
    },
    {
        "name": "Baganga",
        "country": "Philippines",
        "province": "Davao",
        "population": 10106,
        "latitude": 7.5738889,
        "longitude": 126.56
    },
    {
        "name": "Baclaran",
        "country": "Philippines",
        "province": "Calabarzon",
        "population": 33850,
        "latitude": 14.5319444,
        "longitude": 120.9941667
    },
    {
        "name": "Cambanugoy",
        "country": "Philippines",
        "province": "Davao",
        "population": 11693,
        "latitude": 7.5413,
        "longitude": 125.7553
    },
    {
        "name": "Aparri",
        "country": "Philippines",
        "province": "Cagayan Valley",
        "population": 33230,
        "latitude": 18.3566,
        "longitude": 121.6406
    },
    {
        "name": "Angat",
        "country": "Philippines",
        "province": "Central Luzon",
        "population": 41235,
        "latitude": 14.9285,
        "longitude": 121.03
    },
    {
        "name": "Alaminos",
        "country": "Philippines",
        "province": "Ilocos",
        "population": 10488,
        "latitude": 16.1561111,
        "longitude": 119.9811111
    },
    {
        "name": "Alabel",
        "country": "Philippines",
        "province": "Soccsksargen",
        "population": 43312,
        "latitude": 6.101792,
        "longitude": 125.290478
    },
    {
        "name": "Agbannawag",
        "country": "Philippines",
        "province": "Central Luzon",
        "population": 3782,
        "latitude": 15.6792,
        "longitude": 121.0833
    },
    {
        "name": "Ayala Alabang",
        "country": "Philippines",
        "province": "National Capital Region",
        "population": 25115,
        "latitude": 14.405992,
        "longitude": 121.022216
    },
    {
        "name": "Banco Filipino Homes",
        "country": "Philippines",
        "province": "National Capital Region",
        "population": 92752,
        "latitude": 14.433791,
        "longitude": 121.022308
    },
    {
        "name": "Sanga-Sanga",
        "country": "Philippines",
        "province": "Autonomous Region in Muslim Mindanao",
        "population": 5295,
        "latitude": 5.0725,
        "longitude": 119.7852778
    },
    {
        "name": "Buansa",
        "country": "Philippines",
        "province": "Autonomous Region in Muslim Mindanao",
        "population": 3196,
        "latitude": 6.0258,
        "longitude": 120.9614
    },
    {
        "name": "Maranding",
        "country": "Philippines",
        "province": "Northern Mindanao",
        "population": 13694,
        "latitude": 7.9248,
        "longitude": 123.7715
    },
    {
        "name": "Tabio",
        "country": "Philippines",
        "province": "Cordillera",
        "population": 3543,
        "latitude": 16.85,
        "longitude": 120.8
    },
    {
        "name": "Tabiauan",
        "country": "Philippines",
        "province": "Autonomous Region in Muslim Mindanao",
        "population": 2312,
        "latitude": 6.028059,
        "longitude": 121.893546
    },
    {
        "name": "Suyo",
        "country": "Philippines",
        "province": "Ilocos",
        "population": 10943,
        "latitude": 16.9762,
        "longitude": 120.5254
    },
    {
        "name": "Sulangan",
        "country": "Philippines",
        "province": "Eastern Visayas",
        "population": 3034,
        "latitude": 10.936,
        "longitude": 125.8264
    },
    {
        "name": "Sugbongkogon",
        "country": "Philippines",
        "province": "Northern Mindanao",
        "population": 2494,
        "latitude": 8.9569444,
        "longitude": 124.7911111
    },
    {
        "name": "Subusub",
        "country": "Philippines",
        "province": "Ilocos",
        "population": 6887,
        "latitude": 16.22689,
        "longitude": 120.495127
    },
    {
        "name": "Soyung",
        "country": "Philippines",
        "province": "Cagayan Valley",
        "population": 5418,
        "latitude": 16.7001,
        "longitude": 121.6655
    },
    {
        "name": "South Upi",
        "country": "Philippines",
        "province": "Autonomous Region in Muslim Mindanao",
        "population": 12538,
        "latitude": 6.8333333,
        "longitude": 124.15
    },
    {
        "name": "Songculan",
        "country": "Philippines",
        "province": "Central Visayas",
        "population": 3335,
        "latitude": 9.629655,
        "longitude": 123.828967
    },
    {
        "name": "Solano",
        "country": "Philippines",
        "province": "Cagayan Valley",
        "population": 36222,
        "latitude": 16.519182,
        "longitude": 121.181239
    },
    {
        "name": "Sipalay",
        "country": "Philippines",
        "province": "Western Visayas",
        "population": 24029,
        "latitude": 9.7519444,
        "longitude": 122.4041667
    },
    {
        "name": "Siocon",
        "country": "Philippines",
        "province": "Zamboanga Peninsula",
        "population": 5071,
        "latitude": 7.7061111,
        "longitude": 122.1352778
    },
    {
        "name": "Sinilian First",
        "country": "Philippines",
        "province": "Central Luzon",
        "population": 5040,
        "latitude": 15.693268,
        "longitude": 120.459355
    },
    {
        "name": "Sinacaban",
        "country": "Philippines",
        "province": "Northern Mindanao",
        "population": 2372,
        "latitude": 8.2864,
        "longitude": 123.8399
    },
    {
        "name": "Silway Seven",
        "country": "Philippines",
        "province": "Soccsksargen",
        "population": 7893,
        "latitude": 6.177109,
        "longitude": 125.120676
    },
    {
        "name": "Sillon",
        "country": "Philippines",
        "province": "Central Visayas",
        "population": 4042,
        "latitude": 11.199,
        "longitude": 123.7675
    },
    {
        "name": "Sillawit",
        "country": "Philippines",
        "province": "Cagayan Valley",
        "population": 3084,
        "latitude": 16.873156,
        "longitude": 121.759242
    },
    {
        "name": "Cigaras",
        "country": "Philippines",
        "province": "Calabarzon",
        "population": 2775,
        "latitude": 14.2266,
        "longitude": 121.4298
    },
    {
        "name": "Sierra Bullones",
        "country": "Philippines",
        "province": "Central Visayas",
        "population": 2978,
        "latitude": 9.8081,
        "longitude": 124.2921
    },
    {
        "name": "Sibul Springs",
        "country": "Philippines",
        "province": "Central Luzon",
        "population": 8225,
        "latitude": 15.169,
        "longitude": 121.0616
    },
    {
        "name": "Sibsibbo",
        "country": "Philippines",
        "province": "Ilocos",
        "population": -1,
        "latitude": 17.2972,
        "longitude": 120.5751
    },
    {
        "name": "Sibonga",
        "country": "Philippines",
        "province": "Central Visayas",
        "population": 11993,
        "latitude": 10.0168,
        "longitude": 123.6171
    },
    {
        "name": "Sibagat",
        "country": "Philippines",
        "province": "Caraga",
        "population": 4865,
        "latitude": 8.8225,
        "longitude": 125.6975
    },
    {
        "name": "Siayan",
        "country": "Philippines",
        "province": "Zamboanga Peninsula",
        "population": 4906,
        "latitude": 8.2666667,
        "longitude": 123.1
    },
    {
        "name": "Siay",
        "country": "Philippines",
        "province": "Zamboanga Peninsula",
        "population": 2351,
        "latitude": 7.6961111,
        "longitude": 122.8630556
    },
    {
        "name": "Sexmoan",
        "country": "Philippines",
        "province": "Central Luzon",
        "population": 21124,
        "latitude": 14.9438,
        "longitude": 120.6229
    },
    {
        "name": "Sariaya",
        "country": "Philippines",
        "province": "Calabarzon",
        "population": 44977,
        "latitude": 13.9624,
        "longitude": 121.5265
    },
    {
        "name": "Sapu Padidu",
        "country": "Philippines",
        "province": "Soccsksargen",
        "population": 9789,
        "latitude": 5.917222,
        "longitude": 125.266944
    },
    {
        "name": "Sapang Kawayan",
        "country": "Philippines",
        "province": "Central Luzon",
        "population": -1,
        "latitude": 14.805081,
        "longitude": 120.686
    },
    {
        "name": "San Vicente",
        "country": "Philippines",
        "province": "Central Luzon",
        "population": 16116,
        "latitude": 15.2921,
        "longitude": 120.654978
    },
    {
        "name": "Santor",
        "country": "Philippines",
        "province": "Calabarzon",
        "population": 3448,
        "latitude": 14.095491,
        "longitude": 121.108745
    },
    {
        "name": "Santa Nino",
        "country": "Philippines",
        "province": "Central Visayas",
        "population": 2339,
        "latitude": 10.689,
        "longitude": 123.7884
    },
    {
        "name": "Santo Domingo",
        "country": "Philippines",
        "province": "Central Luzon",
        "population": 2247,
        "latitude": 15.072889,
        "longitude": 120.757028
    },
    {
        "name": "San Teodoro",
        "country": "Philippines",
        "province": "Mimaropa",
        "population": 4827,
        "latitude": 13.43784,
        "longitude": 121.01961
    },
    {
        "name": "Santa Teresa First",
        "country": "Philippines",
        "province": "Central Luzon",
        "population": 4881,
        "latitude": 14.9265,
        "longitude": 120.557909
    },
    {
        "name": "Hacienda Santa Rosa",
        "country": "Philippines",
        "province": "Western Visayas",
        "population": 3794,
        "latitude": 10.57226,
        "longitude": 123.101202
    },
    {
        "name": "Santa Monica",
        "country": "Philippines",
        "province": "Central Luzon",
        "population": 5475,
        "latitude": 15.357706,
        "longitude": 120.720059
    },
    {
        "name": "Santa Maria",
        "country": "Philippines",
        "province": "Ilocos",
        "population": 28002,
        "latitude": 16.9518,
        "longitude": 120.4445
    },
    {
        "name": "Santa Maria",
        "country": "Philippines",
        "province": "Davao",
        "population": 16758,
        "latitude": 6.5536111,
        "longitude": 125.4708333
    },
    {
        "name": "Santa Margarita",
        "country": "Philippines",
        "province": "Eastern Visayas",
        "population": 4825,
        "latitude": 12.0377778,
        "longitude": 124.6577778
    },
    {
        "name": "San Roque Dau First",
        "country": "Philippines",
        "province": "Central Luzon",
        "population": 9621,
        "latitude": 14.977115,
        "longitude": 120.576884
    },
    {
        "name": "San Pedro One",
        "country": "Philippines",
        "province": "Calabarzon",
        "population": 4010,
        "latitude": 14.053407,
        "longitude": 121.145358
    },
    {
        "name": "Lloren",
        "country": "Philippines",
        "province": "Ilocos",
        "population": 5800,
        "latitude": 16.3331,
        "longitude": 120.4329
    },
    {
        "name": "San Pascual",
        "country": "Philippines",
        "province": "Central Visayas",
        "population": 3351,
        "latitude": 9.9538,
        "longitude": 124.4287
    },
    {
        "name": "San Pablo",
        "country": "Philippines",
        "province": "Zamboanga Peninsula",
        "population": 3346,
        "latitude": 7.6563889,
        "longitude": 123.4608333
    },
    {
        "name": "San Nicolas Balas",
        "country": "Philippines",
        "province": "Central Luzon",
        "population": -1,
        "latitude": 15.284561,
        "longitude": 120.650831
    },
    {
        "name": "San Narciso",
        "country": "Philippines",
        "province": "Central Luzon",
        "population": 15636,
        "latitude": 15.0143,
        "longitude": 120.0803
    },
    {
        "name": "San Miguel",
        "country": "Philippines",
        "province": "Caraga",
        "population": 2983,
        "latitude": 8.9688889,
        "longitude": 125.945
    },
    {
        "name": "San Luis",
        "country": "Philippines",
        "province": "Caraga",
        "population": 7109,
        "latitude": 8.478056,
        "longitude": 125.743889
    },
    {
        "name": "Tabacao",
        "country": "Philippines",
        "province": "Central Luzon",
        "population": 3465,
        "latitude": 15.649732,
        "longitude": 120.940665
    },
    {
        "name": "Agcogon",
        "country": "Philippines",
        "province": "Mimaropa",
        "population": 3027,
        "latitude": 12.061463,
        "longitude": 121.959111
    },
    {
        "name": "Laug",
        "country": "Philippines",
        "province": "Central Luzon",
        "population": 3157,
        "latitude": 15.046593,
        "longitude": 120.751487
    },
    {
        "name": "San Isidro",
        "country": "Philippines",
        "province": "Calabarzon",
        "population": 3205,
        "latitude": 14.2086,
        "longitude": 121.3983
    },
    {
        "name": "San Isidro",
        "country": "Philippines",
        "province": "Central Visayas",
        "population": 2416,
        "latitude": 9.7712,
        "longitude": 124.2527
    },
    {
        "name": "San Ildefonso",
        "country": "Philippines",
        "province": "Central Luzon",
        "population": 65669,
        "latitude": 15.0809,
        "longitude": 120.941
    },
    {
        "name": "Del Monte",
        "country": "Philippines",
        "province": "Calabarzon",
        "population": 11035,
        "latitude": 14.6418,
        "longitude": 121.0177
    },
    {
        "name": "San Francisco",
        "country": "Philippines",
        "province": "Central Luzon",
        "population": 19570,
        "latitude": 15.355662,
        "longitude": 120.840007
    },
    {
        "name": "Aurora",
        "country": "Philippines",
        "province": "Calabarzon",
        "population": 16178,
        "latitude": 13.3476,
        "longitude": 122.5195
    },
    {
        "name": "San Francisco",
        "country": "Philippines",
        "province": "Central Visayas",
        "population": 5047,
        "latitude": 10.16018,
        "longitude": 124.310984
    },
    {
        "name": "San Francisco",
        "country": "Philippines",
        "province": "Caraga",
        "population": 18542,
        "latitude": 8.5355556,
        "longitude": 125.95
    },
    {
        "name": "San Enrique",
        "country": "Philippines",
        "province": "Western Visayas",
        "population": 2620,
        "latitude": 11.0712,
        "longitude": 122.656
    },
    {
        "name": "San Diego",
        "country": "Philippines",
        "province": "Calabarzon",
        "population": 2488,
        "latitude": 14.1872,
        "longitude": 121.4867
    },
    {
        "name": "San Carlos",
        "country": "Philippines",
        "province": "Northern Mindanao",
        "population": 3186,
        "latitude": 7.9597222,
        "longitude": 125.0775
    },
    {
        "name": "San Benito",
        "country": "Philippines",
        "province": "Central Luzon",
        "population": 2549,
        "latitude": 14.851551,
        "longitude": 120.426929
    },
    {
        "name": "San Antonio",
        "country": "Philippines",
        "province": "Eastern Visayas",
        "population": 2325,
        "latitude": 11.27682,
        "longitude": 125.01141
    },
    {
        "name": "Sampaloc",
        "country": "Philippines",
        "province": "Calabarzon",
        "population": 20157,
        "latitude": 14.5402,
        "longitude": 121.3602
    },
    {
        "name": "Camambugan",
        "country": "Philippines",
        "province": "Central Visayas",
        "population": 2265,
        "latitude": 10.058439,
        "longitude": 124.438107
    },
    {
        "name": "Colipapa",
        "country": "Philippines",
        "province": "Western Visayas",
        "population": 7680,
        "latitude": 9.4726,
        "longitude": 122.5616
    },
    {
        "name": "Calinaoan Malasin",
        "country": "Philippines",
        "province": "Cagayan Valley",
        "population": 2083,
        "latitude": 17.351886,
        "longitude": 121.740744
    },
    {
        "name": "Calbiga",
        "country": "Philippines",
        "province": "Eastern Visayas",
        "population": 2920,
        "latitude": 11.6247222,
        "longitude": 125.0163889
    },
    {
        "name": "Calatrava",
        "country": "Philippines",
        "province": "Western Visayas",
        "population": 9489,
        "latitude": 10.594956,
        "longitude": 123.483802
    },
    {
        "name": "Calatagan",
        "country": "Philippines",
        "province": "Calabarzon",
        "population": 16110,
        "latitude": 13.832236,
        "longitude": 120.632195
    },
    {
        "name": "Calasiao",
        "country": "Philippines",
        "province": "Ilocos",
        "population": 24276,
        "latitude": 16.0111,
        "longitude": 120.36
    },
    {
        "name": "Calamagui East",
        "country": "Philippines",
        "province": "Cagayan Valley",
        "population": 2671,
        "latitude": 17.488154,
        "longitude": 121.768452
    },
    {
        "name": "Calachuchi",
        "country": "Philippines",
        "province": "Bicol",
        "population": 2278,
        "latitude": 12.217745,
        "longitude": 123.53061
    },
    {
        "name": "Kaliliog",
        "country": "Philippines",
        "province": "Bicol",
        "population": 2738,
        "latitude": 13.9039,
        "longitude": 123.2925
    },
    {
        "name": "Cabilauan",
        "country": "Philippines",
        "province": "Western Visayas",
        "population": 2564,
        "latitude": 10.8922222,
        "longitude": 122.6591667
    },
    {
        "name": "Cabatuan",
        "country": "Philippines",
        "province": "Eastern Visayas",
        "population": 2381,
        "latitude": 12.5228,
        "longitude": 125.2202
    },
    {
        "name": "Cabarroguis",
        "country": "Philippines",
        "province": "Cagayan Valley",
        "population": 6974,
        "latitude": 16.511054,
        "longitude": 121.521176
    },
    {
        "name": "Cabannungan Second",
        "country": "Philippines",
        "province": "Cagayan Valley",
        "population": 2147,
        "latitude": 17.124896,
        "longitude": 121.850601
    },
    {
        "name": "Kabac",
        "country": "Philippines",
        "province": "Central Visayas",
        "population": 4149,
        "latitude": 11.2353,
        "longitude": 123.6979
    },
    {
        "name": "Buyabod",
        "country": "Philippines",
        "province": "Mimaropa",
        "population": 2991,
        "latitude": 13.4666,
        "longitude": 122.0526
    },
    {
        "name": "Butigui",
        "country": "Philippines",
        "province": "Cordillera",
        "population": 2219,
        "latitude": 17.115344,
        "longitude": 121.433044
    },
    {
        "name": "Brgy. New Buswang, Kalibo",
        "country": "Philippines",
        "province": "Western Visayas",
        "population": 3000,
        "latitude": 11.7122222,
        "longitude": 122.3847222
    },
    {
        "name": "Busilak",
        "country": "Philippines",
        "province": "Cagayan Valley",
        "population": 2814,
        "latitude": 16.4775,
        "longitude": 121.1241
    },
    {
        "name": "Burgos",
        "country": "Philippines",
        "province": "Central Luzon",
        "population": 28178,
        "latitude": 15.728917,
        "longitude": 120.572235
    },
    {
        "name": "Burdeos",
        "country": "Philippines",
        "province": "Calabarzon",
        "population": 4548,
        "latitude": 14.843024,
        "longitude": 121.969061
    },
    {
        "name": "Burauen",
        "country": "Philippines",
        "province": "Eastern Visayas",
        "population": 14268,
        "latitude": 10.9755556,
        "longitude": 124.8927778
    },
    {
        "name": "Burabod",
        "country": "Philippines",
        "province": "Bicol",
        "population": 2286,
        "latitude": 13.2686,
        "longitude": 123.4162
    },
    {
        "name": "Bunol",
        "country": "Philippines",
        "province": "Central Luzon",
        "population": 3021,
        "latitude": 15.6671,
        "longitude": 120.8344
    },
    {
        "name": "Bunawan",
        "country": "Philippines",
        "province": "Caraga",
        "population": 15471,
        "latitude": 8.1672222,
        "longitude": 125.9908333
    },
    {
        "name": "Bulog",
        "country": "Philippines",
        "province": "Ilocos",
        "population": 11103,
        "latitude": 15.9602,
        "longitude": 120.4017
    },
    {
        "name": "Buliran Segundo",
        "country": "Philippines",
        "province": "Central Luzon",
        "population": 3476,
        "latitude": 15.2666667,
        "longitude": 120.8666667
    },
    {
        "name": "Bulalacao",
        "country": "Philippines",
        "province": "Mimaropa",
        "population": 12027,
        "latitude": 12.325349,
        "longitude": 121.343513
    },
    {
        "name": "Bulacnin",
        "country": "Philippines",
        "province": "Calabarzon",
        "population": 7985,
        "latitude": 13.9903,
        "longitude": 121.139
    },
    {
        "name": "Bugo",
        "country": "Philippines",
        "province": "Northern Mindanao",
        "population": 45787,
        "latitude": 8.5083333,
        "longitude": 124.7594444
    },
    {
        "name": "Bugko",
        "country": "Philippines",
        "province": "Eastern Visayas",
        "population": 3120,
        "latitude": 12.5356,
        "longitude": 124.7923
    },
    {
        "name": "Bugasong",
        "country": "Philippines",
        "province": "Western Visayas",
        "population": 2828,
        "latitude": 11.04464,
        "longitude": 122.06463
    },
    {
        "name": "Buanoy",
        "country": "Philippines",
        "province": "Central Visayas",
        "population": 10955,
        "latitude": 10.467464,
        "longitude": 123.699901
    },
    {
        "name": "Boston",
        "country": "Philippines",
        "province": "Davao",
        "population": 2891,
        "latitude": 7.8711111,
        "longitude": 126.3641667
    },
    {
        "name": "Borongan",
        "country": "Philippines",
        "province": "Eastern Visayas",
        "population": 16484,
        "latitude": 11.6080556,
        "longitude": 125.4319444
    },
    {
        "name": "Bood",
        "country": "Philippines",
        "province": "Central Visayas",
        "population": 2320,
        "latitude": 9.745083,
        "longitude": 123.827831
    },
    {
        "name": "Bontoc",
        "country": "Philippines",
        "province": "Cordillera",
        "population": 10440,
        "latitude": 17.08731,
        "longitude": 120.97685
    },
    {
        "name": "Bonawon",
        "country": "Philippines",
        "province": "Central Visayas",
        "population": 9189,
        "latitude": 9.134,
        "longitude": 122.9193
    },
    {
        "name": "Bogo",
        "country": "Philippines",
        "province": "Central Visayas",
        "population": 23562,
        "latitude": 11.0517,
        "longitude": 124.0055
    },
    {
        "name": "Bobon Second",
        "country": "Philippines",
        "province": "Central Luzon",
        "population": 4150,
        "latitude": 15.656531,
        "longitude": 120.381185
    },
    {
        "name": "Bitanjuan",
        "country": "Philippines",
        "province": "Eastern Visayas",
        "population": 2841,
        "latitude": 10.5955,
        "longitude": 124.7663
    },
    {
        "name": "Bintawan",
        "country": "Philippines",
        "province": "Cagayan Valley",
        "population": 4971,
        "latitude": 16.575878,
        "longitude": 121.18764
    },
    {
        "name": "Binondo",
        "country": "Philippines",
        "province": "National Capital Region",
        "population": 20491,
        "latitude": 14.6,
        "longitude": 120.9666667
    },
    {
        "name": "Payabon",
        "country": "Philippines",
        "province": "Central Visayas",
        "population": 3600,
        "latitude": 9.759,
        "longitude": 123.1412
    },
    {
        "name": "Vizal San Pablo",
        "country": "Philippines",
        "province": "Central Luzon",
        "population": 2322,
        "latitude": 15.062474,
        "longitude": 120.900211
    },
    {
        "name": "Viriato",
        "country": "Philippines",
        "province": "Eastern Visayas",
        "population": 2241,
        "latitude": 12.29031,
        "longitude": 124.353333
    },
    {
        "name": "Virac",
        "country": "Philippines",
        "province": "Bicol",
        "population": 15079,
        "latitude": 13.5848,
        "longitude": 124.2374
    },
    {
        "name": "Vinzons",
        "country": "Philippines",
        "province": "Bicol",
        "population": 13617,
        "latitude": 14.1737,
        "longitude": 122.9066
    },
    {
        "name": "Vintar",
        "country": "Philippines",
        "province": "Ilocos",
        "population": 5263,
        "latitude": 18.2284,
        "longitude": 120.6475
    },
    {
        "name": "Villasis",
        "country": "Philippines",
        "province": "Ilocos",
        "population": 13122,
        "latitude": 15.9016667,
        "longitude": 120.5883333
    },
    {
        "name": "Victoria",
        "country": "Philippines",
        "province": "Calabarzon",
        "population": 24456,
        "latitude": 14.2277,
        "longitude": 121.3292
    },
    {
        "name": "Victoria",
        "country": "Philippines",
        "province": "Mimaropa",
        "population": 10088,
        "latitude": 13.1772222,
        "longitude": 121.2780556
    },
    {
        "name": "Vallehermoso",
        "country": "Philippines",
        "province": "Central Visayas",
        "population": 10179,
        "latitude": 10.3349,
        "longitude": 123.3259
    },
    {
        "name": "Upig",
        "country": "Philippines",
        "province": "Central Luzon",
        "population": 2262,
        "latitude": 15.025506,
        "longitude": 120.99193
    },
    {
        "name": "Upi",
        "country": "Philippines",
        "province": "Cagayan Valley",
        "population": 5647,
        "latitude": 17.082623,
        "longitude": 121.83453
    },
    {
        "name": "Union",
        "country": "Philippines",
        "province": "Central Visayas",
        "population": 2270,
        "latitude": 10.0475,
        "longitude": 124.5151
    },
    {
        "name": "Union",
        "country": "Philippines",
        "province": "Caraga",
        "population": 2368,
        "latitude": 9.7566667,
        "longitude": 126.1102778
    },
    {
        "name": "Tuyum",
        "country": "Philippines",
        "province": "Western Visayas",
        "population": 11117,
        "latitude": 9.9769,
        "longitude": 122.5582
    },
    {
        "name": "Tuy",
        "country": "Philippines",
        "province": "Calabarzon",
        "population": 8603,
        "latitude": 14.0183,
        "longitude": 120.7296
    },
    {
        "name": "Tupi",
        "country": "Philippines",
        "province": "Soccsksargen",
        "population": 16518,
        "latitude": 6.3344444,
        "longitude": 124.9527778
    },
    {
        "name": "Tunasan",
        "country": "Philippines",
        "province": "Calabarzon",
        "population": 61374,
        "latitude": 14.3791667,
        "longitude": 121.0525
    },
    {
        "name": "Tucuran",
        "country": "Philippines",
        "province": "Zamboanga Peninsula",
        "population": 13148,
        "latitude": 7.8524,
        "longitude": 123.5743
    },
    {
        "name": "Tugbong",
        "country": "Philippines",
        "province": "Eastern Visayas",
        "population": 2636,
        "latitude": 11.0166667,
        "longitude": 124.6
    },
    {
        "name": "Tubod",
        "country": "Philippines",
        "province": "Northern Mindanao",
        "population": 10975,
        "latitude": 8.0555,
        "longitude": 123.7904
    },
    {
        "name": "Tibigan",
        "country": "Philippines",
        "province": "Central Visayas",
        "population": 11262,
        "latitude": 9.9518,
        "longitude": 123.9622
    },
    {
        "name": "Sabang",
        "country": "Philippines",
        "province": "Eastern Visayas",
        "population": 3522,
        "latitude": 12.0746,
        "longitude": 124.5414
    },
    {
        "name": "Trapiche",
        "country": "Philippines",
        "province": "Western Visayas",
        "population": 11539,
        "latitude": 10.6841667,
        "longitude": 122.4322222
    },
    {
        "name": "Toboy",
        "country": "Philippines",
        "province": "Ilocos",
        "population": 3082,
        "latitude": 16.0271,
        "longitude": 120.6369
    },
    {
        "name": "Toboso",
        "country": "Philippines",
        "province": "Western Visayas",
        "population": 13006,
        "latitude": 10.714348,
        "longitude": 123.516202
    },
    {
        "name": "Tiwi",
        "country": "Philippines",
        "province": "Bicol",
        "population": 16826,
        "latitude": 13.4585,
        "longitude": 123.6805
    },
    {
        "name": "Titay",
        "country": "Philippines",
        "province": "Zamboanga Peninsula",
        "population": 11468,
        "latitude": 7.8125,
        "longitude": 122.5344444
    },
    {
        "name": "Tickey",
        "country": "Philippines",
        "province": "Cordillera",
        "population": -1,
        "latitude": 16.534583,
        "longitude": 120.80524
    },
    {
        "name": "Tipolo",
        "country": "Philippines",
        "province": "Central Visayas",
        "population": 2361,
        "latitude": 10.0196,
        "longitude": 124.5144
    },
    {
        "name": "Tinogboc",
        "country": "Philippines",
        "province": "Western Visayas",
        "population": 2208,
        "latitude": 12.00737,
        "longitude": 121.412211
    },
    {
        "name": "Brgy. Tinigao, Kalibo",
        "country": "Philippines",
        "province": "Western Visayas",
        "population": 2000,
        "latitude": 11.7,
        "longitude": 122.3666667
    },
    {
        "name": "Tindog",
        "country": "Philippines",
        "province": "Central Visayas",
        "population": 3306,
        "latitude": 11.1247,
        "longitude": 124.0118
    },
    {
        "name": "Tilik",
        "country": "Philippines",
        "province": "Mimaropa",
        "population": 2351,
        "latitude": 13.814357,
        "longitude": 120.200221
    },
    {
        "name": "Tigbauan",
        "country": "Philippines",
        "province": "Western Visayas",
        "population": 12659,
        "latitude": 10.674656,
        "longitude": 122.377604
    },
    {
        "name": "Tiblawan",
        "country": "Philippines",
        "province": "Davao",
        "population": 2843,
        "latitude": 6.478344,
        "longitude": 126.108282
    },
    {
        "name": "Telabastagan",
        "country": "Philippines",
        "province": "Central Luzon",
        "population": 25935,
        "latitude": 15.118544,
        "longitude": 120.607732
    },
    {
        "name": "Taungoh",
        "country": "Philippines",
        "province": "Autonomous Region in Muslim Mindanao",
        "population": 2375,
        "latitude": 4.706542,
        "longitude": 119.492961
    },
    {
        "name": "Tapas",
        "country": "Philippines",
        "province": "Western Visayas",
        "population": 2340,
        "latitude": 11.2613,
        "longitude": 122.5364
    },
    {
        "name": "Tanauan",
        "country": "Philippines",
        "province": "Eastern Visayas",
        "population": 16567,
        "latitude": 11.1094444,
        "longitude": 125.0155556
    },
    {
        "name": "Taloc",
        "country": "Philippines",
        "province": "Western Visayas",
        "population": 20409,
        "latitude": 10.5746,
        "longitude": 122.8954
    },
    {
        "name": "Talibon",
        "country": "Philippines",
        "province": "Central Visayas",
        "population": 11209,
        "latitude": 10.1491667,
        "longitude": 124.325
    },
    {
        "name": "Talakag",
        "country": "Philippines",
        "province": "Northern Mindanao",
        "population": 7860,
        "latitude": 8.233611,
        "longitude": 124.600278
    },
    {
        "name": "Tagbubungang Diot",
        "country": "Philippines",
        "province": "Eastern Visayas",
        "population": 2489,
        "latitude": 11.1257,
        "longitude": 124.4028
    },
    {
        "name": "Tagbina",
        "country": "Philippines",
        "province": "Caraga",
        "population": 10672,
        "latitude": 8.4519444,
        "longitude": 126.1713889
    },
    {
        "name": "Taganak",
        "country": "Philippines",
        "province": "Autonomous Region in Muslim Mindanao",
        "population": 2638,
        "latitude": 6.07328,
        "longitude": 118.31226
    },
    {
        "name": "Tabonok",
        "country": "Philippines",
        "province": "Central Visayas",
        "population": 2822,
        "latitude": 10.8512,
        "longitude": 123.8766
    },
    {
        "name": "Mataywanac",
        "country": "Philippines",
        "province": "Calabarzon",
        "population": 2375,
        "latitude": 14.0311,
        "longitude": 120.7296
    },
    {
        "name": "Matalam",
        "country": "Philippines",
        "province": "Soccsksargen",
        "population": 9783,
        "latitude": 7.0863889,
        "longitude": 124.9005556
    },
    {
        "name": "Matagbak",
        "country": "Philippines",
        "province": "Calabarzon",
        "population": 2893,
        "latitude": 14.1305556,
        "longitude": 120.8347222
    },
    {
        "name": "Masbate",
        "country": "Philippines",
        "province": "Bicol",
        "population": 47490,
        "latitude": 12.37169434854719,
        "longitude": 123.62494468688965
    },
    {
        "name": "Masalukot Uno",
        "country": "Philippines",
        "province": "Calabarzon",
        "population": 10667,
        "latitude": 13.955327,
        "longitude": 121.418874
    },
    {
        "name": "Masalipit",
        "country": "Philippines",
        "province": "Central Luzon",
        "population": 2532,
        "latitude": 15.1481,
        "longitude": 121.0373
    },
    {
        "name": "Marihatag",
        "country": "Philippines",
        "province": "Caraga",
        "population": 3829,
        "latitude": 8.8059,
        "longitude": 126.296605
    },
    {
        "name": "Margosatubig",
        "country": "Philippines",
        "province": "Zamboanga Peninsula",
        "population": 14605,
        "latitude": 7.5777,
        "longitude": 123.1658
    },
    {
        "name": "Maragondon",
        "country": "Philippines",
        "province": "Calabarzon",
        "population": 22973,
        "latitude": 14.2733,
        "longitude": 120.7377
    },
    {
        "name": "Makiwalo",
        "country": "Philippines",
        "province": "Eastern Visayas",
        "population": 4614,
        "latitude": 12.5101,
        "longitude": 124.706
    },
    {
        "name": "Maquiling",
        "country": "Philippines",
        "province": "Western Visayas",
        "population": 4441,
        "latitude": 10.780944,
        "longitude": 123.393803
    },
    {
        "name": "Manuk Mangkaw",
        "country": "Philippines",
        "province": "Autonomous Region in Muslim Mindanao",
        "population": 4981,
        "latitude": 4.8,
        "longitude": 119.85
    },
    {
        "name": "Mantalongon",
        "country": "Philippines",
        "province": "Central Visayas",
        "population": 6070,
        "latitude": 9.810597,
        "longitude": 123.461696
    },
    {
        "name": "Manibaug Pasig",
        "country": "Philippines",
        "province": "Central Luzon",
        "population": 24618,
        "latitude": 15.096207,
        "longitude": 120.564452
    },
    {
        "name": "Mangarine",
        "country": "Philippines",
        "province": "Mimaropa",
        "population": 3246,
        "latitude": 12.351148,
        "longitude": 121.098013
    },
    {
        "name": "Manggahan",
        "country": "Philippines",
        "province": "Calabarzon",
        "population": 13825,
        "latitude": 14.291964,
        "longitude": 120.901454
    },
    {
        "name": "Mankayan",
        "country": "Philippines",
        "province": "Cordillera",
        "population": 15886,
        "latitude": 16.8632,
        "longitude": 120.7829
    },
    {
        "name": "Maloh",
        "country": "Philippines",
        "province": "Central Visayas",
        "population": 5105,
        "latitude": 9.056,
        "longitude": 122.9851
    },
    {
        "name": "Malangabang",
        "country": "Philippines",
        "province": "Western Visayas",
        "population": 2421,
        "latitude": 11.2367,
        "longitude": 123.2062
    },
    {
        "name": "Malalag",
        "country": "Philippines",
        "province": "Davao",
        "population": 6180,
        "latitude": 6.5958333,
        "longitude": 125.3991667
    },
    {
        "name": "Malayo-an",
        "country": "Philippines",
        "province": "Western Visayas",
        "population": 2868,
        "latitude": 11.0979,
        "longitude": 123.0091
    },
    {
        "name": "Malabanban Norte",
        "country": "Philippines",
        "province": "Calabarzon",
        "population": 19471,
        "latitude": 13.945206,
        "longitude": 121.430648
    },
    {
        "name": "Majayjay",
        "country": "Philippines",
        "province": "Calabarzon",
        "population": 11412,
        "latitude": 14.1463,
        "longitude": 121.4729
    },