[
    {
        "name": "Karachi",
        "country": "Pakistan",
        "province": "Sindh",
        "population": 11624219,
        "latitude": 24.8608,
        "longitude": 67.0104
    },
    {
        "name": "Lahore",
        "country": "Pakistan",
        "province": "Punjab",
        "population": 6310888,
        "latitude": 31.557996,
        "longitude": 74.350713
    },
    {
        "name": "Faisalabad",
        "country": "Pakistan",
        "province": "Punjab",
        "population": 2506595,
        "latitude": 31.415536,
        "longitude": 73.089693
    },
    {
        "name": "Rawalpindi",
        "country": "Pakistan",
        "province": "Punjab",
        "population": 1743101,
        "latitude": 33.597331,
        "longitude": 73.047904
    },
    {
        "name": "Peshawar",
        "country": "Pakistan",
        "province": "Khyber Pakhtunkhwa",
        "population": 1218773,
        "latitude": 34.008,
        "longitude": 71.578488
    },
    {
        "name": "Islamabad",
        "country": "Pakistan",
        "province": "Islamabad",
        "population": 601600,
        "latitude": 33.7214841359228,
        "longitude": 73.0432891845703
    },
    {
        "name": "Hyderābād",
        "country": "Pakistan",
        "province": "Sindh",
        "population": 1386330,
        "latitude": 25.39242,
        "longitude": 68.373656
    },
    {
        "name": "Quetta",
        "country": "Pakistan",
        "province": "Balochistan",
        "population": 733675,
        "latitude": 30.184138,
        "longitude": 67.00141
    },
    {
        "name": "Multan",
        "country": "Pakistan",
        "province": "Punjab",
        "population": 1437230,
        "latitude": 30.196789,
        "longitude": 71.478241
    },
    {
        "name": "Gujranwala",
        "country": "Pakistan",
        "province": "Punjab",
        "population": 1384471,
        "latitude": 32.155667,
        "longitude": 74.187052
    },
    {
        "name": "Rahim Yar Khan",
        "country": "Pakistan",
        "province": "Punjab",
        "population": 788915,
        "latitude": 28.419865,
        "longitude": 70.303449
    },
    {
        "name": "Muzaffarabad",
        "country": "Pakistan",
        "province": "Azad Kashmir",
        "population": 725000,
        "latitude": 34.37002,
        "longitude": 73.47082
    },
    {
        "name": "Mingora",
        "country": "Pakistan",
        "province": "Khyber Pakhtunkhwa",
        "population": 279914,
        "latitude": 34.779499,
        "longitude": 72.362648
    },
    {
        "name": "Siālkot",
        "country": "Pakistan",
        "province": "Punjab",
        "population": 477396,
        "latitude": 32.49268,
        "longitude": 74.53134
    },
    {
        "name": "Sargodha",
        "country": "Pakistan",
        "province": "Punjab",
        "population": 542603,
        "latitude": 32.085861,
        "longitude": 72.674178
    },
    {
        "name": "Dera Ghazi Khan",
        "country": "Pakistan",
        "province": "Punjab",
        "population": 236093,
        "latitude": 30.045871,
        "longitude": 70.64029
    },
    {
        "name": "Bahawalnagar",
        "country": "Pakistan",
        "province": "Punjab",
        "population": 126700,
        "latitude": 30.550833,
        "longitude": 73.390833
    },
    {
        "name": "Mardan",
        "country": "Pakistan",
        "province": "Khyber Pakhtunkhwa",
        "population": 300424,
        "latitude": 34.197943,
        "longitude": 72.04965
    },
    {
        "name": "Kotli",
        "country": "Pakistan",
        "province": "Azad Kashmir",
        "population": 640000,
        "latitude": 33.518362,
        "longitude": 73.902203
    },
    {
        "name": "Kot Addu",
        "country": "Pakistan",
        "province": "Punjab",
        "population": 104217,
        "latitude": 30.469067,
        "longitude": 70.96699
    },
    {
        "name": "Khuzdar",
        "country": "Pakistan",
        "province": "Balochistan",
        "population": 141227,
        "latitude": 27.811929,
        "longitude": 66.610962
    },
    {
        "name": "Khanpur",
        "country": "Pakistan",
        "province": "Punjab",
        "population": 142426,
        "latitude": 28.647391,
        "longitude": 70.656937
    },
    {
        "name": "Kamoke",
        "country": "Pakistan",
        "province": "Punjab",
        "population": 199531,
        "latitude": 31.975263,
        "longitude": 74.223038
    },
    {
        "name": "Kamalia",
        "country": "Pakistan",
        "province": "Punjab",
        "population": 112426,
        "latitude": 30.727081,
        "longitude": 72.646066
    },
    {
        "name": "Jhelum",
        "country": "Pakistan",
        "province": "Punjab",
        "population": 145000,
        "latitude": 32.934484,
        "longitude": 73.731018
    },
    {
        "name": "Jhang Sadr",
        "country": "Pakistan",
        "province": "Punjab",
        "population": 341210,
        "latitude": 31.269811,
        "longitude": 72.316867
    },
    {
        "name": "Jaranwala",
        "country": "Pakistan",
        "province": "Punjab",
        "population": 119785,
        "latitude": 31.333203,
        "longitude": 73.418683
    },
    {
        "name": "Jacobabad",
        "country": "Pakistan",
        "province": "Sindh",
        "population": 170588,
        "latitude": 28.281873,
        "longitude": 68.437613
    },
    {
        "name": "Gwadar",
        "country": "Pakistan",
        "province": "Balochistan",
        "population": 51901,
        "latitude": 25.12163,
        "longitude": 62.325411
    },
    {
        "name": "Gujrat",
        "country": "Pakistan",
        "province": "Punjab",
        "population": 301506,
        "latitude": 32.574204,
        "longitude": 74.075423
    },
    {
        "name": "Gojra",
        "country": "Pakistan",
        "province": "Punjab",
        "population": 139726,
        "latitude": 31.149265,
        "longitude": 72.683228
    },
    {
        "name": "Sahiwal",
        "country": "Pakistan",
        "province": "Punjab",
        "population": 235695,
        "latitude": 30.665952,
        "longitude": 73.101856
    },
    {
        "name": "Saddiqabad",
        "country": "Pakistan",
        "province": "Punjab",
        "population": 189876,
        "latitude": 28.309103,
        "longitude": 70.126518
    },
    {
        "name": "Muzaffargarh",
        "country": "Pakistan",
        "province": "Punjab",
        "population": 165192,
        "latitude": 30.072576,
        "longitude": 71.193788
    },
    {
        "name": "Muridke",
        "country": "Pakistan",
        "province": "Punjab",
        "population": 164246,
        "latitude": 31.802581,
        "longitude": 74.257725
    },
    {
        "name": "Mirpur Khas",
        "country": "Pakistan",
        "province": "Sindh",
        "population": 215657,
        "latitude": 25.527598,
        "longitude": 69.012545
    },
    {
        "name": "Khairpur",
        "country": "Pakistan",
        "province": "Sindh",
        "population": 124602,
        "latitude": 27.529484,
        "longitude": 68.759153
    },
    {
        "name": "Wazirabad",
        "country": "Pakistan",
        "province": "Punjab",
        "population": 102444,
        "latitude": 32.443242,
        "longitude": 74.120002
    },
    {
        "name": "Turbat",
        "country": "Pakistan",
        "province": "Balochistan",
        "population": 75694,
        "latitude": 26.001224,
        "longitude": 63.048491
    },
    {
        "name": "Tordher",
        "country": "Pakistan",
        "province": "Khyber Pakhtunkhwa",
        "population": 150000,
        "latitude": 33.990473,
        "longitude": 72.2863
    },
    {
        "name": "Tando Adam",
        "country": "Pakistan",
        "province": "Sindh",
        "population": 125598,
        "latitude": 25.768181,
        "longitude": 68.661956
    },
    {
        "name": "Sukkur",
        "country": "Pakistan",
        "province": "Sindh",
        "population": 417767,
        "latitude": 27.70323,
        "longitude": 68.858889
    },
    {
        "name": "Shekhupura",
        "country": "Pakistan",
        "province": "Punjab",
        "population": 361303,
        "latitude": 31.712874,
        "longitude": 73.985561
    },
    {
        "name": "Shahkot",
        "country": "Pakistan",
        "province": "Punjab",
        "population": 200000,
        "latitude": 31.570898523293973,
        "longitude": 73.48530650138855
    },
    {
        "name": "Chishtian",
        "country": "Pakistan",
        "province": "Punjab",
        "population": 122199,
        "latitude": 29.797131,
        "longitude": 72.857721
    },
    {
        "name": "Chiniot",
        "country": "Pakistan",
        "province": "Punjab",
        "population": 201781,
        "latitude": 31.720911,
        "longitude": 72.978363
    },
    {
        "name": "Chaman",
        "country": "Pakistan",
        "province": "Balochistan",
        "population": 88568,
        "latitude": 30.917689,
        "longitude": 66.45259
    },
    {
        "name": "Burewala",
        "country": "Pakistan",
        "province": "Punjab",
        "population": 183915,
        "latitude": 30.166667,
        "longitude": 72.65
    },
    {
        "name": "Battagram City",
        "country": "Pakistan",
        "province": "Khyber Pakhtunkhwa",
        "population": 700000,
        "latitude": 34.67719381005672,
        "longitude": 73.02329063415527
    },
    {
        "name": "Bahawalpur",
        "country": "Pakistan",
        "province": "Punjab",
        "population": 552607,
        "latitude": 29.397793,
        "longitude": 71.675204
    },
    {
        "name": "Bahawalpur",
        "country": "Pakistan",
        "province": "Punjab",
        "population": 126617,
        "latitude": 29.998346,
        "longitude": 73.252722
    },
    {
        "name": "Ahmadpur East",
        "country": "Pakistan",
        "province": "Punjab",
        "population": 116579,
        "latitude": 29.142687,
        "longitude": 71.257706
    },
    {
        "name": "Matli",
        "country": "Pakistan",
        "province": "Sindh",
        "population": 50398,
        "latitude": 25.042902,
        "longitude": 68.655914
    },
    {
        "name": "Mandi Bahauddin",
        "country": "Pakistan",
        "province": "Punjab",
        "population": 129733,
        "latitude": 32.587037,
        "longitude": 73.491231
    },
    {
        "name": "Malir Cantonment",
        "country": "Pakistan",
        "province": "Sindh",
        "population": 300000,
        "latitude": 24.943432,
        "longitude": 67.205913
    },
    {
        "name": "Mailsi",
        "country": "Pakistan",
        "province": "Punjab",
        "population": 64545,
        "latitude": 29.801227,
        "longitude": 72.173979
    },
    {
        "name": "Lodhran",
        "country": "Pakistan",
        "province": "Punjab",
        "population": 97249,
        "latitude": 29.533897,
        "longitude": 71.632436
    },
    {
        "name": "Layyah",
        "country": "Pakistan",
        "province": "Punjab",
        "population": 78954,
        "latitude": 30.961279,
        "longitude": 70.939043
    },
    {
        "name": "Larkana",
        "country": "Pakistan",
        "province": "Sindh",
        "population": 364033,
        "latitude": 27.558985,
        "longitude": 68.212035
    },
    {
        "name": "Lalamusa",
        "country": "Pakistan",
        "province": "Punjab",
        "population": 65197,
        "latitude": 32.701381,
        "longitude": 73.957464
    },
    {
        "name": "Kotri",
        "country": "Pakistan",
        "province": "Sindh",
        "population": 72672,
        "latitude": 25.365658,
        "longitude": 68.308307
    },
    {
        "name": "Kohat",
        "country": "Pakistan",
        "province": "Khyber Pakhtunkhwa",
        "population": 151427,
        "latitude": 33.581958,
        "longitude": 71.449291
    },
    {
        "name": "Khushāb",
        "country": "Pakistan",
        "province": "Punjab",
        "population": 102793,
        "latitude": 32.296667,
        "longitude": 72.3525
    },
    {
        "name": "Kharian",
        "country": "Pakistan",
        "province": "Punjab",
        "population": 81435,
        "latitude": 32.816123,
        "longitude": 73.886967
    },
    {
        "name": "Kasur",
        "country": "Pakistan",
        "province": "Punjab",
        "population": 290643,
        "latitude": 31.118662,
        "longitude": 74.450253
    },
    {
        "name": "Kandhkot",
        "country": "Pakistan",
        "province": "Sindh",
        "population": 88468,
        "latitude": 28.24574,
        "longitude": 69.17974
    },
    {
        "name": "Kahror Pakka",
        "country": "Pakistan",
        "province": "Punjab",
        "population": 69743,
        "latitude": 29.624304,
        "longitude": 71.914367
    },
    {
        "name": "Kabirwala",
        "country": "Pakistan",
        "province": "Punjab",
        "population": 60782,
        "latitude": 30.40472,
        "longitude": 71.862692
    },
    {
        "name": "Jampur",
        "country": "Pakistan",
        "province": "Punjab",
        "population": 63791,
        "latitude": 29.642348,
        "longitude": 70.595179
    },
    {
        "name": "Jalalpur Jattan",
        "country": "Pakistan",
        "province": "Punjab",
        "population": 93883,
        "latitude": 32.641184,
        "longitude": 74.205614
    },
    {
        "name": "Hujra Shah Muqim",
        "country": "Pakistan",
        "province": "Punjab",
        "population": 61546,
        "latitude": 30.741678,
        "longitude": 73.823267
    },
    {
        "name": "Haveli Lakha",
        "country": "Pakistan",
        "province": "Punjab",
        "population": 65289,
        "latitude": 30.450972,
        "longitude": 73.693711
    },
    {
        "name": "Hasilpur",
        "country": "Pakistan",
        "province": "Punjab",
        "population": 88031,
        "latitude": 29.692205,
        "longitude": 72.545663
    },
    {
        "name": "Harunabad",
        "country": "Pakistan",
        "province": "Punjab",
        "population": 72432,
        "latitude": 29.612055,
        "longitude": 73.138023
    },
    {
        "name": "Harappa",
        "country": "Pakistan",
        "province": "Punjab",
        "population": -1,
        "latitude": 30.632512,
        "longitude": 72.870321
    },
    {
        "name": "Hafizabad",
        "country": "Pakistan",
        "province": "Punjab",
        "population": 153656,
        "latitude": 32.070948,
        "longitude": 73.688021
    },
    {
        "name": "Gujar Khan",
        "country": "Pakistan",
        "province": "Punjab",
        "population": 69374,
        "latitude": 33.254108,
        "longitude": 73.30433
    },
    {
        "name": "Gilgit",
        "country": "Pakistan",
        "province": "Gilgit-Baltistan",
        "population": 10414,
        "latitude": 35.918685,
        "longitude": 74.312451
    },
    {
        "name": "Dipalpur",
        "country": "Pakistan",
        "province": "Punjab",
        "population": 74640,
        "latitude": 30.669843,
        "longitude": 73.653063
    },
    {
        "name": "Sangla Hill",
        "country": "Pakistan",
        "province": "Punjab",
        "population": 57002,
        "latitude": 31.7166667,
        "longitude": 73.3833333
    },
    {
        "name": "Sambrial",
        "country": "Pakistan",
        "province": "Punjab",
        "population": 62874,
        "latitude": 32.478348,
        "longitude": 74.353377
    },
    {
        "name": "Rohri",
        "country": "Pakistan",
        "province": "Sindh",
        "population": 50649,
        "latitude": 27.692031,
        "longitude": 68.895032
    },
    {
        "name": "Chenab Nagar",
        "country": "Pakistan",
        "province": "Punjab",
        "population": 70000,
        "latitude": 31.755106,
        "longitude": 72.914034
    },
    {
        "name": "Kambar",
        "country": "Pakistan",
        "province": "Sindh",
        "population": 77481,
        "latitude": 27.587528,
        "longitude": 68.000658
    },
    {
        "name": "Pattoki",
        "country": "Pakistan",
        "province": "Punjab",
        "population": 70436,
        "latitude": 31.020207,
        "longitude": 73.853331
    },
    {
        "name": "Pasrur",
        "country": "Pakistan",
        "province": "Punjab",
        "population": 53364,
        "latitude": 32.26286,
        "longitude": 74.663272
    },
    {
        "name": "Pano Aqil",
        "country": "Pakistan",
        "province": "Sindh",
        "population": 72881,
        "latitude": 27.856187,
        "longitude": 69.111113
    },
    {
        "name": "Pakpattan",
        "country": "Pakistan",
        "province": "Punjab",
        "population": 126706,
        "latitude": 30.343145,
        "longitude": 73.389438
    },
    {
        "name": "Okara",
        "country": "Pakistan",
        "province": "Punjab",
        "population": 223648,
        "latitude": 30.810287,
        "longitude": 73.451551
    },
    {
        "name": "New Mirpur",
        "country": "Pakistan",
        "province": "Azad Kashmir",
        "population": 124352,
        "latitude": 33.147815,
        "longitude": 73.751867
    },
    {
        "name": "Nawabshah",
        "country": "Pakistan",
        "province": "Sindh",
        "population": 229504,
        "latitude": 26.239386,
        "longitude": 68.403693
    },
    {
        "name": "Nankana Sahib",
        "country": "Pakistan",
        "province": "Punjab",
        "population": 56366,
        "latitude": 31.450099,
        "longitude": 73.706533
    },
    {
        "name": "Moro",
        "country": "Pakistan",
        "province": "Sindh",
        "population": 76765,
        "latitude": 26.663172,
        "longitude": 68.000158
    },
    {
        "name": "Mianwali",
        "country": "Pakistan",
        "province": "Punjab",
        "population": 89570,
        "latitude": 32.577563,
        "longitude": 71.528468
    },
    {
        "name": "Mian Channu",
        "country": "Pakistan",
        "province": "Punjab",
        "population": 76226,
        "latitude": 30.440671,
        "longitude": 72.356793
    },
    {
        "name": "Vehari",
        "country": "Pakistan",
        "province": "Punjab",
        "population": 112840,
        "latitude": 30.044496,
        "longitude": 72.355602
    },
    {
        "name": "Thatta",
        "country": "Pakistan",
        "province": "Sindh",
        "population": 44302,
        "latitude": 24.747449,
        "longitude": 67.923528
    },
    {
        "name": "Tando Allahyar",
        "country": "Pakistan",
        "province": "Sindh",
        "population": 127202,
        "latitude": 25.460495,
        "longitude": 68.717453
    },
    {
        "name": "Swabi",
        "country": "Pakistan",
        "province": "Khyber Pakhtunkhwa",
        "population": 97363,
        "latitude": 34.120181,
        "longitude": 72.46982
    },
    {
        "name": "Sibi",
        "country": "Pakistan",
        "province": "Balochistan",
        "population": 64069,
        "latitude": 29.542989,
        "longitude": 67.87726
    },
    {
        "name": "Shujaabad",
        "country": "Pakistan",
        "province": "Punjab",
        "population": 65952,
        "latitude": 29.880915,
        "longitude": 71.293442
    },
    {
        "name": "Shorkot",
        "country": "Pakistan",
        "province": "Khyber Pakhtunkhwa",
        "population": 67439,
        "latitude": 31.910234,
        "longitude": 70.877572
    },
    {
        "name": "Shikarpur",
        "country": "Pakistan",
        "province": "Sindh",
        "population": 156901,
        "latitude": 27.95558,
        "longitude": 68.638229
    },
    {
        "name": "Shakargarh",
        "country": "Pakistan",
        "province": "Punjab",
        "population": 64304,
        "latitude": 32.263606,
        "longitude": 75.160076
    },
    {
        "name": "Shahdadpur",
        "country": "Pakistan",
        "province": "Sindh",
        "population": 67249,
        "latitude": 25.925387,
        "longitude": 68.622796
    },
    {
        "name": "Shahdad Kot",
        "country": "Pakistan",
        "province": "Sindh",
        "population": 75411,
        "latitude": 27.847263,
        "longitude": 67.906789
    },
    {
        "name": "Shabqadar",
        "country": "Pakistan",
        "province": "Khyber Pakhtunkhwa",
        "population": 66541,
        "latitude": 34.21599,
        "longitude": 71.554796
    },
    {
        "name": "Abbottabad",
        "country": "Pakistan",
        "province": "Khyber Pakhtunkhwa",
        "population": 120000,
        "latitude": 34.1463,
        "longitude": 73.211684
    },
    {
        "name": "Dera Ismail Khan",
        "country": "Pakistan",
        "province": "Khyber Pakhtunkhwa",
        "population": 101616,
        "latitude": 31.831287,
        "longitude": 70.9017
    },
    {
        "name": "Daska Kalan",
        "country": "Pakistan",
        "province": "Punjab",
        "population": 126924,
        "latitude": 32.324218,
        "longitude": 74.350389
    },
    {
        "name": "Dadu",
        "country": "Pakistan",
        "province": "Sindh",
        "population": 139784,
        "latitude": 26.730334,
        "longitude": 67.776896
    },
    {
        "name": "Chunian",
        "country": "Pakistan",
        "province": "Punjab",
        "population": 57312,
        "latitude": 30.966211,
        "longitude": 73.97908
    },
    {
        "name": "Chuhar Kana",
        "country": "Pakistan",
        "province": "Punjab",
        "population": 69321,
        "latitude": 31.75,
        "longitude": 73.8
    },
    {
        "name": "Chichawatni",
        "country": "Pakistan",
        "province": "Punjab",
        "population": 82762,
        "latitude": 30.530099,
        "longitude": 72.691555
    },
    {
        "name": "Charsadda",
        "country": "Pakistan",
        "province": "Khyber Pakhtunkhwa",
        "population": 95319,
        "latitude": 34.148221,
        "longitude": 71.740604
    },
    {
        "name": "Chakwal",
        "country": "Pakistan",
        "province": "Punjab",
        "population": 101200,
        "latitude": 32.932864,
        "longitude": 72.853937
    },
    {
        "name": "Bhimber",
        "country": "Pakistan",
        "province": "Azad Kashmir",
        "population": 342900,
        "latitude": 32.974654,
        "longitude": 74.078464
    },
    {
        "name": "Bhalwal",
        "country": "Pakistan",
        "province": "Punjab",
        "population": 74744,
        "latitude": 32.265762,
        "longitude": 72.898093
    },
    {
        "name": "Bhakkar",
        "country": "Pakistan",
        "province": "Punjab",
        "population": 81950,
        "latitude": 31.626854,
        "longitude": 71.064713
    },
    {
        "name": "Mianke Mor",
        "country": "Pakistan",
        "province": "Punjab",
        "population": 86900,
        "latitude": 31.202399,
        "longitude": 73.948569
    },
    {
        "name": "Bannu",
        "country": "Pakistan",
        "province": "Khyber Pakhtunkhwa",
        "population": 49008,
        "latitude": 32.985269,
        "longitude": 70.60403
    },
    {
        "name": "Badin",
        "country": "Pakistan",
        "province": "Sindh",
        "population": 73569,
        "latitude": 24.655995,
        "longitude": 68.836997
    },
    {
        "name": "Attock City",
        "country": "Pakistan",
        "province": "Punjab",
        "population": 85479,
        "latitude": 33.76671,
        "longitude": 72.359766
    },
    {
        "name": "Arifwala",
        "country": "Pakistan",
        "province": "Punjab",
        "population": 87360,
        "latitude": 30.290579,
        "longitude": 73.065741
    },
    {
        "name": "Nowshera Cantonment",
        "country": "Pakistan",
        "province": "Khyber Pakhtunkhwa",
        "population": 96766,
        "latitude": 33.998286,
        "longitude": 71.998336
    },
    {
        "name": "Mastung",
        "country": "Pakistan",
        "province": "Balochistan",
        "population": 29082,
        "latitude": 29.799656,
        "longitude": 66.845527
    },
    {
        "name": "Mansehra",
        "country": "Pakistan",
        "province": "Khyber Pakhtunkhwa",
        "population": 66486,
        "latitude": 34.330232,
        "longitude": 73.196788
    },
    {
        "name": "Mankera",
        "country": "Pakistan",
        "province": "Punjab",
        "population": 10819,
        "latitude": 31.387709,
        "longitude": 71.440473
    },
    {
        "name": "Mananwala",
        "country": "Pakistan",
        "province": "Punjab",
        "population": 28432,
        "latitude": 31.58803,
        "longitude": 73.689268
    },
    {
        "name": "Mamu Kanjan",
        "country": "Pakistan",
        "province": "Punjab",
        "population": 31914,
        "latitude": 30.830435,
        "longitude": 72.799427
    },
    {
        "name": "Malakwal",
        "country": "Pakistan",
        "province": "Punjab",
        "population": 34589,
        "latitude": 32.554489,
        "longitude": 73.212737
    },
    {
        "name": "Mach",
        "country": "Pakistan",
        "province": "Balochistan",
        "population": 16930,
        "latitude": 29.86371,
        "longitude": 67.330184
    },
    {
        "name": "Loralai",
        "country": "Pakistan",
        "province": "Balochistan",
        "population": 37787,
        "latitude": 30.370512,
        "longitude": 68.597949
    },
    {
        "name": "Lalian",
        "country": "Pakistan",
        "province": "Punjab",
        "population": 31355,
        "latitude": 31.824615,
        "longitude": 72.801161
    },
    {
        "name": "Lakki",
        "country": "Pakistan",
        "province": "Khyber Pakhtunkhwa",
        "population": 36391,
        "latitude": 32.607236,
        "longitude": 70.912336
    },
    {
        "name": "Kunri",
        "country": "Pakistan",
        "province": "Sindh",
        "population": 26773,
        "latitude": 25.178743,
        "longitude": 69.565716
    },
    {
        "name": "Kunjah",
        "country": "Pakistan",
        "province": "Punjab",
        "population": 28103,
        "latitude": 32.529818,
        "longitude": 73.974859
    },
    {
        "name": "Kundian",
        "country": "Pakistan",
        "province": "Punjab",
        "population": 35406,
        "latitude": 32.457747,
        "longitude": 71.478918
    },
    {
        "name": "Kulachi",
        "country": "Pakistan",
        "province": "Khyber Pakhtunkhwa",
        "population": 22376,
        "latitude": 31.930579,
        "longitude": 70.459586
    },
    {
        "name": "Kot Radha Kishan",
        "country": "Pakistan",
        "province": "Punjab",
        "population": 45938,
        "latitude": 31.170683,
        "longitude": 74.101256
    },
    {
        "name": "Kot Mumin",
        "country": "Pakistan",
        "province": "Punjab",
        "population": 38355,
        "latitude": 32.188429,
        "longitude": 73.029865
    },
    {
        "name": "Kot Diji",
        "country": "Pakistan",
        "province": "Sindh",
        "population": 25616,
        "latitude": 27.341561,
        "longitude": 68.708215
    },
    {
        "name": "Khurrianwala",
        "country": "Pakistan",
        "province": "Punjab",
        "population": 35292,
        "latitude": 31.499364,
        "longitude": 73.267631
    },
    {
        "name": "Khewra",
        "country": "Pakistan",
        "province": "Punjab",
        "population": 32620,
        "latitude": 32.649104,
        "longitude": 73.010591
    },
    {
        "name": "Kharan",
        "country": "Pakistan",
        "province": "Balochistan",
        "population": 30841,
        "latitude": 28.584585,
        "longitude": 65.415007
    },
    {
        "name": "Khanpur Mahar",
        "country": "Pakistan",
        "province": "Sindh",
        "population": 22273,
        "latitude": 27.840884,
        "longitude": 69.413016
    },
    {
        "name": "Khangarh",
        "country": "Pakistan",
        "province": "Punjab",
        "population": 19698,
        "latitude": 29.914455,
        "longitude": 71.160667
    },
    {
        "name": "Khangah Dogran",
        "country": "Pakistan",
        "province": "Punjab",
        "population": 30314,
        "latitude": 31.832942,
        "longitude": 73.62213
    },
    {
        "name": "Khairpur Nathan Shah",
        "country": "Pakistan",
        "province": "Sindh",
        "population": 30286,
        "latitude": 27.090638,
        "longitude": 67.734889
    },
    {
        "name": "Khairpur Tamewah",
        "country": "Pakistan",
        "province": "Punjab",
        "population": 30967,
        "latitude": 29.581388,
        "longitude": 72.23804
    },
    {
        "name": "Khairpur",
        "country": "Pakistan",
        "province": "Sindh",
        "population": 40083,
        "latitude": 28.064366,
        "longitude": 69.703631
    },
    {
        "name": "Kashmor",
        "country": "Pakistan",
        "province": "Sindh",
        "population": 33732,
        "latitude": 28.432596,
        "longitude": 69.583638
    },
    {
        "name": "Karor",
        "country": "Pakistan",
        "province": "Punjab",
        "population": 25634,
        "latitude": 31.224599,
        "longitude": 70.95153
    },
    {
        "name": "Kanganpur",
        "country": "Pakistan",
        "province": "Punjab",
        "population": 21788,
        "latitude": 30.764682,
        "longitude": 74.122864
    },
    {
        "name": "Kandiaro",
        "country": "Pakistan",
        "province": "Sindh",
        "population": 26807,
        "latitude": 27.059181,
        "longitude": 68.210222
    },
    {
        "name": "Kamra",
        "country": "Pakistan",
        "province": "Punjab",
        "population": 43779,
        "latitude": 33.746978,
        "longitude": 73.512295
    },
    {
        "name": "Kamar Mushani",
        "country": "Pakistan",
        "province": "Punjab",
        "population": 15867,
        "latitude": 32.843184,
        "longitude": 71.361918
    },
    {
        "name": "Kalur Kot",
        "country": "Pakistan",
        "province": "Punjab",
        "population": 25574,
        "latitude": 32.155117,
        "longitude": 71.266313
    },
    {
        "name": "Kallar Kahar",
        "country": "Pakistan",
        "province": "Punjab",
        "population": 15800,
        "latitude": 32.779977,
        "longitude": 72.697926
    },
    {
        "name": "Kalat",
        "country": "Pakistan",
        "province": "Balochistan",
        "population": 26701,
        "latitude": 29.026629,
        "longitude": 66.593607
    },
    {
        "name": "Kalabagh",
        "country": "Pakistan",
        "province": "Punjab",
        "population": 15976,
        "latitude": 32.961635,
        "longitude": 71.546383
    },
    {
        "name": "Kahuta",
        "country": "Pakistan",
        "province": "Punjab",
        "population": 22551,
        "latitude": 33.591834,
        "longitude": 73.38736
    },
    {
        "name": "Kahna Nau",
        "country": "Pakistan",
        "province": "Punjab",
        "population": 45888,
        "latitude": 31.367095,
        "longitude": 74.368986
    },
    {
        "name": "Jiwani",
        "country": "Pakistan",
        "province": "Balochistan",
        "population": 16322,
        "latitude": 25.04852,
        "longitude": 61.745728
    },
    {
        "name": "Chak Jhumra",
        "country": "Pakistan",
        "province": "Punjab",
        "population": 37214,
        "latitude": 31.568077,
        "longitude": 73.183168
    },
    {
        "name": "Jhol",
        "country": "Pakistan",
        "province": "Sindh",
        "population": 16067,
        "latitude": 25.955329,
        "longitude": 68.88871
    },
    {
        "name": "Jhawarian",
        "country": "Pakistan",
        "province": "Punjab",
        "population": 27893,
        "latitude": 32.361916,
        "longitude": 72.622746
    },
    {
        "name": "Jauharabad",
        "country": "Pakistan",
        "province": "Punjab",
        "population": 46545,
        "latitude": 32.290163,
        "longitude": 72.281821
    },
    {
        "name": "Jandiala Sher Khan",
        "country": "Pakistan",
        "province": "Punjab",
        "population": 10985,
        "latitude": 31.820982,
        "longitude": 73.918153
    },
    {
        "name": "Jand",
        "country": "Pakistan",
        "province": "Punjab",
        "population": 18170,
        "latitude": 33.433037,
        "longitude": 72.018771
    },
    {
        "name": "Jalalpur Pirwala",
        "country": "Pakistan",
        "province": "Punjab",
        "population": 37393,
        "latitude": 29.505098,
        "longitude": 71.222022
    },
    {
        "name": "Hazro City",
        "country": "Pakistan",
        "province": "Punjab",
        "population": 26309,
        "latitude": 33.909902,
        "longitude": 72.491787
    },
    {
        "name": "Havelian",
        "country": "Pakistan",
        "province": "Khyber Pakhtunkhwa",
        "population": 40481,
        "latitude": 34.053478,
        "longitude": 73.159929
    },
    {
        "name": "Chak Thirty-one -Eleven Left",
        "country": "Pakistan",
        "province": "Punjab",
        "population": 45665,
        "latitude": 30.423877,
        "longitude": 72.697372
    },
    {
        "name": "Harnai",
        "country": "Pakistan",
        "province": "Balochistan",
        "population": 11066,
        "latitude": 30.10077,
        "longitude": 67.938242
    },
    {
        "name": "Haripur",
        "country": "Pakistan",
        "province": "Khyber Pakhtunkhwa",
        "population": 56977,
        "latitude": 33.997831,
        "longitude": 72.934926
    },
    {
        "name": "Hangu",
        "country": "Pakistan",
        "province": "Khyber Pakhtunkhwa",
        "population": 36150,
        "latitude": 33.53198,
        "longitude": 71.059499
    },
    {
        "name": "Hala",
        "country": "Pakistan",
        "province": "Sindh",
        "population": 47915,
        "latitude": 25.814591,
        "longitude": 68.421981
    },
    {
        "name": "Ghotki",
        "country": "Pakistan",
        "province": "Sindh",
        "population": 64295,
        "latitude": 28.004369,
        "longitude": 69.315694
    },
    {
        "name": "Gharo",
        "country": "Pakistan",
        "province": "Sindh",
        "population": 19524,
        "latitude": 24.741822,
        "longitude": 67.585339
    },
    {
        "name": "Garh Maharaja",
        "country": "Pakistan",
        "province": "Punjab",
        "population": 29153,
        "latitude": 30.833831,
        "longitude": 71.904909
    },
    {
        "name": "Garhiyasin",
        "country": "Pakistan",
        "province": "Sindh",
        "population": 14810,
        "latitude": 27.906307,
        "longitude": 68.512101
    },
    {
        "name": "Garhi Khairo",
        "country": "Pakistan",
        "province": "Balochistan",
        "population": 13666,
        "latitude": 28.060285,
        "longitude": 67.980328
    },
    {
        "name": "Gambat",
        "country": "Pakistan",
        "province": "Sindh",
        "population": 34005,
        "latitude": 27.351701,
        "longitude": 68.521501
    },
    {
        "name": "Gadani",
        "country": "Pakistan",
        "province": "Balochistan",
        "population": 13427,
        "latitude": 25.118793,
        "longitude": 66.732192
    },
    {
        "name": "Fort Abbas",
        "country": "Pakistan",
        "province": "Punjab",
        "population": 40626,
        "latitude": 29.193435,
        "longitude": 72.855247
    },
    {
        "name": "Faruka",
        "country": "Pakistan",
        "province": "Punjab",
        "population": 21747,
        "latitude": 31.886419,
        "longitude": 72.413617
    },
    {
        "name": "Faqirwali",
        "country": "Pakistan",
        "province": "Punjab",
        "population": 25186,
        "latitude": 29.467988,
        "longitude": 73.034893
    },
    {
        "name": "Eminabad",
        "country": "Pakistan",
        "province": "Punjab",
        "population": 22679,
        "latitude": 32.042368,
        "longitude": 74.259964
    },
    {
        "name": "Dunyapur",
        "country": "Pakistan",
        "province": "Punjab",
        "population": 34044,
        "latitude": 29.802751,
        "longitude": 71.743438
    },
    {
        "name": "Dunga Bunga",
        "country": "Pakistan",
        "province": "Punjab",
        "population": 25893,
        "latitude": 29.749749,
        "longitude": 73.242937
    },
    {
        "name": "Dullewala",
        "country": "Pakistan",
        "province": "Punjab",
        "population": 48682,
        "latitude": 31.83439,
        "longitude": 71.436394
    },
    {
        "name": "Dokri",
        "country": "Pakistan",
        "province": "Sindh",
        "population": 14800,
        "latitude": 27.374212,
        "longitude": 68.097147
    },
    {
        "name": "Dīr",
        "country": "Pakistan",
        "province": "Khyber Pakhtunkhwa",
        "population": 29869,
        "latitude": 35.207398,
        "longitude": 71.876801
    },
    {
        "name": "Dinga",
        "country": "Pakistan",
        "province": "Punjab",
        "population": 39784,
        "latitude": 32.641011,
        "longitude": 73.720393
    },
    {
        "name": "Dijkot",
        "country": "Pakistan",
        "province": "Punjab",
        "population": 27469,
        "latitude": 31.217352,
        "longitude": 72.996213
    },
    {
        "name": "Digri",
        "country": "Pakistan",
        "province": "Sindh",
        "population": 31842,
        "latitude": 25.156567,
        "longitude": 69.110976
    },
    {
        "name": "Dhaunkal",
        "country": "Pakistan",
        "province": "Punjab",
        "population": 12117,
        "latitude": 32.406126,
        "longitude": 74.13706
    },
    {
        "name": "Dhanote",
        "country": "Pakistan",
        "province": "Punjab",
        "population": 18729,
        "latitude": 29.579912,
        "longitude": 71.752127
    },
    {
        "name": "Sanghar",
        "country": "Pakistan",
        "province": "Sindh",
        "population": 62033,
        "latitude": 26.046944,
        "longitude": 68.94917
    },
    {
        "name": "Sakrand",
        "country": "Pakistan",
        "province": "Sindh",
        "population": 31630,
        "latitude": 26.138452,
        "longitude": 68.274442
    },
    {
        "name": "Sahiwal",
        "country": "Pakistan",
        "province": "Punjab",
        "population": 37186,
        "latitude": 31.973864,
        "longitude": 72.331086
    },
    {
        "name": "Rojhan",
        "country": "Pakistan",
        "province": "Punjab",
        "population": 13031,
        "latitude": 28.68735,
        "longitude": 69.953501
    },
    {
        "name": "Renala Khurd",
        "country": "Pakistan",
        "province": "Punjab",
        "population": 37111,
        "latitude": 30.878782,
        "longitude": 73.59857
    },
    {
        "name": "Ratodero",
        "country": "Pakistan",
        "province": "Sindh",
        "population": 47819,
        "latitude": 27.802273,
        "longitude": 68.289021
    },
    {
        "name": "Ranipur",
        "country": "Pakistan",
        "province": "Sindh",
        "population": 22495,
        "latitude": 27.287195,
        "longitude": 68.506234
    },
    {
        "name": "Rajanpur",
        "country": "Pakistan",
        "province": "Punjab",
        "population": 50682,
        "latitude": 29.104076,
        "longitude": 70.329691
    },
    {
        "name": "Raja Jang",
        "country": "Pakistan",
        "province": "Punjab",
        "population": 24407,
        "latitude": 31.220778,
        "longitude": 74.254832
    },
    {
        "name": "Raiwind",
        "country": "Pakistan",
        "province": "Punjab",
        "population": 31592,
        "latitude": 31.248954,
        "longitude": 74.215342
    },
    {
        "name": "Qadirpur Ran",
        "country": "Pakistan",
        "province": "Punjab",
        "population": 20407,
        "latitude": 30.291841,
        "longitude": 71.671638
    },
    {
        "name": "Pir Mahal",
        "country": "Pakistan",
        "province": "Punjab",
        "population": 35343,
        "latitude": 30.76663,
        "longitude": 72.434547
    },
    {
        "name": "Pindi Gheb",
        "country": "Pakistan",
        "province": "Punjab",
        "population": 34301,
        "latitude": 33.240952,
        "longitude": 72.264803
    },
    {
        "name": "Pindi Bhattian",
        "country": "Pakistan",
        "province": "Punjab",
        "population": 35088,
        "latitude": 31.898438,
        "longitude": 73.273395
    },
    {
        "name": "Pind Dadan Khan",
        "country": "Pakistan",
        "province": "Punjab",
        "population": 22001,
        "latitude": 32.586621,
        "longitude": 73.044559
    },
    {
        "name": "Phalia",
        "country": "Pakistan",
        "province": "Punjab",
        "population": 24789,
        "latitude": 32.431038,
        "longitude": 73.578998
    },
    {
        "name": "Pasni",
        "country": "Pakistan",
        "province": "Balochistan",
        "population": 33110,
        "latitude": 25.26302,
        "longitude": 63.46921
    },
    {
        "name": "Paharpur",
        "country": "Pakistan",
        "province": "Khyber Pakhtunkhwa",
        "population": 17294,
        "latitude": 32.105024,
        "longitude": 70.970548
    },
    {
        "name": "Pabbi",
        "country": "Pakistan",
        "province": "Khyber Pakhtunkhwa",
        "population": 37307,
        "latitude": 34.009682,
        "longitude": 71.794452
    },
    {
        "name": "Ormara",
        "country": "Pakistan",
        "province": "Balochistan",
        "population": 13026,
        "latitude": 25.210185,
        "longitude": 64.636259
    },
    {
        "name": "Nushki",
        "country": "Pakistan",
        "province": "Balochistan",
        "population": 27680,
        "latitude": 29.552178,
        "longitude": 66.022877
    },
    {
        "name": "Naushahra Virkan",
        "country": "Pakistan",
        "province": "Punjab",
        "population": 40853,
        "latitude": 31.962577,
        "longitude": 73.97117
    },
    {
        "name": "Naudero",
        "country": "Pakistan",
        "province": "Sindh",
        "population": 33455,
        "latitude": 27.666841,
        "longitude": 68.360897
    },
    {
        "name": "Nasirabad",
        "country": "Pakistan",
        "province": "Sindh",
        "population": 27809,
        "latitude": 27.381366,
        "longitude": 67.916439
    },
    {
        "name": "Narowal",
        "country": "Pakistan",
        "province": "Punjab",
        "population": 68291,
        "latitude": 32.101972,
        "longitude": 74.873033
    },
    {
        "name": "Narang Mandi",
        "country": "Pakistan",
        "province": "Punjab",
        "population": 34778,
        "latitude": 31.903761,
        "longitude": 74.515871
    },
    {
        "name": "Mustafabad",
        "country": "Pakistan",
        "province": "Punjab",
        "population": 45795,
        "latitude": 30.892222,
        "longitude": 73.498889
    },
    {
        "name": "Murree",
        "country": "Pakistan",
        "province": "Punjab",
        "population": 25247,
        "latitude": 33.90836,
        "longitude": 73.3903
    },
    {
        "name": "Mithi",
        "country": "Pakistan",
        "province": "Sindh",
        "population": 23431,
        "latitude": 24.737013,
        "longitude": 69.797067
    },
    {
        "name": "Mitha Tiwana",
        "country": "Pakistan",
        "province": "Punjab",
        "population": 26390,
        "latitude": 32.2454,
        "longitude": 72.106146
    },
    {
        "name": "Mirpur Mathelo",
        "country": "Pakistan",
        "province": "Sindh",
        "population": 49311,
        "latitude": 28.021365,
        "longitude": 69.549137
    },
    {
        "name": "Miro Khan",
        "country": "Pakistan",
        "province": "Sindh",
        "population": 10590,
        "latitude": 27.759854,
        "longitude": 68.091953
    },
    {
        "name": "Miran Shah",
        "country": "Pakistan",
        "province": "Khyber Pakhtunkhwa",
        "population": 3334,
        "latitude": 33.000588,
        "longitude": 70.071166
    },
    {
        "name": "Minchianabad",
        "country": "Pakistan",
        "province": "Punjab",
        "population": 29253,
        "latitude": 30.163557,
        "longitude": 73.568584
    },
    {
        "name": "Mehrabpur",
        "country": "Pakistan",
        "province": "Balochistan",
        "population": 35263,
        "latitude": 28.10773,
        "longitude": 68.025537
    },
    {
        "name": "Rawlakot",
        "country": "Pakistan",
        "province": "Azad Kashmir",
        "population": 50000,
        "latitude": 33.857816,
        "longitude": 73.760426
    },
    {
        "name": "Pir Jo Goth",
        "country": "Pakistan",
        "province": "Sindh",
        "population": 35537,
        "latitude": 27.591782,
        "longitude": 68.618481
    },
    {
        "name": "Zhob",
        "country": "Pakistan",
        "province": "Balochistan",
        "population": 50537,
        "latitude": 31.340817,
        "longitude": 69.449304
    },
    {
        "name": "Zaida",
        "country": "Pakistan",
        "province": "Khyber Pakhtunkhwa",
        "population": 26787,
        "latitude": 34.059498,
        "longitude": 72.466902
    },
    {
        "name": "Zahir Pir",
        "country": "Pakistan",
        "province": "Punjab",
        "population": 34121,
        "latitude": 28.812838,
        "longitude": 70.523414
    },
    {
        "name": "Yazman",
        "country": "Pakistan",
        "province": "Punjab",
        "population": 24580,
        "latitude": 29.121218,
        "longitude": 71.744587
    },
    {
        "name": "Chak Five Hundred Seventy-five",
        "country": "Pakistan",
        "province": "Punjab",
        "population": 24295,
        "latitude": 31.545143,
        "longitude": 73.828907
    },
    {
        "name": "Utmanzai",
        "country": "Pakistan",
        "province": "Khyber Pakhtunkhwa",
        "population": 29423,
        "latitude": 34.18775,
        "longitude": 71.762739
    },
    {
        "name": "Usta Muhammad",
        "country": "Pakistan",
        "province": "Balochistan",
        "population": 43983,
        "latitude": 28.177226,
        "longitude": 68.043668
    },
    {
        "name": "Umarkot",
        "country": "Pakistan",
        "province": "Sindh",
        "population": 42074,
        "latitude": 25.363289,
        "longitude": 69.741836
    },
    {
        "name": "Ubauro",
        "country": "Pakistan",
        "province": "Sindh",
        "population": 23462,
        "latitude": 28.164293,
        "longitude": 69.731139
    },
    {
        "name": "Topi",
        "country": "Pakistan",
        "province": "Khyber Pakhtunkhwa",
        "population": 36340,
        "latitude": 34.070337,
        "longitude": 72.621472
    },
    {
        "name": "Toba Tek Singh",
        "country": "Pakistan",
        "province": "Punjab",
        "population": 69064,
        "latitude": 30.971271,
        "longitude": 72.482751
    },
    {
        "name": "Thul",
        "country": "Pakistan",
        "province": "Sindh",
        "population": 34472,
        "latitude": 28.240298,
        "longitude": 68.775501
    },
    {
        "name": "Taunsa",
        "country": "Pakistan",
        "province": "Punjab",
        "population": 44869,
        "latitude": 30.70358,
        "longitude": 70.650539
    },
    {
        "name": "Tank",
        "country": "Pakistan",
        "province": "Khyber Pakhtunkhwa",
        "population": 38488,
        "latitude": 32.217071,
        "longitude": 70.383154
    },
    {
        "name": "Tangi",
        "country": "Pakistan",
        "province": "Khyber Pakhtunkhwa",
        "population": 29444,
        "latitude": 34.300898,
        "longitude": 71.652375
    },
    {
        "name": "Tando Muhammad Khan",
        "country": "Pakistan",
        "province": "Sindh",
        "population": 72659,
        "latitude": 25.123838,
        "longitude": 68.536765
    },
    {
        "name": "Tando Jam",
        "country": "Pakistan",
        "province": "Sindh",
        "population": 31612,
        "latitude": 25.428128,
        "longitude": 68.529231
    },
    {
        "name": "Tando Bago",
        "country": "Pakistan",
        "province": "Sindh",
        "population": 14095,
        "latitude": 24.789142,
        "longitude": 68.96535
    },
    {
        "name": "Tandlianwala",
        "country": "Pakistan",
        "province": "Punjab",
        "population": 38285,
        "latitude": 31.03359,
        "longitude": 73.132681
    },
    {
        "name": "Talhar",
        "country": "Pakistan",
        "province": "Sindh",
        "population": 21154,
        "latitude": 24.88454,
        "longitude": 68.81437
    },
    {
        "name": "Talamba",
        "country": "Pakistan",
        "province": "Punjab",
        "population": 28151,
        "latitude": 30.52693,
        "longitude": 72.240788
    },
    {
        "name": "Talagang",
        "country": "Pakistan",
        "province": "Punjab",
        "population": 44960,
        "latitude": 32.927663,
        "longitude": 72.415937
    },
    {
        "name": "Thal",
        "country": "Pakistan",
        "province": "Khyber Pakhtunkhwa",
        "population": 29331,
        "latitude": 35.478364,
        "longitude": 72.243826
    },
    {
        "name": "Surab",
        "country": "Pakistan",
        "province": "Balochistan",
        "population": 13104,
        "latitude": 28.492762,
        "longitude": 66.259986
    },
    {
        "name": "Sukheke Mandi",
        "country": "Pakistan",
        "province": "Punjab",
        "population": 32836,
        "latitude": 31.865408,
        "longitude": 73.508748
    },
    {
        "name": "Sobhodero",
        "country": "Pakistan",
        "province": "Sindh",
        "population": 14623,
        "latitude": 27.304753,
        "longitude": 68.397151
    },
    {
        "name": "Sita Road",
        "country": "Pakistan",
        "province": "Sindh",
        "population": 27587,
        "latitude": 27.033333,
        "longitude": 67.85
    },
    {
        "name": "Sinjhoro",
        "country": "Pakistan",
        "province": "Sindh",
        "population": 15970,
        "latitude": 26.030076,
        "longitude": 68.808675
    },
    {
        "name": "Sillanwali",
        "country": "Pakistan",
        "province": "Punjab",
        "population": 27023,
        "latitude": 31.825394,
        "longitude": 72.540645
    },
    {
        "name": "Sharqpur Sharif",
        "country": "Pakistan",
        "province": "Punjab",
        "population": 31855,
        "latitude": 31.461156,
        "longitude": 74.100914
    },
    {
        "name": "Shahpur Chakar",
        "country": "Pakistan",
        "province": "Sindh",
        "population": 21446,
        "latitude": 26.154111,
        "longitude": 68.650134
    },
    {
        "name": "Sarai Alamgir",
        "country": "Pakistan",
        "province": "Punjab",
        "population": 44120,
        "latitude": 32.904951,
        "longitude": 73.755183
    },
    {
        "name": "Daur",
        "country": "Pakistan",
        "province": "Sindh",
        "population": 17577,
        "latitude": 26.45528,
        "longitude": 68.318351
    },
    {
        "name": "Daulatpur",
        "country": "Pakistan",
        "province": "Sindh",
        "population": 14574,
        "latitude": 26.501579,
        "longitude": 67.970787
    },
    {
        "name": "Daud Khel",
        "country": "Pakistan",
        "province": "Punjab",
        "population": 26395,
        "latitude": 32.875329,
        "longitude": 71.571183
    },
    {
        "name": "Darya Khan",
        "country": "Pakistan",
        "province": "Punjab",
        "population": 15048,
        "latitude": 31.784465,
        "longitude": 71.101974
    },
    {
        "name": "Dajal",
        "country": "Pakistan",
        "province": "Punjab",
        "population": 17630,
        "latitude": 29.557691,
        "longitude": 70.376144
    },
    {
        "name": "Dadhar",
        "country": "Pakistan",
        "province": "Balochistan",
        "population": 15090,
        "latitude": 29.474894,
        "longitude": 67.651668
    },
    {
        "name": "Chhor",
        "country": "Pakistan",
        "province": "Sindh",
        "population": 16301,
        "latitude": 25.512601,
        "longitude": 69.784369
    },
    {
        "name": "Choa Saidan Shah",
        "country": "Pakistan",
        "province": "Punjab",
        "population": 15344,
        "latitude": 32.719617,
        "longitude": 72.986246
    },
    {
        "name": "Chitral",
        "country": "Pakistan",
        "province": "Khyber Pakhtunkhwa",
        "population": -1,
        "latitude": 35.851802,
        "longitude": 71.786358
    },
    {
        "name": "Chawinda",
        "country": "Pakistan",
        "province": "Punjab",
        "population": 23599,
        "latitude": 32.344341,
        "longitude": 74.705075
    },
    {
        "name": "Chamber",
        "country": "Pakistan",
        "province": "Sindh",
        "population": 12746,
        "latitude": 25.293617,
        "longitude": 68.811758
    },
    {
        "name": "Chak Azam Sahu",
        "country": "Pakistan",
        "province": "Punjab",
        "population": 38216,
        "latitude": 30.752018,
        "longitude": 73.028339
    },
    {
        "name": "Chak",
        "country": "Pakistan",
        "province": "Sindh",
        "population": 14275,
        "latitude": 27.858381,
        "longitude": 68.833775
    },
    {
        "name": "Bhopalwala",
        "country": "Pakistan",
        "province": "Punjab",
        "population": 17341,
        "latitude": 32.429679,
        "longitude": 74.363497
    },
    {
        "name": "Bhiria",
        "country": "Pakistan",
        "province": "Sindh",
        "population": 12186,
        "latitude": 26.910408,
        "longitude": 68.194659
    },
    {
        "name": "Bhera",
        "country": "Pakistan",
        "province": "Punjab",
        "population": 31781,
        "latitude": 32.482055,
        "longitude": 72.908649
    },
    {
        "name": "Bhawana",
        "country": "Pakistan",
        "province": "Punjab",
        "population": 16218,
        "latitude": 31.568841,
        "longitude": 72.649169
    },
    {
        "name": "Bela",
        "country": "Pakistan",
        "province": "Balochistan",
        "population": 20119,
        "latitude": 26.227177,
        "longitude": 66.311783
    },
    {
        "name": "Bat Khela",
        "country": "Pakistan",
        "province": "Khyber Pakhtunkhwa",
        "population": 46079,
        "latitude": 34.617799,
        "longitude": 71.972468
    },
    {
        "name": "Basirpur",
        "country": "Pakistan",
        "province": "Punjab",
        "population": 41617,
        "latitude": 30.577587,
        "longitude": 73.839124
    },
    {
        "name": "Baffa",
        "country": "Pakistan",
        "province": "Khyber Pakhtunkhwa",
        "population": 14047,
        "latitude": 34.437696,
        "longitude": 73.22368
    },
    {
        "name": "Baddomalhi",
        "country": "Pakistan",
        "province": "Punjab",
        "population": 18435,
        "latitude": 31.990424,
        "longitude": 74.664096
    },
    {
        "name": "Akora",
        "country": "Pakistan",
        "province": "Khyber Pakhtunkhwa",
        "population": 23288,
        "latitude": 34.003365,
        "longitude": 72.12561
    },
    {
        "name": "Risālpur",
        "country": "Pakistan",
        "province": "Khyber Pakhtunkhwa",
        "population": 37084,
        "latitude": 34.06048,
        "longitude": 71.992759
    },
    {
        "name": "New Badah",
        "country": "Pakistan",
        "province": "Sindh",
        "population": 38855,
        "latitude": 27.341667,
        "longitude": 68.031944
    },
    {
        "name": "Haji Dad Muhammad Kili",
        "country": "Pakistan",
        "province": "Balochistan",
        "population": -1,
        "latitude": 30.892453,
        "longitude": 66.381175
    },
    {
        "name": "Matiari",
        "country": "Pakistan",
        "province": "Sindh",
        "population": 18929,
        "latitude": 25.59709,
        "longitude": 68.4467
    },
    {
        "name": "Marghuz",
        "country": "Pakistan",
        "province": "Khyber Pakhtunkhwa",
        "population": -1,
        "latitude": 34.069507,
        "longitude": 72.532434
    },
    {
        "name": "Mangla",
        "country": "Pakistan",
        "province": "Punjab",
        "population": 16264,
        "latitude": 31.8930556,
        "longitude": 72.3816667
    },
    {
        "name": "Liliani",
        "country": "Pakistan",
        "province": "Punjab",
        "population": 12211,
        "latitude": 32.203934,
        "longitude": 72.951196
    },
    {
        "name": "Landi Kotal",
        "country": "Pakistan",
        "province": "Khyber Pakhtunkhwa",
        "population": 2223,
        "latitude": 34.098805,
        "longitude": 71.141076
    },
    {
        "name": "Ladheke Niwain",
        "country": "Pakistan",
        "province": "Punjab",
        "population": -1,
        "latitude": 31.26908,
        "longitude": 74.317305
    },
    {
        "name": "Kot Malik Barkhurdar",
        "country": "Pakistan",
        "province": "Balochistan",
        "population": 69359,
        "latitude": 30.203794,
        "longitude": 66.987235
    },
    {
        "name": "Kohlu",
        "country": "Pakistan",
        "province": "Balochistan",
        "population": 11089,
        "latitude": 29.896505,
        "longitude": 69.253235
    },
    {
        "name": "Karak",
        "country": "Pakistan",
        "province": "Khyber Pakhtunkhwa",
        "population": 13679,
        "latitude": 33.116334,
        "longitude": 71.093536
    },
    {
        "name": "Khandowa",
        "country": "Pakistan",
        "province": "Punjab",
        "population": 1200,
        "latitude": 32.742552,
        "longitude": 72.73478
    },
    {
        "name": "Khadro",
        "country": "Pakistan",
        "province": "Sindh",
        "population": 9997,
        "latitude": 26.14713,
        "longitude": 68.717768
    },
    {
        "name": "Keti Bandar",
        "country": "Pakistan",
        "province": "Sindh",
        "population": 2934,
        "latitude": 24.144218,
        "longitude": 67.450942
    },
    {
        "name": "Karaundi",
        "country": "Pakistan",
        "province": "Sindh",
        "population": 8604,
        "latitude": 26.897086,
        "longitude": 68.406431
    },
    {
        "name": "Jatoi Shimali",
        "country": "Pakistan",
        "province": "Punjab",
        "population": 47144,
        "latitude": 29.518275,
        "longitude": 70.84474
    },
    {
        "name": "Ghauspur",
        "country": "Pakistan",
        "province": "Sindh",
        "population": 29767,
        "latitude": 28.138819,
        "longitude": 69.082453
    },
    {
        "name": "Fazilpur",
        "country": "Pakistan",
        "province": "Punjab",
        "population": 28213,
        "latitude": 32.176286,
        "longitude": 75.065833
    },
    {
        "name": "Fatehpur",
        "country": "Pakistan",
        "province": "Punjab",
        "population": 18126,
        "latitude": 31.17772,
        "longitude": 71.204801
    },
    {
        "name": "Dursh Khela",
        "country": "Pakistan",
        "province": "Khyber Pakhtunkhwa",
        "population": -1,
        "latitude": 35.000276,
        "longitude": 72.452173
    },
    {
        "name": "Doaba",
        "country": "Pakistan",
        "province": "Khyber Pakhtunkhwa",
        "population": 8893,
        "latitude": 33.424495,
        "longitude": 70.736757
    },
    {
        "name": "Dittewal",
        "country": "Pakistan",
        "province": "Punjab",
        "population": 2500,
        "latitude": 32.596895,
        "longitude": 73.990504
    },
    {
        "name": "Dinan Wala",
        "country": "Pakistan",
        "province": "Punjab",
        "population": 7500,
        "latitude": 29.765838,
        "longitude": 73.265569
    },
    {
        "name": "Dhoro Naro",
        "country": "Pakistan",
        "province": "Sindh",
        "population": 19907,
        "latitude": 25.504842,
        "longitude": 69.570905
    },
    {
        "name": "Samaro",
        "country": "Pakistan",
        "province": "Sindh",
        "population": 8784,
        "latitude": 25.281435,
        "longitude": 69.39623
    },
    {
        "name": "Rasulnagar",
        "country": "Pakistan",
        "province": "Punjab",
        "population": 14392,
        "latitude": 32.327944,
        "longitude": 73.780402
    },
    {
        "name": "Pishin",
        "country": "Pakistan",
        "province": "Balochistan",
        "population": 24239,
        "latitude": 30.581762,
        "longitude": 66.994061
    },
    {
        "name": "Parachinar",
        "country": "Pakistan",
        "province": "Khyber Pakhtunkhwa",
        "population": -1,
        "latitude": 33.899675,
        "longitude": 70.100119
    },
    {
        "name": "Nok Kundi",
        "country": "Pakistan",
        "province": "Balochistan",
        "population": -1,
        "latitude": 28.827041,
        "longitude": 62.750391
    },
    {
        "name": "Naushahro Firoz",
        "country": "Pakistan",
        "province": "Sindh",
        "population": 17631,
        "latitude": 26.840104,
        "longitude": 68.122651
    },
    {
        "name": "Naukot",
        "country": "Pakistan",
        "province": "Sindh",
        "population": 22081,
        "latitude": 24.858221,
        "longitude": 69.401525
    },
    {
        "name": "Moen jo Daro",
        "country": "Pakistan",
        "province": "Sindh",
        "population": -1,
        "latitude": 27.322068,
        "longitude": 68.136982
    },
    {
        "name": "Mirpur Sakro",
        "country": "Pakistan",
        "province": "Sindh",
        "population": 8371,
        "latitude": 24.546918,
        "longitude": 67.62797
    },
    {
        "name": "Mīrpur Batoro",
        "country": "Pakistan",
        "province": "Sindh",
        "population": 8866,
        "latitude": 24.728516,
        "longitude": 68.260095
    },
    {
        "name": "Mehar",
        "country": "Pakistan",
        "province": "Sindh",
        "population": 30429,
        "latitude": 27.180267,
        "longitude": 67.820507
    },
    {
        "name": "Wana",
        "country": "Pakistan",
        "province": "Khyber Pakhtunkhwa",
        "population": 2223,
        "latitude": 32.298889,
        "longitude": 69.5725
    },
    {
        "name": "Uthal",
        "country": "Pakistan",
        "province": "Balochistan",
        "population": 16483,
        "latitude": 25.807222,
        "longitude": 66.621944
    },
    {
        "name": "Surkhpur",
        "country": "Pakistan",
        "province": "Punjab",
        "population": 20000,
        "latitude": 32.718162,
        "longitude": 74.447735
    },
    {
        "name": "Sohbatpur",
        "country": "Pakistan",
        "province": "Balochistan",
        "population": 8940,
        "latitude": 28.52038,
        "longitude": 68.542984
    },
    {
        "name": "Sodhri",
        "country": "Pakistan",
        "province": "Punjab",
        "population": 15977,
        "latitude": 32.462108,
        "longitude": 74.182066
    },
    {
        "name": "Sehwan",
        "country": "Pakistan",
        "province": "Sindh",
        "population": 41150,
        "latitude": 26.424947,
        "longitude": 67.861259
    },
    {
        "name": "Sann",
        "country": "Pakistan",
        "province": "Sindh",
        "population": 8834,
        "latitude": 26.040299,
        "longitude": 68.137632
    },
    {
        "name": "Dera Bugti",
        "country": "Pakistan",
        "province": "Balochistan",
        "population": 18120,
        "latitude": 29.036188,
        "longitude": 69.158493
    },
    {
        "name": "Deona Jaliani",
        "country": "Pakistan",
        "province": "Punjab",
        "population": -1,
        "latitude": 32.634223,
        "longitude": 74.006795
    },
    {
        "name": "Daromehar",
        "country": "Pakistan",
        "province": "Sindh",
        "population": 10869,
        "latitude": 24.793818,
        "longitude": 68.179781
    },
    {
        "name": "Dalbandin",
        "country": "Pakistan",
        "province": "Balochistan",
        "population": 14621,
        "latitude": 28.888456,
        "longitude": 64.406156
    },
    {
        "name": "Daira Din Panah",
        "country": "Pakistan",
        "province": "Punjab",
        "population": 14878,
        "latitude": 30.570527,
        "longitude": 70.93722
    },
    {
        "name": "Dagai",
        "country": "Pakistan",
        "province": "Khyber Pakhtunkhwa",
        "population": -1,
        "latitude": 34.189226,
        "longitude": 72.504377
    },
    {
        "name": "Cherat Cantonement",
        "country": "Pakistan",
        "province": "Khyber Pakhtunkhwa",
        "population": 2986,
        "latitude": 33.823416,
        "longitude": 71.892919
    },
    {
        "name": "Bozdar Wada",
        "country": "Pakistan",
        "province": "Sindh",
        "population": 9175,
        "latitude": 27.183001,
        "longitude": 68.635804
    },
    {
        "name": "Begowala",
        "country": "Pakistan",
        "province": "Punjab",
        "population": 9259,
        "latitude": 32.438157,
        "longitude": 74.267941
    },
    {
        "name": "Bandhi",
        "country": "Pakistan",
        "province": "Sindh",
        "population": 8608,
        "latitude": 26.58761,
        "longitude": 68.302153
    },
    {
        "name": "Bakhri Ahmad Khan",
        "country": "Pakistan",
        "province": "Punjab",
        "population": 2000,
        "latitude": 30.73586018716721,
        "longitude": 70.83795547485352
    },
    {
        "name": "Amangarh",
        "country": "Pakistan",
        "province": "Khyber Pakhtunkhwa",
        "population": 25723,
        "latitude": 34.005839,
        "longitude": 71.929711
    },
    {
        "name": "Alipur",
        "country": "Pakistan",
        "province": "Punjab",
        "population": 33601,
        "latitude": 29.382421,
        "longitude": 70.911061
    },
    {
        "name": "Chak 241 GB Behraam",
        "country": "Pakistan",
        "province": "Punjab",
        "population": -1,
        "latitude": 31.053505,
        "longitude": 72.775855
    },
    {
        "name": "Dandot RS",
        "country": "Pakistan",
        "province": "Punjab",
        "population": 2000,
        "latitude": 32.6416667,
        "longitude": 72.975
    },
    {
        "name": "Bar Shinglai",
        "country": "Pakistan",
        "province": "Khyber Pakhtunkhwa",
        "population": 4000,
        "latitude": 34.678717,
        "longitude": 72.984908
    },
    {
        "name": "Amirabad",
        "country": "Pakistan",
        "province": "Khyber Pakhtunkhwa",
        "population": 3000,
        "latitude": 34.187293110506225,
        "longitude": 73.09077501296997
    },
    {
        "name": "Gondal",
        "country": "Pakistan",
        "province": "Punjab",
        "population": -1,
        "latitude": 31.194385,
        "longitude": 70.855007
    },
    {
        "name": "Chak One Hundred Fifteen B",
        "country": "Pakistan",
        "province": "Punjab",
        "population": -1,
        "latitude": 31.122419,
        "longitude": 70.976855
    },
    {
        "name": "Khubai",
        "country": "Pakistan",
        "province": "Khyber Pakhtunkhwa",
        "population": -1,
        "latitude": 34.648684,
        "longitude": 73.406678
    },
    {
        "name": "Malakwal City",
        "country": "Pakistan",
        "province": "Punjab",
        "population": 35000,
        "latitude": 32.55491613824475,
        "longitude": 73.21220397949219
    },
    {
        "name": "Molia",
        "country": "Pakistan",
        "province": "Khyber Pakhtunkhwa",
        "population": -1,
        "latitude": 34.140308,
        "longitude": 73.480292
    },
    {
        "name": "Nooriabad",
        "country": "Pakistan",
        "province": "Sindh",
        "population": 1000,
        "latitude": 25.1750388538041,
        "longitude": 67.7995491027832
    },
    {
        "name": "Mohra Rajian",
        "country": "Pakistan",
        "province": "Punjab",
        "population": -1,
        "latitude": 33.469205,
        "longitude": 73.414471
    },
    {
        "name": "Sharifabad",
        "country": "Pakistan",
        "province": "Punjab",
        "population": -1,
        "latitude": 33.434096,
        "longitude": 73.36276
    },
    {
        "name": "Phalina",
        "country": "Pakistan",
        "province": "Punjab",
        "population": -1,
        "latitude": 33.405271,
        "longitude": 73.326305
    },
    {
        "name": "Sanghori",
        "country": "Pakistan",
        "province": "Punjab",
        "population": -1,
        "latitude": 33.425805,
        "longitude": 73.255956
    },
    {
        "name": "Hidwala Gujran",
        "country": "Pakistan",
        "province": "Punjab",
        "population": -1,
        "latitude": 33.443046,
        "longitude": 73.296858
    },
    {
        "name": "Inzari",
        "country": "Pakistan",
        "province": "Khyber Pakhtunkhwa",
        "population": -1,
        "latitude": 34.668792,
        "longitude": 71.388802
    },
    {
        "name": "Ajdarra",
        "country": "Pakistan",
        "province": "Khyber Pakhtunkhwa",
        "population": -1,
        "latitude": 34.595514,
        "longitude": 71.461146
    },
    {
        "name": "Sara Shah",
        "country": "Pakistan",
        "province": "Khyber Pakhtunkhwa",
        "population": -1,
        "latitude": 34.545326,
        "longitude": 71.470004
    },
    {
        "name": "Samandi",
        "country": "Pakistan",
        "province": "Khyber Pakhtunkhwa",
        "population": -1,
        "latitude": 32.621165,
        "longitude": 70.520495
    },
    {
        "name": "Gulzari Khel",
        "country": "Pakistan",
        "province": "Khyber Pakhtunkhwa",
        "population": -1,
        "latitude": 32.613115,
        "longitude": 70.528783
    },
    {
        "name": "Ismaili",
        "country": "Pakistan",
        "province": "Khyber Pakhtunkhwa",
        "population": -1,
        "latitude": 32.845833,
        "longitude": 70.615278
    },
    {
        "name": "Ghoriwala",
        "country": "Pakistan",
        "province": "Khyber Pakhtunkhwa",
        "population": -1,
        "latitude": 32.904933,
        "longitude": 70.728381
    },
    {
        "name": "Ada Punga",
        "country": "Pakistan",
        "province": "Khyber Pakhtunkhwa",
        "population": -1,
        "latitude": 32.493889,
        "longitude": 69.610833
    },
    {
        "name": "Abdullah Bagh Kalle",
        "country": "Pakistan",
        "province": "Khyber Pakhtunkhwa",
        "population": -1,
        "latitude": 32.401944,
        "longitude": 69.688889
    },
    {
        "name": "Abdur Rahman Khel",
        "country": "Pakistan",
        "province": "Khyber Pakhtunkhwa",
        "population": -1,
        "latitude": 32.561546,
        "longitude": 69.651012
    },
    {
        "name": "Ajim Khan",
        "country": "Pakistan",
        "province": "Khyber Pakhtunkhwa",
        "population": -1,
        "latitude": 32.427926,
        "longitude": 69.470329
    },
    {
        "name": "Aghzaikas",
        "country": "Pakistan",
        "province": "Khyber Pakhtunkhwa",
        "population": -1,
        "latitude": 32.406281,
        "longitude": 69.475768
    },
    {
        "name": "Gador",
        "country": "Pakistan",
        "province": "Balochistan",
        "population": -1,
        "latitude": 26.178917,
        "longitude": 66.332852
    },
    {
        "name": "Kurai",
        "country": "Pakistan",
        "province": "Khyber Pakhtunkhwa",
        "population": -1,
        "latitude": 32.916981,
        "longitude": 69.740097
    },
    {
        "name": "Datta Khel",
        "country": "Pakistan",
        "province": "Khyber Pakhtunkhwa",
        "population": -1,
        "latitude": 32.908489,
        "longitude": 69.744773
    },
    {
        "name": "Khar",
        "country": "Pakistan",
        "province": "Khyber Pakhtunkhwa",
        "population": -1,
        "latitude": 32.776851,
        "longitude": 69.691718
    },
    {
        "name": "Kahori",
        "country": "Pakistan",
        "province": "Balochistan",
        "population": -1,
        "latitude": 25.38447,
        "longitude": 63.868618
    },
    {
        "name": "Adam Kalle",
        "country": "Pakistan",
        "province": "Khyber Pakhtunkhwa",
        "population": -1,
        "latitude": 33.286916,
        "longitude": 70.52536
    },
    {
        "name": "Spinkai",
        "country": "Pakistan",
        "province": "Khyber Pakhtunkhwa",
        "population": -1,
        "latitude": 33.932702,
        "longitude": 70.683461
    },
    {
        "name": "Khadizai",
        "country": "Pakistan",
        "province": "Khyber Pakhtunkhwa",
        "population": -1,
        "latitude": 33.596206,
        "longitude": 70.748795
    },
    {
        "name": "Cham Kani",
        "country": "Pakistan",
        "province": "Khyber Pakhtunkhwa",
        "population": -1,
        "latitude": 33.706088,
        "longitude": 70.672482
    },
    {
        "name": "Kuz Barangola",
        "country": "Pakistan",
        "province": "Khyber Pakhtunkhwa",
        "population": -1,
        "latitude": 34.637017,
        "longitude": 71.889326
    },
    {
        "name": "Nagotal",
        "country": "Pakistan",
        "province": "Khyber Pakhtunkhwa",
        "population": -1,
        "latitude": 34.991414,
        "longitude": 71.79936
    },
    {
        "name": "Nawāgai",
        "country": "Pakistan",
        "province": "Khyber Pakhtunkhwa",
        "population": -1,
        "latitude": 34.864961,
        "longitude": 71.967286
    },
    {
        "name": "Math",
        "country": "Pakistan",
        "province": "Khyber Pakhtunkhwa",
        "population": -1,
        "latitude": 34.839152,
        "longitude": 71.789368
    },
    {
        "name": "Maimola",
        "country": "Pakistan",
        "province": "Khyber Pakhtunkhwa",
        "population": -1,
        "latitude": 34.635072,
        "longitude": 71.611441
    },
    {
        "name": "Batwār",
        "country": "Pakistan",
        "province": "Khyber Pakhtunkhwa",
        "population": -1,
        "latitude": 34.925641,
        "longitude": 71.514143
    },
    {
        "name": "Adad Banda",
        "country": "Pakistan",
        "province": "Khyber Pakhtunkhwa",
        "population": -1,
        "latitude": 34.910551,
        "longitude": 71.571827
    },
    {
        "name": "Inayat Kalle",
        "country": "Pakistan",
        "province": "Khyber Pakhtunkhwa",
        "population": -1,
        "latitude": 34.754094,
        "longitude": 71.456997
    },
    {
        "name": "Chingai",
        "country": "Pakistan",
        "province": "Khyber Pakhtunkhwa",
        "population": -1,
        "latitude": 34.788821,
        "longitude": 71.483495
    },
    {
        "name": "Damadola",
        "country": "Pakistan",
        "province": "Khyber Pakhtunkhwa",
        "population": -1,
        "latitude": 34.805078,
        "longitude": 71.467834
    },
    {
        "name": "Bar Kitkot",
        "country": "Pakistan",
        "province": "Khyber Pakhtunkhwa",
        "population": -1,
        "latitude": 34.837202,
        "longitude": 71.327081
    },
    {
        "name": "Odigram",
        "country": "Pakistan",
        "province": "Khyber Pakhtunkhwa",
        "population": -1,
        "latitude": 34.885343,
        "longitude": 71.476822
    },
    {
        "name": "Adam Shahgai",
        "country": "Pakistan",
        "province": "Khyber Pakhtunkhwa",
        "population": -1,
        "latitude": 34.909938,
        "longitude": 71.466865
    },
    {
        "name": "Ambar",
        "country": "Pakistan",
        "province": "Khyber Pakhtunkhwa",
        "population": -1,
        "latitude": 31.557616,
        "longitude": 70.041737
    },
    {
        "name": "Kot Mubarak",
        "country": "Pakistan",
        "province": "Punjab",
        "population": -1,
        "latitude": 31.226288,
        "longitude": 70.473489
    },
    {
        "name": "Tarap",
        "country": "Pakistan",
        "province": "Punjab",
        "population": -1,
        "latitude": 30.265131,
        "longitude": 70.157744
    },
    {
        "name": "Mangiwala",
        "country": "Pakistan",
        "province": "Punjab",
        "population": -1,
        "latitude": 30.905877,
        "longitude": 70.910195
    },
    {
        "name": "Lodhiwala",
        "country": "Pakistan",
        "province": "Punjab",
        "population": -1,
        "latitude": 30.905939,
        "longitude": 70.902556
    },
    {
        "name": "Pauliwala",
        "country": "Pakistan",
        "province": "Punjab",
        "population": -1,
        "latitude": 30.924405,
        "longitude": 70.866867
    },
    {
        "name": "Kalian Mohana di Basti",
        "country": "Pakistan",
        "province": "Punjab",
        "population": -1,
        "latitude": 30.93104,
        "longitude": 70.875616
    },
    {
        "name": "Faqirwala",
        "country": "Pakistan",
        "province": "Punjab",
        "population": -1,
        "latitude": 30.922036,
        "longitude": 70.879447
    },
    {
        "name": "Boharwala",
        "country": "Pakistan",
        "province": "Punjab",
        "population": -1,
        "latitude": 30.940128,
        "longitude": 70.852134
    },
    {
        "name": "Sohianwala",
        "country": "Pakistan",
        "province": "Punjab",
        "population": -1,
        "latitude": 30.948814,
        "longitude": 70.856941
    },
    {
        "name": "Basti Mundi",
        "country": "Pakistan",
        "province": "Punjab",
        "population": -1,
        "latitude": 30.949706,
        "longitude": 70.863332
    },
    {
        "name": "Metlawala",
        "country": "Pakistan",
        "province": "Punjab",
        "population": -1,
        "latitude": 30.956825,
        "longitude": 70.857785
    },
    {
        "name": "Subawala",
        "country": "Pakistan",
        "province": "Punjab",
        "population": -1,
        "latitude": 30.964312,
        "longitude": 70.861146
    },
    {
        "name": "Chandiawala",
        "country": "Pakistan",
        "province": "Punjab",
        "population": -1,
        "latitude": 30.966588,
        "longitude": 70.902924
    },
    {
        "name": "Mianwala",
        "country": "Pakistan",
        "province": "Punjab",
        "population": -1,
        "latitude": 30.975789,
        "longitude": 70.876777
    },
    {
        "name": "Naiwala",
        "country": "Pakistan",
        "province": "Punjab",
        "population": -1,
        "latitude": 30.995916,
        "longitude": 70.890005
    },
    {
        "name": "Sumra",
        "country": "Pakistan",
        "province": "Punjab",
        "population": -1,
        "latitude": 30.996412,
        "longitude": 70.907502
    },
    {
        "name": "Basti Malana",
        "country": "Pakistan",
        "province": "Punjab",
        "population": -1,
        "latitude": 28.812017,
        "longitude": 70.12453
    },
    {
        "name": "Kot Karam Khan",
        "country": "Pakistan",
        "province": "Punjab",
        "population": -1,
        "latitude": 28.587322,
        "longitude": 70.142649
    },
    {
        "name": "Adam Sahab",
        "country": "Pakistan",
        "province": "Punjab",
        "population": -1,
        "latitude": 28.364494,
        "longitude": 70.193645
    },
    {
        "name": "Chandrami",
        "country": "Pakistan",
        "province": "Punjab",
        "population": -1,
        "latitude": 28.329683,
        "longitude": 70.172564
    },
    {
        "name": "Darya Khan",
        "country": "Pakistan",
        "province": "Punjab",
        "population": -1,
        "latitude": 28.913097,
        "longitude": 70.334029
    },
    {
        "name": "Kot Bhutta",
        "country": "Pakistan",
        "province": "Punjab",
        "population": -1,
        "latitude": 28.573897,
        "longitude": 70.260839
    },
    {
        "name": "Qaimpur",
        "country": "Pakistan",
        "province": "Punjab",
        "population": -1,
        "latitude": 28.528075,
        "longitude": 70.340795
    },
    {
        "name": "Basti Arain",
        "country": "Pakistan",
        "province": "Punjab",
        "population": -1,
        "latitude": 28.875778,
        "longitude": 70.71281
    },
    {
        "name": "Moinabad",
        "country": "Pakistan",
        "province": "Punjab",
        "population": -1,
        "latitude": 28.734027,
        "longitude": 70.732335
    },
    {
        "name": "Basti Haji Gul Muhammad",
        "country": "Pakistan",
        "province": "Punjab",
        "population": -1,
        "latitude": 28.611514,
        "longitude": 70.60697
    },
    {
        "name": "Bhaiwala",
        "country": "Pakistan",
        "province": "Punjab",
        "population": -1,
        "latitude": 30.899227,
        "longitude": 71.618443
    },
    {
        "name": "Goth Mando Khan Chandio",
        "country": "Pakistan",
        "province": "Sindh",
        "population": -1,
        "latitude": 27.693422,
        "longitude": 68.07909
    },
    {
        "name": "Naich",
        "country": "Pakistan",
        "province": "Sindh",
        "population": -1,
        "latitude": 27.529287,
        "longitude": 68.144418
    },
    {
        "name": "Goth Mitho Faqir Sehta",
        "country": "Pakistan",
        "province": "Sindh",
        "population": -1,
        "latitude": 25.974424,
        "longitude": 68.635483
    },
    {
        "name": "Alpa Kalan",
        "country": "Pakistan",
        "province": "Punjab",
        "population": -1,
        "latitude": 31.1447,
        "longitude": 73.681686
    },
    {
        "name": "Rampur",
        "country": "Pakistan",
        "province": "Punjab",
        "population": -1,
        "latitude": 31.505556,
        "longitude": 73.562222
    },
    {
        "name": "Kotwar",
        "country": "Pakistan",
        "province": "Punjab",
        "population": -1,
        "latitude": 31.562551,
        "longitude": 73.691598
    },
    {
        "name": "Chak Two Hundred Sixty-four",
        "country": "Pakistan",
        "province": "Punjab",
        "population": -1,
        "latitude": 31.33586,
        "longitude": 72.428338
    },
    {
        "name": "Hasanpur",
        "country": "Pakistan",
        "province": "Khyber Pakhtunkhwa",
        "population": -1,
        "latitude": 33.984113,
        "longitude": 72.589583
    },
    {
        "name": "Shekh Chuhr",
        "country": "Pakistan",
        "province": "Khyber Pakhtunkhwa",
        "population": -1,
        "latitude": 33.971189,
        "longitude": 72.555492
    },
    {
        "name": "Abdullah Nur Kaskai",
        "country": "Pakistan",
        "province": "Khyber Pakhtunkhwa",
        "population": -1,
        "latitude": 32.425026,
        "longitude": 70.001761
    },
    {
        "name": "Adam Khan Kili",
        "country": "Pakistan",
        "province": "Khyber Pakhtunkhwa",
        "population": -1,
        "latitude": 32.33147,
        "longitude": 70.125736
    },
    {
        "name": "Adira Mela",
        "country": "Pakistan",
        "province": "Khyber Pakhtunkhwa",
        "population": -1,
        "latitude": 32.572616,
        "longitude": 70.019158
    },
    {
        "name": "Mubarak Shahi",
        "country": "Pakistan",
        "province": "Khyber Pakhtunkhwa",
        "population": -1,
        "latitude": 32.957331,
        "longitude": 70.171187
    },
    {
        "name": "Aziz Khel",
        "country": "Pakistan",
        "province": "Khyber Pakhtunkhwa",
        "population": -1,
        "latitude": 32.980784,
        "longitude": 70.183313
    },
    {
        "name": "Abdul Khel",
        "country": "Pakistan",
        "province": "Khyber Pakhtunkhwa",
        "population": -1,
        "latitude": 32.399674,
        "longitude": 70.913112
    },
    {
        "name": "Shahbazgarhi",
        "country": "Pakistan",
        "province": "Punjab",
        "population": -1,
        "latitude": 33.915304,
        "longitude": 72.491459
    },
    {
        "name": "Kamra",
        "country": "Pakistan",
        "province": "Punjab",
        "population": -1,
        "latitude": 33.854973,
        "longitude": 72.394212
    },
    {
        "name": "Abdul Khel",
        "country": "Pakistan",
        "province": "Khyber Pakhtunkhwa",
        "population": -1,
        "latitude": 32.314611,
        "longitude": 70.976051
    },
    {
        "name": "Kot Bala",
        "country": "Pakistan",
        "province": "Punjab",
        "population": -1,
        "latitude": 33.479678,
        "longitude": 72.491848
    },
    {
        "name": "Kiri Malang",
        "country": "Pakistan",
        "province": "Khyber Pakhtunkhwa",
        "population": -1,
        "latitude": 32.133286,
        "longitude": 70.667271
    },
    {
        "name": "Kala Gujrān",
        "country": "Pakistan",
        "province": "Punjab",
        "population": -1,
        "latitude": 33.177896,
        "longitude": 72.963814
    },
    {
        "name": "Dhāb Pariwāli",
        "country": "Pakistan",
        "province": "Punjab",
        "population": -1,
        "latitude": 33.002475,
        "longitude": 72.894623
    },
    {
        "name": "Dabri",
        "country": "Pakistan",
        "province": "Punjab",
        "population": -1,
        "latitude": 33.105557,
        "longitude": 72.691517
    },
    {
        "name": "Soin Khezai",
        "country": "Pakistan",
        "province": "Balochistan",
        "population": -1,
        "latitude": 30.763099,
        "longitude": 67.087518
    },
    {
        "name": "Bela",
        "country": "Pakistan",
        "province": "Balochistan",
        "population": -1,
        "latitude": 30.838185,
        "longitude": 67.369334
    },
    {
        "name": "Kach",
        "country": "Pakistan",
        "province": "Balochistan",
        "population": -1,
        "latitude": 30.805246,
        "longitude": 67.423099
    },
    {
        "name": "Umerzāi",
        "country": "Pakistan",
        "province": "Balochistan",
        "population": -1,
        "latitude": 30.638092,
        "longitude": 67.357727
    },
    {
        "name": "Garah Jat",
        "country": "Pakistan",
        "province": "Khyber Pakhtunkhwa",
        "population": -1,
        "latitude": 31.706389,
        "longitude": 70.480833
    },
    {
        "name": "Shahbaz Khel",
        "country": "Pakistan",
        "province": "Punjab",
        "population": -1,
        "latitude": 32.409722,
        "longitude": 71.371667
    },
    {
        "name": "Gujrat",
        "country": "Pakistan",
        "province": "Punjab",
        "population": -1,
        "latitude": 32.355864,
        "longitude": 71.31036
    },
    {
        "name": "Musewali",
        "country": "Pakistan",
        "province": "Punjab",
        "population": -1,
        "latitude": 32.255778,
        "longitude": 71.340432
    },
    {
        "name": "Quaidabad",
        "country": "Pakistan",
        "province": "Punjab",
        "population": -1,
        "latitude": 32.342705,
        "longitude": 71.860765
    },
    {
        "name": "Ashret",
        "country": "Pakistan",
        "province": "Khyber Pakhtunkhwa",
        "population": -1,
        "latitude": 35.432061,
        "longitude": 71.745152
    },
    {
        "name": "Adu Kalle",
        "country": "Pakistan",
        "province": "Khyber Pakhtunkhwa",
        "population": -1,
        "latitude": 33.678351,
        "longitude": 70.450766
    },
    {
        "name": "Abdullah Kalle",
        "country": "Pakistan",
        "province": "Khyber Pakhtunkhwa",
        "population": -1,
        "latitude": 33.829758,
        "longitude": 70.067446
    },
    {
        "name": "Sakhi Ahmad Shah Kalle",
        "country": "Pakistan",
        "province": "Khyber Pakhtunkhwa",
        "population": -1,
        "latitude": 33.643704,
        "longitude": 70.315605
    },
    {
        "name": "Goth Bachu Khān",
        "country": "Pakistan",
        "province": "Balochistan",
        "population": -1,
        "latitude": 25.063693,
        "longitude": 66.95828
    },
    {
        "name": "Adhiwala",
        "country": "Pakistan",
        "province": "Punjab",
        "population": -1,
        "latitude": 31.401003,
        "longitude": 72.448685
    },
    {
        "name": "Chak One Hundred Thirty-six Northern Branch",
        "country": "Pakistan",
        "province": "Punjab",
        "population": -1,
        "latitude": 31.766069,
        "longitude": 72.447202
    },
    {
        "name": "Chak One Hundred Forty-seven -One Hundred Forty-eight Northern Branch",
        "country": "Pakistan",
        "province": "Punjab",
        "population": -1,
        "latitude": 31.790055,
        "longitude": 72.474019
    },
    {
        "name": "Chak One Hundred Forty-four -One Hundred Forty-five Northern Branch",
        "country": "Pakistan",
        "province": "Punjab",
        "population": -1,
        "latitude": 31.806055,
        "longitude": 72.496679
    },
    {
        "name": "Chak Three Hundred Ninety Jhang Branch",
        "country": "Pakistan",
        "province": "Punjab",
        "population": -1,
        "latitude": 31.028222,
        "longitude": 72.431203
    },
    {
        "name": "Chak Three Hundred Eighty-two Jhang Branch",
        "country": "Pakistan",
        "province": "Punjab",
        "population": -1,
        "latitude": 31.037121,
        "longitude": 72.463476
    },
    {
        "name": "Chak Four Hundred Fifty-eight",
        "country": "Pakistan",
        "province": "Punjab",
        "population": -1,
        "latitude": 31.236289,
        "longitude": 72.422494
    },
    {
        "name": "Chak Three Hundred Eighty-eight Jhang Branch",
        "country": "Pakistan",
        "province": "Punjab",
        "population": -1,
        "latitude": 31.061922,
        "longitude": 72.430047
    },
    {
        "name": "Chak Four Hundred Forty-two Jhang Branch",
        "country": "Pakistan",
        "province": "Punjab",
        "population": -1,
        "latitude": 31.133515,
        "longitude": 72.452099
    },
    {
        "name": "Bhaddar",
        "country": "Pakistan",
        "province": "Punjab",
        "population": -1,
        "latitude": 31.941285,
        "longitude": 74.04627
    },
    {
        "name": "Sikhanwala",
        "country": "Pakistan",
        "province": "Punjab",
        "population": -1,
        "latitude": 31.455355,
        "longitude": 74.076682
    },
    {
        "name": "Laike",
        "country": "Pakistan",
        "province": "Punjab",
        "population": -1,
        "latitude": 31.81234,
        "longitude": 73.838004
    },
    {
        "name": "Kot Shah Muhammad",
        "country": "Pakistan",
        "province": "Punjab",
        "population": -1,
        "latitude": 31.54656,
        "longitude": 73.799069
    },
    {
        "name": "Chaura Rajputan",
        "country": "Pakistan",
        "province": "Punjab",
        "population": -1,
        "latitude": 31.863133,
        "longitude": 74.308007
    },
    {
        "name": "Targarh",
        "country": "Pakistan",
        "province": "Punjab",
        "population": -1,
        "latitude": 31.612222,
        "longitude": 74.280833
    },
    {
        "name": "Fatehpur",
        "country": "Pakistan",
        "province": "Punjab",
        "population": -1,
        "latitude": 31.020261,
        "longitude": 74.330857
    },
    {
        "name": "Bazidpur",
        "country": "Pakistan",
        "province": "Punjab",
        "population": -1,
        "latitude": 31.014754,
        "longitude": 74.469945
    },
    {
        "name": "Grin Kot",
        "country": "Pakistan",
        "province": "Punjab",
        "population": -1,
        "latitude": 31.214891,
        "longitude": 74.474989
    },
    {
        "name": "Kothara",
        "country": "Pakistan",
        "province": "Punjab",
        "population": -1,
        "latitude": 30.923588,
        "longitude": 73.277013
    },
    {
        "name": "Chak Forty-three - Four Left",
        "country": "Pakistan",
        "province": "Punjab",
        "population": -1,
        "latitude": 30.565714,
        "longitude": 73.292491
    },
    {
        "name": "Chak Thirty-seven - Four Left",
        "country": "Pakistan",
        "province": "Punjab",
        "population": -1,
        "latitude": 30.591039,
        "longitude": 73.37273
    },
    {
        "name": "Chak Thirty-six - Four Left",
        "country": "Pakistan",
        "province": "Punjab",
        "population": -1,
        "latitude": 30.61874,
        "longitude": 73.327385
    },
    {
        "name": "Chak Thirty-three - Four Left",
        "country": "Pakistan",
        "province": "Punjab",
        "population": -1,
        "latitude": 30.629001,
        "longitude": 73.384856
    },
    {
        "name": "Chak Fifty-nine - Five Left",
        "country": "Pakistan",
        "province": "Punjab",
        "population": -1,
        "latitude": 30.648823,
        "longitude": 73.275172
    },
    {
        "name": "Chak Twenty-three A - Four Left",
        "country": "Pakistan",
        "province": "Punjab",
        "population": -1,
        "latitude": 30.692361,
        "longitude": 73.355849
    },
    {
        "name": "Chak Eighteen - Four Left",
        "country": "Pakistan",
        "province": "Punjab",
        "population": -1,
        "latitude": 30.704861,
        "longitude": 73.311613
    },
    {
        "name": "Chak Seventy-five - Five Right",
        "country": "Pakistan",
        "province": "Punjab",
        "population": -1,
        "latitude": 30.726048,
        "longitude": 73.25023
    },
    {
        "name": "Chak Sixty-two-Four R",
        "country": "Pakistan",
        "province": "Punjab",
        "population": -1,
        "latitude": 30.7311111,
        "longitude": 73.2511111
    },
    {
        "name": "Chak Sixty - Four Right",
        "country": "Pakistan",
        "province": "Punjab",
        "population": -1,
        "latitude": 30.743901,
        "longitude": 73.291226
    },
    {
        "name": "Chak Twenty-one - Four Left",
        "country": "Pakistan",
        "province": "Punjab",
        "population": -1,
        "latitude": 30.697397,
        "longitude": 73.33585
    },
    {
        "name": "Chak Sixteen-Four L",
        "country": "Pakistan",
        "province": "Punjab",
        "population": -1,
        "latitude": 30.744722,
        "longitude": 73.342222
    },
    {
        "name": "Salarwala",
        "country": "Pakistan",
        "province": "Punjab",
        "population": -1,
        "latitude": 32.016281,
        "longitude": 71.7103
    },
    {
        "name": "Jani Khel",
        "country": "Pakistan",
        "province": "Khyber Pakhtunkhwa",
        "population": -1,
        "latitude": 32.802158,
        "longitude": 70.506891
    },
    {
        "name": "Bachakai",
        "country": "Pakistan",
        "province": "Khyber Pakhtunkhwa",
        "population": -1,
        "latitude": 32.811343,
        "longitude": 70.502475
    },
    {
        "name": "Faqirabad",
        "country": "Pakistan",
        "province": "Khyber Pakhtunkhwa",
        "population": -1,
        "latitude": 32.860323,
        "longitude": 70.613853
    },
    {
        "name": "Mira Khel",
        "country": "Pakistan",
        "province": "Khyber Pakhtunkhwa",
        "population": -1,
        "latitude": 32.854722,
        "longitude": 70.645
    },
    {
        "name": "Fariq Kalle",
        "country": "Pakistan",
        "province": "Khyber Pakhtunkhwa",
        "population": -1,
        "latitude": 32.88104,
        "longitude": 70.642875
    },
    {
        "name": "Kotka Qalandar",
        "country": "Pakistan",
        "province": "Khyber Pakhtunkhwa",
        "population": -1,
        "latitude": 32.903959,
        "longitude": 70.69453
    },
    {
        "name": "Diwana Tughal Khel",
        "country": "Pakistan",
        "province": "Khyber Pakhtunkhwa",
        "population": -1,
        "latitude": 32.910631,
        "longitude": 70.639666
    },
    {
        "name": "Kotka Abdullah Jan",
        "country": "Pakistan",
        "province": "Khyber Pakhtunkhwa",
        "population": -1,
        "latitude": 32.93454,
        "longitude": 70.691863
    },
    {
        "name": "Shahbaz Azmat Khel",
        "country": "Pakistan",
        "province": "Khyber Pakhtunkhwa",
        "population": -1,
        "latitude": 32.957112,
        "longitude": 70.67464
    },
    {
        "name": "Pir Dil Khel",
        "country": "Pakistan",
        "province": "Khyber Pakhtunkhwa",
        "population": -1,
        "latitude": 32.978449,
        "longitude": 70.580522
    },
    {
        "name": "Hindki",
        "country": "Pakistan",
        "province": "Khyber Pakhtunkhwa",
        "population": -1,
        "latitude": 32.991332,
        "longitude": 70.574362
    },
    {
        "name": "Jabar Kalle",
        "country": "Pakistan",
        "province": "Khyber Pakhtunkhwa",
        "population": -1,
        "latitude": 32.984722,
        "longitude": 70.590494
    },
    {
        "name": "Pir Piai",
        "country": "Pakistan",
        "province": "Khyber Pakhtunkhwa",
        "population": -1,
        "latitude": 33.994214,
        "longitude": 71.90434
    },
    {
        "name": "Tor Dher",
        "country": "Pakistan",
        "province": "Khyber Pakhtunkhwa",
        "population": -1,
        "latitude": 34.130585,
        "longitude": 71.978714
    },