[
    {
        "name": "Warsaw",
        "country": "Poland",
        "province": "Mazovia",
        "population": 1702139,
        "latitude": 52.2297708747018,
        "longitude": 21.0117816925049
    },
    {
        "name": "Krakow",
        "country": "Poland",
        "province": "Lesser Poland",
        "population": 755050,
        "latitude": 50.06142990976112,
        "longitude": 19.936580657958984
    },
    {
        "name": "Lodz",
        "country": "Poland",
        "province": "Łódź Voivodeship",
        "population": 768755,
        "latitude": 51.77058,
        "longitude": 19.47395
    },
    {
        "name": "Poznan",
        "country": "Poland",
        "province": "Greater Poland",
        "population": 570352,
        "latitude": 52.40692214666559,
        "longitude": 16.929931640625
    },
    {
        "name": "Gdansk",
        "country": "Poland",
        "province": "Pomerania",
        "population": 461865,
        "latitude": 54.35227,
        "longitude": 18.64912
    },
    {
        "name": "Wroclaw",
        "country": "Poland",
        "province": "Lower Silesia",
        "population": 634893,
        "latitude": 51.1,
        "longitude": 17.033333
    },
    {
        "name": "Katowice",
        "country": "Poland",
        "province": "Silesia",
        "population": 317316,
        "latitude": 50.258415,
        "longitude": 19.027545
    },
    {
        "name": "Bydgoszcz",
        "country": "Poland",
        "province": "Kujawsko-Pomorskie",
        "population": 366452,
        "latitude": 53.1234957740186,
        "longitude": 18.00762176513672
    },
    {
        "name": "Szczecin",
        "country": "Poland",
        "province": "West Pomerania",
        "population": 407811,
        "latitude": 53.42894375294566,
        "longitude": 14.553022384643555
    },
    {
        "name": "Lublin",
        "country": "Poland",
        "province": "Lublin",
        "population": 360044,
        "latitude": 51.25,
        "longitude": 22.5666667
    },
    {
        "name": "Opole",
        "country": "Poland",
        "province": "Opole Voivodeship",
        "population": 127676,
        "latitude": 50.672115,
        "longitude": 17.925325
    },
    {
        "name": "Gorzów Wielkopolski",
        "country": "Poland",
        "province": "Lubusz",
        "population": 124430,
        "latitude": 52.73679,
        "longitude": 15.228775
    },
    {
        "name": "Gdynia",
        "country": "Poland",
        "province": "Pomerania",
        "population": 244969,
        "latitude": 54.518889514102085,
        "longitude": 18.531875610351562
    },
    {
        "name": "Zielona Góra",
        "country": "Poland",
        "province": "Lubusz",
        "population": 118433,
        "latitude": 51.9354812219999,
        "longitude": 15.5064296722412
    },
    {
        "name": "Torun",
        "country": "Poland",
        "province": "Kujawsko-Pomorskie",
        "population": 198613,
        "latitude": 53.01375050330749,
        "longitude": 18.59813690185547
    },
    {
        "name": "Rzeszów",
        "country": "Poland",
        "province": "Subcarpathia",
        "population": 158382,
        "latitude": 50.04132094662429,
        "longitude": 21.999006271362305
    },
    {
        "name": "Kielce",
        "country": "Poland",
        "province": "Świętokrzyskie",
        "population": 208598,
        "latitude": 50.87032815256481,
        "longitude": 20.627517700195312
    },
    {
        "name": "Olsztyn",
        "country": "Poland",
        "province": "Warmia-Masuria",
        "population": 171803,
        "latitude": 53.779949,
        "longitude": 20.494162
    },
    {
        "name": "Bialystok",
        "country": "Poland",
        "province": "Podlasie",
        "population": 291855,
        "latitude": 53.13333235730575,
        "longitude": 23.164329528808594
    },
    {
        "name": "Bielsko-Biala",
        "country": "Poland",
        "province": "Silesia",
        "population": 176515,
        "latitude": 49.822449,
        "longitude": 19.046863
    },
    {
        "name": "Legnica",
        "country": "Poland",
        "province": "Lower Silesia",
        "population": 106033,
        "latitude": 51.210062,
        "longitude": 16.161898
    },
    {
        "name": "Koszalin",
        "country": "Poland",
        "province": "West Pomerania",
        "population": 107450,
        "latitude": 54.1943825040708,
        "longitude": 16.1722183227539
    },
    {
        "name": "Konin",
        "country": "Poland",
        "province": "Greater Poland",
        "population": 81258,
        "latitude": 52.22338304012906,
        "longitude": 18.251209259033203
    },
    {
        "name": "Sosnowiec",
        "country": "Poland",
        "province": "Silesia",
        "population": 227295,
        "latitude": 50.286816630702724,
        "longitude": 19.103851318359375
    },
    {
        "name": "Słupsk",
        "country": "Poland",
        "province": "Pomerania",
        "population": 98608,
        "latitude": 54.464051734719,
        "longitude": 17.0287227630615
    },
    {
        "name": "Rybnik",
        "country": "Poland",
        "province": "Silesia",
        "population": 142510,
        "latitude": 50.0971285501791,
        "longitude": 18.5417890548706
    },
    {
        "name": "Ruda Śląska",
        "country": "Poland",
        "province": "Silesia",
        "population": 146189,
        "latitude": 50.25840047471556,
        "longitude": 18.85631561279297
    },
    {
        "name": "Elblag",
        "country": "Poland",
        "province": "Warmia-Masuria",
        "population": 127558,
        "latitude": 54.1522,
        "longitude": 19.408841
    },
    {
        "name": "Dąbrowa Górnicza",
        "country": "Poland",
        "province": "Silesia",
        "population": 118285,
        "latitude": 50.333937,
        "longitude": 19.204792
    },
    {
        "name": "Częstochowa",
        "country": "Poland",
        "province": "Silesia",
        "population": 248125,
        "latitude": 50.796455,
        "longitude": 19.124088
    },
    {
        "name": "Chorzów",
        "country": "Poland",
        "province": "Silesia",
        "population": 113430,
        "latitude": 50.305817,
        "longitude": 18.974203
    },
    {
        "name": "Bytom",
        "country": "Poland",
        "province": "Silesia",
        "population": 189186,
        "latitude": 50.348017,
        "longitude": 18.932822
    },
    {
        "name": "Płock",
        "country": "Poland",
        "province": "Mazovia",
        "population": 127474,
        "latitude": 52.5468176481661,
        "longitude": 19.7063827514648
    },
    {
        "name": "Kalisz",
        "country": "Poland",
        "province": "Greater Poland",
        "population": 108759,
        "latitude": 51.76109,
        "longitude": 18.091018
    },
    {
        "name": "Grudziądz",
        "country": "Poland",
        "province": "Kujawsko-Pomorskie",
        "population": 95045,
        "latitude": 53.484113083605166,
        "longitude": 18.753662109375
    },
    {
        "name": "Głogów",
        "country": "Poland",
        "province": "Lower Silesia",
        "population": 67317,
        "latitude": 51.66361190795317,
        "longitude": 16.08449935913086
    },
    {
        "name": "Gliwice",
        "country": "Poland",
        "province": "Silesia",
        "population": 198835,
        "latitude": 50.297612,
        "longitude": 18.676583
    },
    {
        "name": "Zabrze",
        "country": "Poland",
        "province": "Silesia",
        "population": 192177,
        "latitude": 50.3249159162968,
        "longitude": 18.7857627868652
    },
    {
        "name": "Włocławek",
        "country": "Poland",
        "province": "Kujawsko-Pomorskie",
        "population": 120339,
        "latitude": 52.6481670008141,
        "longitude": 19.0678024291992
    },
    {
        "name": "Wałbrzych",
        "country": "Poland",
        "province": "Lower Silesia",
        "population": 127431,
        "latitude": 50.771407,
        "longitude": 16.28432
    },
    {
        "name": "Tychy",
        "country": "Poland",
        "province": "Silesia",
        "population": 130000,
        "latitude": 50.137167,
        "longitude": 18.96641
    },
    {
        "name": "Świętochłowice",
        "country": "Poland",
        "province": "Silesia",
        "population": 55600,
        "latitude": 50.2963580211032,
        "longitude": 18.9172554016113
    },
    {
        "name": "Siedlce",
        "country": "Poland",
        "province": "Mazovia",
        "population": 77185,
        "latitude": 52.167720082876,
        "longitude": 22.2900581359863
    },
    {
        "name": "Radom",
        "country": "Poland",
        "province": "Mazovia",
        "population": 226794,
        "latitude": 51.4025255676697,
        "longitude": 21.1471366882324
    },
    {
        "name": "Nowy Sącz",
        "country": "Poland",
        "province": "Lesser Poland",
        "population": 84376,
        "latitude": 49.621766,
        "longitude": 20.697053
    },
    {
        "name": "Tarnów",
        "country": "Poland",
        "province": "Lesser Poland",
        "population": 117799,
        "latitude": 50.013806454003,
        "longitude": 20.9869766235352
    },
    {
        "name": "Bełchatów",
        "country": "Poland",
        "province": "Łódź Voivodeship",
        "population": 62896,
        "latitude": 51.36883332351,
        "longitude": 19.3567085266113
    },
    {
        "name": "Będzin",
        "country": "Poland",
        "province": "Silesia",
        "population": 58236,
        "latitude": 50.3260666426987,
        "longitude": 19.1256523132324
    },
    {
        "name": "Kłodzko",
        "country": "Poland",
        "province": "Lower Silesia",
        "population": 26845,
        "latitude": 50.434875937171235,
        "longitude": 16.661453247070312
    },
    {
        "name": "Stargard",
        "country": "Poland",
        "province": "West Pomerania",
        "population": 71224,
        "latitude": 53.3367159366071,
        "longitude": 15.0498962402344
    },
    {
        "name": "Sopot",
        "country": "Poland",
        "province": "Pomerania",
        "population": 37089,
        "latitude": 54.44179654508562,
        "longitude": 18.560028076171875
    },
    {
        "name": "Siemianowice Śląskie",
        "country": "Poland",
        "province": "Silesia",
        "population": 73121,
        "latitude": 50.3273817244692,
        "longitude": 19.0290069580078
    },
    {
        "name": "Radomsko",
        "country": "Poland",
        "province": "Łódź Voivodeship",
        "population": 45353,
        "latitude": 51.06712890958222,
        "longitude": 19.44477081298828
    },
    {
        "name": "Racibórz",
        "country": "Poland",
        "province": "Silesia",
        "population": 58464,
        "latitude": 50.0919526904739,
        "longitude": 18.2192802429199
    },
    {
        "name": "Chrzanów",
        "country": "Poland",
        "province": "Lesser Poland",
        "population": 39973,
        "latitude": 50.135462050648556,
        "longitude": 19.402027130126953
    },
    {
        "name": "Chojnice",
        "country": "Poland",
        "province": "Pomerania",
        "population": 39407,
        "latitude": 53.69553767095321,
        "longitude": 17.557010650634766
    },
    {
        "name": "Mysłowice",
        "country": "Poland",
        "province": "Silesia",
        "population": 74586,
        "latitude": 50.20745035531579,
        "longitude": 19.16667938232422
    },
    {
        "name": "Malbork",
        "country": "Poland",
        "province": "Pomerania",
        "population": 38723,
        "latitude": 54.035905098344344,
        "longitude": 19.02660369873047
    },
    {
        "name": "Lubin",
        "country": "Poland",
        "province": "Lower Silesia",
        "population": 77532,
        "latitude": 51.4008924142276,
        "longitude": 16.2014865875244
    },
    {
        "name": "Lowicz",
        "country": "Poland",
        "province": "Łódź Voivodeship",
        "population": 29809,
        "latitude": 52.1071377882498,
        "longitude": 19.9452495574951
    },
    {
        "name": "Łobez",
        "country": "Poland",
        "province": "West Pomerania",
        "population": 10609,
        "latitude": 53.639180622496646,
        "longitude": 15.62129259109497
    },
    {
        "name": "Leszno",
        "country": "Poland",
        "province": "Greater Poland",
        "population": 63565,
        "latitude": 51.8403384103424,
        "longitude": 16.5749359130859
    },
    {
        "name": "Piotrkow Trybunalski",
        "country": "Poland",
        "province": "Łódź Voivodeship",
        "population": 80128,
        "latitude": 51.4054704510688,
        "longitude": 19.7032070159912
    },
    {
        "name": "Piła",
        "country": "Poland",
        "province": "Greater Poland",
        "population": 75532,
        "latitude": 53.1514546130019,
        "longitude": 16.7378211021423
    },
    {
        "name": "Pabianice",
        "country": "Poland",
        "province": "Łódź Voivodeship",
        "population": 70542,
        "latitude": 51.6644637212056,
        "longitude": 19.3547344207764
    },
    {
        "name": "Oświęcim",
        "country": "Poland",
        "province": "Lesser Poland",
        "population": 39057,
        "latitude": 50.034374886877,
        "longitude": 19.2103672027588
    },
    {
        "name": "Ostrów Wielkopolski",
        "country": "Poland",
        "province": "Greater Poland",
        "population": 72898,
        "latitude": 51.6550130212788,
        "longitude": 17.80686378479
    },
    {
        "name": "Jelenia Góra",
        "country": "Poland",
        "province": "Lower Silesia",
        "population": 87310,
        "latitude": 50.89973091744666,
        "longitude": 15.728988647460938
    },
    {
        "name": "Jaworzno",
        "country": "Poland",
        "province": "Silesia",
        "population": 96541,
        "latitude": 50.2052804729873,
        "longitude": 19.2749762535095
    },
    {
        "name": "Jastrzębie Zdrój",
        "country": "Poland",
        "province": "Silesia",
        "population": 95813,
        "latitude": 49.9554169671988,
        "longitude": 18.5747909545898
    },
    {
        "name": "Jarocin",
        "country": "Poland",
        "province": "Greater Poland",
        "population": 25665,
        "latitude": 51.97265778697935,
        "longitude": 17.502556443214417
    },
    {
        "name": "Inowrocław",
        "country": "Poland",
        "province": "Kujawsko-Pomorskie",
        "population": 77597,
        "latitude": 52.798858,
        "longitude": 18.263875
    },
    {
        "name": "Iława",
        "country": "Poland",
        "province": "Warmia-Masuria",
        "population": 32557,
        "latitude": 53.59600696685255,
        "longitude": 19.568485021591187
    },
    {
        "name": "Gniezno",
        "country": "Poland",
        "province": "Greater Poland",
        "population": 70269,
        "latitude": 52.5348112129258,
        "longitude": 17.5825881958008
    },
    {
        "name": "Żory",
        "country": "Poland",
        "province": "Silesia",
        "population": 63174,
        "latitude": 50.0452345535043,
        "longitude": 18.7006187438965
    },
    {
        "name": "Zgierz",
        "country": "Poland",
        "province": "Łódź Voivodeship",
        "population": 58036,
        "latitude": 51.8556087241295,
        "longitude": 19.4062328338623
    },
    {
        "name": "Zawiercie",
        "country": "Poland",
        "province": "Silesia",
        "population": 53159,
        "latitude": 50.4876579681412,
        "longitude": 19.4167900085449
    },
    {
        "name": "Zakopane",
        "country": "Poland",
        "province": "Lesser Poland",
        "population": 27266,
        "latitude": 49.29899037109031,
        "longitude": 19.948854446411133
    },
    {
        "name": "Żagań",
        "country": "Poland",
        "province": "Lubusz",
        "population": 26251,
        "latitude": 51.61759020766987,
        "longitude": 15.314855575561523
    },
    {
        "name": "Wieluń",
        "country": "Poland",
        "province": "Łódź Voivodeship",
        "population": 21892,
        "latitude": 51.220969975619994,
        "longitude": 18.56964111328125
    },
    {
        "name": "Świnoujście",
        "country": "Poland",
        "province": "West Pomerania",
        "population": 40919,
        "latitude": 53.9105320170883,
        "longitude": 14.2471218109131
    },
    {
        "name": "Swidnica",
        "country": "Poland",
        "province": "Lower Silesia",
        "population": 60351,
        "latitude": 50.8437793408944,
        "longitude": 16.4885902404785
    },
    {
        "name": "Ursynów",
        "country": "Poland",
        "province": "Mazovia",
        "population": 150668,
        "latitude": 52.150508605454036,
        "longitude": 21.050405502319336
    },
    {
        "name": "Praga Południe",
        "country": "Poland",
        "province": "Mazovia",
        "population": 179836,
        "latitude": 52.24423868113827,
        "longitude": 21.085445880889893
    },
    {
        "name": "Łomża",
        "country": "Poland",
        "province": "Podlasie",
        "population": 63723,
        "latitude": 53.17805781561592,
        "longitude": 22.059345245361328
    },
    {
        "name": "Kurów",
        "country": "Poland",
        "province": "Lublin",
        "population": 2804,
        "latitude": 51.3894051468079,
        "longitude": 22.1863746643066
    },
    {
        "name": "Przemyśl",
        "country": "Poland",
        "province": "Subcarpathia",
        "population": 67013,
        "latitude": 49.7849771572062,
        "longitude": 22.767276763916
    },
    {
        "name": "Zamość",
        "country": "Poland",
        "province": "Lublin",
        "population": 66034,
        "latitude": 50.7231445409462,
        "longitude": 23.2519626617432
    },
    {
        "name": "Wola",
        "country": "Poland",
        "province": "Mazovia",
        "population": 140958,
        "latitude": 52.24009987208803,
        "longitude": 20.988693237304688
    },
    {
        "name": "Kętrzyn",
        "country": "Poland",
        "province": "Warmia-Masuria",
        "population": 27478,
        "latitude": 54.07676466469371,
        "longitude": 21.375274658203125
    },
    {
        "name": "Jarosław",
        "country": "Poland",
        "province": "Subcarpathia",
        "population": 40134,
        "latitude": 50.016233215266084,
        "longitude": 22.67775535583496
    },
    {
        "name": "Ostrowiec Świętokrzyski",
        "country": "Poland",
        "province": "Świętokrzyskie",
        "population": 73989,
        "latitude": 50.9293585655441,
        "longitude": 21.3852524757385
    },
    {
        "name": "Ostrołęka",
        "country": "Poland",
        "province": "Mazovia",
        "population": 53740,
        "latitude": 53.086206,
        "longitude": 21.575663
    },
    {
        "name": "Nowy Targ",
        "country": "Poland",
        "province": "Lesser Poland",
        "population": 33763,
        "latitude": 49.4778286301561,
        "longitude": 20.0322818756104
    },
    {
        "name": "Mokotów",
        "country": "Poland",
        "province": "Mazovia",
        "population": 217683,
        "latitude": 52.19340315110437,
        "longitude": 21.034870147705078
    },
    {
        "name": "Mielec",
        "country": "Poland",
        "province": "Subcarpathia",
        "population": 60993,
        "latitude": 50.28709083528788,
        "longitude": 21.423897743225098
    },
    {
        "name": "Międzyrzec Podlaski",
        "country": "Poland",
        "province": "Lublin",
        "population": 17158,
        "latitude": 51.986397,
        "longitude": 22.782482
    },
    {
        "name": "Tomaszów Mazowiecki",
        "country": "Poland",
        "province": "Łódź Voivodeship",
        "population": 67197,
        "latitude": 51.5313070763175,
        "longitude": 20.0085496902466
    },
    {
        "name": "Tarnobrzeg",
        "country": "Poland",
        "province": "Subcarpathia",
        "population": 50459,
        "latitude": 50.57304424398,
        "longitude": 21.6793727874756
    },
    {
        "name": "Targówek",
        "country": "Poland",
        "province": "Mazovia",
        "population": 124279,
        "latitude": 52.29185317970786,
        "longitude": 21.048452854156494
    },
    {
        "name": "Suwałki",
        "country": "Poland",
        "province": "Podlasie",
        "population": 69222,
        "latitude": 54.1117479823206,
        "longitude": 22.9308700561523
    },
    {
        "name": "Śródmieście",
        "country": "Poland",
        "province": "Mazovia",
        "population": 134306,
        "latitude": 52.229041,
        "longitude": 21.016442
    },
    {
        "name": "Ełk",
        "country": "Poland",
        "province": "Warmia-Masuria",
        "population": 55769,
        "latitude": 53.8282431585009,
        "longitude": 22.3646879196167
    },
    {
        "name": "Chełm",
        "country": "Poland",
        "province": "Lublin",
        "population": 63949,
        "latitude": 51.143117352310384,
        "longitude": 23.471603393554688
    },
    {
        "name": "Bielany",
        "country": "Poland",
        "province": "Mazovia",
        "population": 134854,
        "latitude": 52.292417523620564,
        "longitude": 20.935306549072266
    },
    {
        "name": "Białołeka",
        "country": "Poland",
        "province": "Mazovia",
        "population": 129106,
        "latitude": 52.32126822407621,
        "longitude": 20.972042083740234
    },
    {
        "name": "Biała Podlaska",
        "country": "Poland",
        "province": "Lublin",
        "population": 57541,
        "latitude": 52.0323765176877,
        "longitude": 23.1165218353271
    },
    {
        "name": "Bemowo",
        "country": "Poland",
        "province": "Mazovia",
        "population": 102393,
        "latitude": 52.254603718100334,
        "longitude": 20.9084415435791
    },
    {
        "name": "Brzeszcze",
        "country": "Poland",
        "province": "Lesser Poland",
        "population": 11787,
        "latitude": 49.98202663826525,
        "longitude": 19.151573181152344
    },
    {
        "name": "Brzeg Dolny",
        "country": "Poland",
        "province": "Lower Silesia",
        "population": 12511,
        "latitude": 51.272991107063056,
        "longitude": 16.708145141601562
    },
    {
        "name": "Brzeg",
        "country": "Poland",
        "province": "Opole Voivodeship",
        "population": 38259,
        "latitude": 50.8607939922662,
        "longitude": 17.4674034118652
    },
    {
        "name": "Brodnica",
        "country": "Poland",
        "province": "Kujawsko-Pomorskie",
        "population": 27341,
        "latitude": 53.2596682459524,
        "longitude": 19.396533966064453
    },
    {
        "name": "Braniewo",
        "country": "Poland",
        "province": "Warmia-Masuria",
        "population": 18356,
        "latitude": 54.3797075690283,
        "longitude": 19.8195934295654
    },
    {
        "name": "Bolesławiec",
        "country": "Poland",
        "province": "Lower Silesia",
        "population": 40682,
        "latitude": 51.264183,
        "longitude": 15.569703
    },
    {
        "name": "Bogatynia",
        "country": "Poland",
        "province": "Lower Silesia",
        "population": 17436,
        "latitude": 50.907471100207005,
        "longitude": 14.956340789794922
    },
    {
        "name": "Bielawa",
        "country": "Poland",
        "province": "Lower Silesia",
        "population": 29971,
        "latitude": 50.69074868659207,
        "longitude": 16.623001098632812
    },
    {
        "name": "Białogard",
        "country": "Poland",
        "province": "West Pomerania",
        "population": 24368,
        "latitude": 54.00696170455377,
        "longitude": 15.987510681152344
    },
    {
        "name": "Aleksandrów Łódzki",
        "country": "Poland",
        "province": "Łódź Voivodeship",
        "population": 20292,
        "latitude": 51.8196516018696,
        "longitude": 19.3038368225098
    },
    {
        "name": "Aleksandrów Kujawski",
        "country": "Poland",
        "province": "Kujawsko-Pomorskie",
        "population": 12290,
        "latitude": 52.87658981733708,
        "longitude": 18.69345188140869
    },
    {
        "name": "Lębork",
        "country": "Poland",
        "province": "Pomerania",
        "population": 35161,
        "latitude": 54.539214,
        "longitude": 17.750121
    },
    {
        "name": "Łask",
        "country": "Poland",
        "province": "Łódź Voivodeship",
        "population": 18577,
        "latitude": 51.590562669541,
        "longitude": 19.132776260376
    },
    {
        "name": "Kwidzyn",
        "country": "Poland",
        "province": "Pomerania",
        "population": 37601,
        "latitude": 53.724949,
        "longitude": 18.931137
    },
    {
        "name": "Kutno",
        "country": "Poland",
        "province": "Łódź Voivodeship",
        "population": 48323,
        "latitude": 52.2306382875341,
        "longitude": 19.3640899658203
    },
    {
        "name": "Krotoszyn",
        "country": "Poland",
        "province": "Greater Poland",
        "population": 29231,
        "latitude": 51.698677,
        "longitude": 17.437383
    },
    {
        "name": "Kowary",
        "country": "Poland",
        "province": "Lower Silesia",
        "population": 10869,
        "latitude": 50.79313218665379,
        "longitude": 15.835590362548828
    },
    {
        "name": "Kostrzyn nad Odrą",
        "country": "Poland",
        "province": "Lubusz",
        "population": 18099,
        "latitude": 52.58712772539875,
        "longitude": 14.649530947208405
    },
    {
        "name": "Kościerzyna",
        "country": "Poland",
        "province": "Pomerania",
        "population": 23361,
        "latitude": 54.12226237633524,
        "longitude": 17.981185913085938
    },
    {
        "name": "Kościan",
        "country": "Poland",
        "province": "Greater Poland",
        "population": 24096,
        "latitude": 52.088293,
        "longitude": 16.648657
    },
    {
        "name": "Koronowo",
        "country": "Poland",
        "province": "Kujawsko-Pomorskie",
        "population": 10965,
        "latitude": 53.31369826794724,
        "longitude": 17.936983108520508
    },
    {
        "name": "Konstantynów Łódzki",
        "country": "Poland",
        "province": "Łódź Voivodeship",
        "population": 17415,
        "latitude": 51.747757471689134,
        "longitude": 19.325637817382812
    },
    {
        "name": "Kołobrzeg",
        "country": "Poland",
        "province": "West Pomerania",
        "population": 44377,
        "latitude": 54.17564838385932,
        "longitude": 15.583419799804688
    },
    {
        "name": "Koło",
        "country": "Poland",
        "province": "Greater Poland",
        "population": 23493,
        "latitude": 52.2002424504467,
        "longitude": 18.6386489868164
    },
    {
        "name": "Kluczbork",
        "country": "Poland",
        "province": "Opole Voivodeship",
        "population": 25978,
        "latitude": 50.9728053590721,
        "longitude": 18.2181644439697
    },
    {
        "name": "Kłobuck",
        "country": "Poland",
        "province": "Silesia",
        "population": 13190,
        "latitude": 50.900813537892226,
        "longitude": 18.936738967895508
    },
    {
        "name": "Kędzierzyn-Koźle",
        "country": "Poland",
        "province": "Opole Voivodeship",
        "population": 65636,
        "latitude": 50.3498420838504,
        "longitude": 18.2260608673096
    },
    {
        "name": "Kartuzy",
        "country": "Poland",
        "province": "Pomerania",
        "population": 15002,
        "latitude": 54.33424266036924,
        "longitude": 18.19735050201416
    },
    {
        "name": "Starogard Gdański",
        "country": "Poland",
        "province": "Pomerania",
        "population": 48202,
        "latitude": 53.963963288880926,
        "longitude": 18.526382446289062
    },
    {
        "name": "Gmina Śrem",
        "country": "Poland",
        "province": "Greater Poland",
        "population": 30404,
        "latitude": 52.0886833415786,
        "longitude": 17.0150756835938
    },
    {
        "name": "Solec Kujawski",
        "country": "Poland",
        "province": "Kujawsko-Pomorskie",
        "population": 15125,
        "latitude": 53.083714492247026,
        "longitude": 18.225717544555664
    },
    {
        "name": "Słubice",
        "country": "Poland",
        "province": "Lubusz",
        "population": 17567,
        "latitude": 52.350879991346,
        "longitude": 14.5606505870819
    },
    {
        "name": "Sławno",
        "country": "Poland",
        "province": "West Pomerania",
        "population": 13415,
        "latitude": 54.3627578917479,
        "longitude": 16.6788768768311
    },
    {
        "name": "Skawina",
        "country": "Poland",
        "province": "Lesser Poland",
        "population": 23647,
        "latitude": 49.97523760160972,
        "longitude": 19.828691482543945
    },
    {
        "name": "Sieradz",
        "country": "Poland",
        "province": "Łódź Voivodeship",
        "population": 44436,
        "latitude": 51.5958415002081,
        "longitude": 18.7302303314209
    },
    {
        "name": "Fordon",
        "country": "Poland",
        "province": "Kujawsko-Pomorskie",
        "population": 70000,
        "latitude": 53.1482117028597,
        "longitude": 18.1703567504883
    },
    {
        "name": "Dzierżoniów",
        "country": "Poland",
        "province": "Lower Silesia",
        "population": 34168,
        "latitude": 50.7281975798881,
        "longitude": 16.6514110565186
    },
    {
        "name": "Drezdenko",
        "country": "Poland",
        "province": "Lubusz",
        "population": 10541,
        "latitude": 52.83831,
        "longitude": 15.830785
    },
    {
        "name": "Drawsko Pomorskie",
        "country": "Poland",
        "province": "West Pomerania",
        "population": 11275,
        "latitude": 53.530564220316,
        "longitude": 15.809669494628906
    },
    {
        "name": "Darłowo",
        "country": "Poland",
        "province": "West Pomerania",
        "population": 14398,
        "latitude": 54.420952527434686,
        "longitude": 16.410698890686035
    },
    {
        "name": "Człuchów",
        "country": "Poland",
        "province": "Pomerania",
        "population": 14759,
        "latitude": 53.66722236787448,
        "longitude": 17.358827590942383
    },
    {
        "name": "Czechowice-Dziedzice",
        "country": "Poland",
        "province": "Silesia",
        "population": 34703,
        "latitude": 49.913416,
        "longitude": 19.004789
    },
    {
        "name": "Cieszyn",
        "country": "Poland",
        "province": "Silesia",
        "population": 35586,
        "latitude": 49.7513271980458,
        "longitude": 18.6321258544922
    },
    {
        "name": "Chełmża",
        "country": "Poland",
        "province": "Kujawsko-Pomorskie",
        "population": 15403,
        "latitude": 53.1846288903226,
        "longitude": 18.6046600341797
    },
    {
        "name": "Chełmno",
        "country": "Poland",
        "province": "Kujawsko-Pomorskie",
        "population": 20576,
        "latitude": 53.348553151749904,
        "longitude": 18.42510223388672
    },
    {
        "name": "Bystrzyca Kłodzka",
        "country": "Poland",
        "province": "Lower Silesia",
        "population": 10375,
        "latitude": 50.301785889263535,
        "longitude": 16.64231300354004
    },
    {
        "name": "Nowa Sól",
        "country": "Poland",
        "province": "Lubusz",
        "population": 40354,
        "latitude": 51.8033341492147,
        "longitude": 15.7170152664185
    },
    {
        "name": "Nowa Ruda",
        "country": "Poland",
        "province": "Lower Silesia",
        "population": 24753,
        "latitude": 50.58007558066723,
        "longitude": 16.501636505126953
    },
    {
        "name": "Nakło nad Notecią",
        "country": "Poland",
        "province": "Kujawsko-Pomorskie",
        "population": 19565,
        "latitude": 53.1421370217295,
        "longitude": 17.6018142700195
    },
    {
        "name": "Myszków",
        "country": "Poland",
        "province": "Silesia",
        "population": 33273,
        "latitude": 50.575202,
        "longitude": 19.324607
    },
    {
        "name": "Milicz",
        "country": "Poland",
        "province": "Lower Silesia",
        "population": 11304,
        "latitude": 51.52770282862996,
        "longitude": 17.271366119384766
    },
    {
        "name": "Mikołów",
        "country": "Poland",
        "province": "Silesia",
        "population": 38821,
        "latitude": 50.17103,
        "longitude": 18.904098
    },
    {
        "name": "Międzyrzecz",
        "country": "Poland",
        "province": "Lubusz",
        "population": 18669,
        "latitude": 52.4446059325045,
        "longitude": 15.5780124664307
    },
    {
        "name": "Luboń",
        "country": "Poland",
        "province": "Greater Poland",
        "population": 26431,
        "latitude": 52.347049,
        "longitude": 16.892671
    },
    {
        "name": "Lubliniec",
        "country": "Poland",
        "province": "Silesia",
        "population": 23784,
        "latitude": 50.66896674863012,
        "longitude": 18.684396743774414
    },
    {
        "name": "Pszczyna",
        "country": "Poland",
        "province": "Silesia",
        "population": 25288,
        "latitude": 49.9803708639975,
        "longitude": 18.9538192749023
    },
    {
        "name": "Polkowice",
        "country": "Poland",
        "province": "Lower Silesia",
        "population": 21565,
        "latitude": 51.5039076371062,
        "longitude": 16.0726118087769
    },
    {
        "name": "Police",
        "country": "Poland",
        "province": "West Pomerania",
        "population": 34350,
        "latitude": 53.5521390134073,
        "longitude": 14.5718193054199
    },
    {
        "name": "Piekary Śląskie",
        "country": "Poland",
        "province": "Silesia",
        "population": 59757,
        "latitude": 50.3801740916552,
        "longitude": 18.9265251159668
    },
    {
        "name": "Ostróda",
        "country": "Poland",
        "province": "Warmia-Masuria",
        "population": 33524,
        "latitude": 53.6967064753032,
        "longitude": 19.964861869812
    },
    {
        "name": "Olkusz",
        "country": "Poland",
        "province": "Lesser Poland",
        "population": 37744,
        "latitude": 50.2812979275791,
        "longitude": 19.56503033638
    },
    {
        "name": "Oleśnica",
        "country": "Poland",
        "province": "Lower Silesia",
        "population": 36956,
        "latitude": 51.213376123498406,
        "longitude": 17.38985538482666
    },
    {
        "name": "Oława",
        "country": "Poland",
        "province": "Lower Silesia",
        "population": 33029,
        "latitude": 50.9465988523528,
        "longitude": 17.292598485946655
    },
    {
        "name": "Nysa",
        "country": "Poland",
        "province": "Opole Voivodeship",
        "population": 47283,
        "latitude": 50.4737851708454,
        "longitude": 17.3343658447266
    },
    {
        "name": "Nowe Miasto Lubawskie",
        "country": "Poland",
        "province": "Warmia-Masuria",
        "population": 10997,
        "latitude": 53.420786207940886,
        "longitude": 19.59514617919922
    },
    {
        "name": "Gryfino",
        "country": "Poland",
        "province": "West Pomerania",
        "population": 21270,
        "latitude": 53.2524282692882,
        "longitude": 14.488306045532227
    },
    {
        "name": "Goleniów",
        "country": "Poland",
        "province": "West Pomerania",
        "population": 22505,
        "latitude": 53.5639163510808,
        "longitude": 14.8285388946533
    },
    {
        "name": "Żywiec",
        "country": "Poland",
        "province": "Silesia",
        "population": 32132,
        "latitude": 49.6852899567354,
        "longitude": 19.1924285888672
    },
    {
        "name": "Złotów",
        "country": "Poland",
        "province": "Greater Poland",
        "population": 18395,
        "latitude": 53.36346029138311,
        "longitude": 17.04082489013672
    },
    {
        "name": "Złotoryja",
        "country": "Poland",
        "province": "Lower Silesia",
        "population": 15564,
        "latitude": 51.126367518319235,
        "longitude": 15.919790267944336
    },
    {
        "name": "Zgorzelec",
        "country": "Poland",
        "province": "Lower Silesia",
        "population": 33247,
        "latitude": 51.1494171639742,
        "longitude": 15.0083541870117
    },
    {
        "name": "Żary",
        "country": "Poland",
        "province": "Lubusz",
        "population": 38779,
        "latitude": 51.6420450515497,
        "longitude": 15.1372718811035
    },
    {
        "name": "Ząbkowice Śląskie",
        "country": "Poland",
        "province": "Lower Silesia",
        "population": 16321,
        "latitude": 50.58969427498345,
        "longitude": 16.812386512756348
    },
    {
        "name": "Września",
        "country": "Poland",
        "province": "Greater Poland",
        "population": 28703,
        "latitude": 52.3251240552979,
        "longitude": 17.5651860237122
    },
    {
        "name": "Wodzisław Śląski",
        "country": "Poland",
        "province": "Silesia",
        "population": 49521,
        "latitude": 50.0037671849823,
        "longitude": 18.4720516204834
    },
    {
        "name": "Wejherowo",
        "country": "Poland",
        "province": "Pomerania",
        "population": 46820,
        "latitude": 54.6056816274172,
        "longitude": 18.2355880737305
    },
    {
        "name": "Wałcz",
        "country": "Poland",
        "province": "West Pomerania",
        "population": 25971,
        "latitude": 53.277869,
        "longitude": 16.471218
    },
    {
        "name": "Wągrowiec",
        "country": "Poland",
        "province": "Greater Poland",
        "population": 24428,
        "latitude": 52.80841704269194,
        "longitude": 17.19961166381836
    },
    {
        "name": "Wadowice",
        "country": "Poland",
        "province": "Lesser Poland",
        "population": 19238,
        "latitude": 49.8833535660444,
        "longitude": 19.4929218292236
    },
    {
        "name": "Ustka",
        "country": "Poland",
        "province": "Pomerania",
        "population": 16250,
        "latitude": 54.5804754680431,
        "longitude": 16.8619430065155
    },
    {
        "name": "Trzebiatów",
        "country": "Poland",
        "province": "West Pomerania",
        "population": 10322,
        "latitude": 54.0614659276283,
        "longitude": 15.2647519111633
    },
    {
        "name": "Tczew",
        "country": "Poland",
        "province": "Pomerania",
        "population": 60133,
        "latitude": 54.0924227171428,
        "longitude": 18.7778663635254
    },
    {
        "name": "Tarnowskie Góry",
        "country": "Poland",
        "province": "Silesia",
        "population": 60938,
        "latitude": 50.4454807823188,
        "longitude": 18.8614654541016
    },
    {
        "name": "Szklarska Poręba",
        "country": "Poland",
        "province": "Lower Silesia",
        "population": 6970,
        "latitude": 50.82567414095757,
        "longitude": 15.522737503051758
    },
    {
        "name": "Szczecinek",
        "country": "Poland",
        "province": "West Pomerania",
        "population": 38496,
        "latitude": 53.707908,
        "longitude": 16.699373
    },
    {
        "name": "Szamotuły",
        "country": "Poland",
        "province": "Greater Poland",
        "population": 18588,
        "latitude": 52.6120126079598,
        "longitude": 16.5779399871826
    },
    {
        "name": "Gmina Świecie",
        "country": "Poland",
        "province": "Kujawsko-Pomorskie",
        "population": 25843,
        "latitude": 53.40953185308643,
        "longitude": 18.447418212890625
    },
    {
        "name": "Świdwin",
        "country": "Poland",
        "province": "West Pomerania",
        "population": 15725,
        "latitude": 53.77463812312162,
        "longitude": 15.776710510253906
    },
    {
        "name": "Swarzędz",
        "country": "Poland",
        "province": "Greater Poland",
        "population": 29010,
        "latitude": 52.4128908926402,
        "longitude": 17.0850276947021
    },
    {
        "name": "Strzegom",
        "country": "Poland",
        "province": "Lower Silesia",
        "population": 16106,
        "latitude": 50.962643476217686,
        "longitude": 16.350059509277344
    },
    {
        "name": "Praga Północ",
        "country": "Poland",
        "province": "Mazovia",
        "population": 93192,
        "latitude": 52.2544329576448,
        "longitude": 21.0347199440002
    },
    {
        "name": "Łuków",
        "country": "Poland",
        "province": "Lublin",
        "population": 30465,
        "latitude": 51.928998,
        "longitude": 22.379556
    },
    {
        "name": "Limanowa",
        "country": "Poland",
        "province": "Lesser Poland",
        "population": 14738,
        "latitude": 49.70594318054406,
        "longitude": 20.422039031982422
    },
    {
        "name": "Lidzbark Warmiński",
        "country": "Poland",
        "province": "Warmia-Masuria",
        "population": 16540,
        "latitude": 54.12588394225479,
        "longitude": 20.579538345336914
    },
    {
        "name": "Legionowo",
        "country": "Poland",
        "province": "Mazovia",
        "population": 50786,
        "latitude": 52.401488,
        "longitude": 20.926636
    },
    {
        "name": "Krynica-Zdrój",
        "country": "Poland",
        "province": "Lesser Poland",
        "population": 12270,
        "latitude": 49.422252374873736,
        "longitude": 20.95942497253418
    },
    {
        "name": "Krosno",
        "country": "Poland",
        "province": "Subcarpathia",
        "population": 47784,
        "latitude": 49.688663,
        "longitude": 21.770579
    },
    {
        "name": "Kozienice",
        "country": "Poland",
        "province": "Mazovia",
        "population": 18677,
        "latitude": 51.58293660882847,
        "longitude": 21.547794342041016
    },
    {
        "name": "Końskowola",
        "country": "Poland",
        "province": "Lublin",
        "population": 2208,
        "latitude": 51.4092182102262,
        "longitude": 22.0517492294312
    },
    {
        "name": "Kolno",
        "country": "Poland",
        "province": "Podlasie",
        "population": 10659,
        "latitude": 53.41147599989646,
        "longitude": 21.929054260253906
    },
    {
        "name": "Skierniewice",
        "country": "Poland",
        "province": "Łódź Voivodeship",
        "population": 49042,
        "latitude": 51.9548453141871,
        "longitude": 20.1583671569824
    },
    {
        "name": "Skarżysko-Kamienna",
        "country": "Poland",
        "province": "Świętokrzyskie",
        "population": 49410,
        "latitude": 51.1131141493957,
        "longitude": 20.8716201782227
    },
    {
        "name": "Sanok",
        "country": "Poland",
        "province": "Subcarpathia",
        "population": 39684,
        "latitude": 49.5557300009198,
        "longitude": 22.2056007385254
    },
    {
        "name": "Sandomierz",
        "country": "Poland",
        "province": "Świętokrzyskie",
        "population": 25087,
        "latitude": 50.6826462252046,
        "longitude": 21.7489814758301
    },
    {
        "name": "Pruszków",
        "country": "Poland",
        "province": "Mazovia",
        "population": 55371,
        "latitude": 52.1707207144844,
        "longitude": 20.8121395111084
    },
    {
        "name": "Płońsk",
        "country": "Poland",
        "province": "Mazovia",
        "population": 22217,
        "latitude": 52.6234768885609,
        "longitude": 20.3755187988281
    },
    {
        "name": "Żyrardów",
        "country": "Poland",
        "province": "Mazovia",
        "population": 41179,
        "latitude": 52.0487956768243,
        "longitude": 20.4459857940674
    },
    {
        "name": "Żoliborz",
        "country": "Poland",
        "province": "Mazovia",
        "population": 50934,
        "latitude": 52.268958380727895,
        "longitude": 20.986440181732178
    },
    {
        "name": "Zambrów",
        "country": "Poland",
        "province": "Podlasie",
        "population": 22857,
        "latitude": 52.98549541167734,
        "longitude": 22.243194580078125
    },
    {
        "name": "Wyszków",
        "country": "Poland",
        "province": "Mazovia",
        "population": 26500,
        "latitude": 52.59277714152458,
        "longitude": 21.458401679992676
    },
    {
        "name": "Wołomin",
        "country": "Poland",
        "province": "Mazovia",
        "population": 36592,
        "latitude": 52.3400589501477,
        "longitude": 21.2420654296875
    },
    {
        "name": "Wieliczka",
        "country": "Poland",
        "province": "Lesser Poland",
        "population": 18677,
        "latitude": 49.9873799183893,
        "longitude": 20.0647258758545
    },
    {
        "name": "Jasło",
        "country": "Poland",
        "province": "Subcarpathia",
        "population": 37851,
        "latitude": 49.7450602936371,
        "longitude": 21.4725208282471
    },
    {
        "name": "Hrubieszów",
        "country": "Poland",
        "province": "Lublin",
        "population": 18605,
        "latitude": 50.805019,
        "longitude": 23.892508
    },
    {
        "name": "Grodzisk Mazowiecki",
        "country": "Poland",
        "province": "Mazovia",
        "population": 26684,
        "latitude": 52.1038692712694,
        "longitude": 20.6336975097656
    },
    {
        "name": "Gorlice",
        "country": "Poland",
        "province": "Lesser Poland",
        "population": 28609,
        "latitude": 49.65562724284054,
        "longitude": 21.160354614257812
    },
    {
        "name": "Giżycko",
        "country": "Poland",
        "province": "Warmia-Masuria",
        "population": 29972,
        "latitude": 54.03811,
        "longitude": 21.764411
    },
    {
        "name": "Piaseczno",
        "country": "Poland",
        "province": "Mazovia",
        "population": 36278,
        "latitude": 52.081404918174,
        "longitude": 21.0239696502686
    },
    {
        "name": "Otwock",
        "country": "Poland",
        "province": "Mazovia",
        "population": 43388,
        "latitude": 52.1057671490049,
        "longitude": 21.2612915039062
    },
    {
        "name": "Ostrów Mazowiecka",
        "country": "Poland",
        "province": "Mazovia",
        "population": 22653,
        "latitude": 52.80245007512573,
        "longitude": 21.895065307617188
    },
    {
        "name": "Ochota",
        "country": "Poland",
        "province": "Mazovia",
        "population": 93192,
        "latitude": 52.2209643608655,
        "longitude": 20.9852600097656
    },
    {
        "name": "Nowy Dwór Mazowiecki",
        "country": "Poland",
        "province": "Mazovia",
        "population": 27633,
        "latitude": 52.43021662204096,
        "longitude": 20.716524124145508
    },
    {
        "name": "Mława",
        "country": "Poland",
        "province": "Mazovia",
        "population": 29398,
        "latitude": 53.112781122136006,
        "longitude": 20.38410186767578
    },
    {
        "name": "Wawer",
        "country": "Poland",
        "province": "Mazovia",
        "population": 77205,
        "latitude": 52.19655988156884,
        "longitude": 21.177520751953125
    },
    {
        "name": "Trojany",
        "country": "Poland",
        "province": "Mazovia",
        "population": -1,
        "latitude": 52.47682093870732,
        "longitude": 21.346263885498047
    },
    {
        "name": "Szczytno",
        "country": "Poland",
        "province": "Warmia-Masuria",
        "population": 26044,
        "latitude": 53.562589,
        "longitude": 20.987474
    },
    {
        "name": "Starachowice",
        "country": "Poland",
        "province": "Świętokrzyskie",
        "population": 53739,
        "latitude": 51.0374001829412,
        "longitude": 21.0712623596191
    },
    {
        "name": "Stalowa Wola",
        "country": "Poland",
        "province": "Subcarpathia",
        "population": 66495,
        "latitude": 50.582855121944,
        "longitude": 22.053337097168
    },
    {
        "name": "Sokołów Małopolski",
        "country": "Poland",
        "province": "Subcarpathia",
        "population": 3975,
        "latitude": 50.229088845353,
        "longitude": 22.11968421936035
    },
    {
        "name": "Sochaczew",
        "country": "Poland",
        "province": "Mazovia",
        "population": 38267,
        "latitude": 52.2294423048093,
        "longitude": 20.2383828163147
    },
    {
        "name": "Dębica",
        "country": "Poland",
        "province": "Subcarpathia",
        "population": 47366,
        "latitude": 50.0514625937768,
        "longitude": 21.4114093780518
    },
    {
        "name": "Dąbrowa Tarnowska",
        "country": "Poland",
        "province": "Lesser Poland",
        "population": 11291,
        "latitude": 50.1746169104848,
        "longitude": 20.9863328933716
    },
    {
        "name": "Ciechanów",
        "country": "Poland",
        "province": "Mazovia",
        "population": 46438,
        "latitude": 52.8814071100186,
        "longitude": 20.6199645996094
    },
    {
        "name": "Busko-Zdrój",
        "country": "Poland",
        "province": "Świętokrzyskie",
        "population": 17095,
        "latitude": 50.4707806823393,
        "longitude": 20.7188415527344
    },
    {
        "name": "Bochotnica",
        "country": "Poland",
        "province": "Lublin",
        "population": -1,
        "latitude": 51.339044,
        "longitude": 21.99247
    },
    {
        "name": "Bochnia",
        "country": "Poland",
        "province": "Lesser Poland",
        "population": 29184,
        "latitude": 49.9690548812661,
        "longitude": 20.4302787780762
    },
    {
        "name": "Biłgoraj",
        "country": "Poland",
        "province": "Lublin",
        "population": 26987,
        "latitude": 50.5411447758958,
        "longitude": 22.7220439910889
    },
    {
        "name": "Bielsk Podlaski",
        "country": "Poland",
        "province": "Podlasie",
        "population": 26493,
        "latitude": 52.7651249896308,
        "longitude": 23.1864738464355
    },
    {
        "name": "Bartoszyce",
        "country": "Poland",
        "province": "Warmia-Masuria",
        "population": 23482,
        "latitude": 54.253542590505596,
        "longitude": 20.808191299438477
    },
    {
        "name": "Augustów",
        "country": "Poland",
        "province": "Podlasie",
        "population": 29752,
        "latitude": 53.84320990624758,
        "longitude": 22.979793548583984
    },
    {
        "name": "Mińsk Mazowiecki",
        "country": "Poland",
        "province": "Mazovia",
        "population": 37027,
        "latitude": 52.1793529819817,
        "longitude": 21.5725135803223
    },
    {
        "name": "Puławy",
        "country": "Poland",
        "province": "Lublin",
        "population": 49759,
        "latitude": 51.4165522214408,
        "longitude": 21.9693946838379
    },
    {
        "name": "Brzeziny",
        "country": "Poland",
        "province": "Łódź Voivodeship",
        "population": 12289,
        "latitude": 51.8002291844456,
        "longitude": 19.751443862915
    },
    {
        "name": "Brześć Kujawski",
        "country": "Poland",
        "province": "Kujawsko-Pomorskie",
        "population": 4522,
        "latitude": 52.6053215525743,
        "longitude": 18.9017307758331
    },
    {
        "name": "Brusy",
        "country": "Poland",
        "province": "Pomerania",
        "population": 4728,
        "latitude": 53.88446103912615,
        "longitude": 17.717857360839844
    },
    {
        "name": "Boguszów-Gorce",
        "country": "Poland",
        "province": "Lower Silesia",
        "population": 16726,
        "latitude": 50.755135,
        "longitude": 16.204937
    },
    {
        "name": "Bierutów",
        "country": "Poland",
        "province": "Lower Silesia",
        "population": 5065,
        "latitude": 51.1244282383995,
        "longitude": 17.546067237854
    },
    {
        "name": "Bieruń",
        "country": "Poland",
        "province": "Silesia",
        "population": 19659,
        "latitude": 50.0899978320544,
        "longitude": 19.0929079055786
    },
    {
        "name": "Biała Prudnicka",
        "country": "Poland",
        "province": "Opole Voivodeship",
        "population": 2605,
        "latitude": 50.38586602585186,
        "longitude": 17.660350799560547
    },
    {
        "name": "Barlinek",
        "country": "Poland",
        "province": "West Pomerania",
        "population": 14385,
        "latitude": 52.99464030772181,
        "longitude": 15.218639373779297
    },
    {
        "name": "Bardo",
        "country": "Poland",
        "province": "Lower Silesia",
        "population": 2763,
        "latitude": 50.505893953077006,
        "longitude": 16.739859580993652
    },
    {
        "name": "Barcin",
        "country": "Poland",
        "province": "Kujawsko-Pomorskie",
        "population": 7682,
        "latitude": 52.866072792622376,
        "longitude": 17.946252822875977
    },
    {
        "name": "Babimost",
        "country": "Poland",
        "province": "Lubusz",
        "population": 4182,
        "latitude": 52.1648771925741,
        "longitude": 15.827693939209
    },
    {
        "name": "Andrychów",
        "country": "Poland",
        "province": "Lesser Poland",
        "population": 21954,
        "latitude": 49.8549739449167,
        "longitude": 19.3383407592773
    },
    {
        "name": "Alwernia",
        "country": "Poland",
        "province": "Lesser Poland",
        "population": 3362,
        "latitude": 50.0605551832996,
        "longitude": 19.5395278930664
    },
    {
        "name": "Leśna",
        "country": "Poland",
        "province": "Lower Silesia",
        "population": 4648,
        "latitude": 51.024310257763396,
        "longitude": 15.264129638671875
    },
    {
        "name": "Łęknica",
        "country": "Poland",
        "province": "Lubusz",
        "population": 2565,
        "latitude": 51.5414775252887,
        "longitude": 14.7358417510986
    },
    {
        "name": "Lędziny",
        "country": "Poland",
        "province": "Silesia",
        "population": 16305,
        "latitude": 50.1426410084893,
        "longitude": 19.1314888000488
    },
    {
        "name": "Łęczyca",
        "country": "Poland",
        "province": "Łódź Voivodeship",
        "population": 15528,
        "latitude": 52.0595889112351,
        "longitude": 19.1997241973877
    },
    {
        "name": "Leba",
        "country": "Poland",
        "province": "Pomerania",
        "population": 3744,
        "latitude": 54.7609866421399,
        "longitude": 17.5554656982422
    },
    {
        "name": "Łazy",
        "country": "Poland",
        "province": "Silesia",
        "population": 7166,
        "latitude": 50.42768625023368,
        "longitude": 19.39464569091797
    },
    {
        "name": "Łaziska Górne",
        "country": "Poland",
        "province": "Silesia",
        "population": 21983,
        "latitude": 50.1495163947792,
        "longitude": 18.8421535491943
    },
    {
        "name": "Lądek Zdrój",
        "country": "Poland",
        "province": "Lower Silesia",
        "population": 6140,
        "latitude": 50.3437076253021,
        "longitude": 16.8794631958008
    },
    {
        "name": "Kudowa-Zdrój",
        "country": "Poland",
        "province": "Lower Silesia",
        "population": 10176,
        "latitude": 50.4429664463099,
        "longitude": 16.2439727783203
    },
    {
        "name": "Krzywiń",
        "country": "Poland",
        "province": "Greater Poland",
        "population": 1630,
        "latitude": 51.96296410509037,
        "longitude": 16.81985378265381
    },
    {
        "name": "Krzeszowice",
        "country": "Poland",
        "province": "Lesser Poland",
        "population": 9978,
        "latitude": 50.1424759870735,
        "longitude": 19.6322250366211
    },
    {
        "name": "Krzanowice",
        "country": "Poland",
        "province": "Silesia",
        "population": 2149,
        "latitude": 50.0182186560488,
        "longitude": 18.1225061416626
    },
    {
        "name": "Krynica Morska",
        "country": "Poland",
        "province": "Pomerania",
        "population": 1339,
        "latitude": 54.38050738090574,
        "longitude": 19.444127082824707
    },
    {
        "name": "Krosno Odrzańskie",
        "country": "Poland",
        "province": "Lubusz",
        "population": 12178,
        "latitude": 52.0549183205378,
        "longitude": 15.098819732666
    },
    {
        "name": "Gmina Krośnice",
        "country": "Poland",
        "province": "Lower Silesia",
        "population": 1800,
        "latitude": 51.4764115256347,
        "longitude": 17.3591709136963
    },
    {
        "name": "Krapkowice",
        "country": "Poland",
        "province": "Opole Voivodeship",
        "population": 18275,
        "latitude": 50.4751507843204,
        "longitude": 17.9653930664062
    },
    {
        "name": "Kozy",
        "country": "Poland",
        "province": "Silesia",
        "population": 11920,
        "latitude": 49.8475581976672,
        "longitude": 19.1489124298096
    },
    {
        "name": "Kowalewo Pomorskie",
        "country": "Poland",
        "province": "Kujawsko-Pomorskie",
        "population": 4081,
        "latitude": 53.154324126855734,
        "longitude": 18.898683786392212
    },
    {
        "name": "Kowal",
        "country": "Poland",
        "province": "Kujawsko-Pomorskie",
        "population": 3490,
        "latitude": 52.5301904705754,
        "longitude": 19.1476678848267
    },
    {
        "name": "Gmina Koszęcin",
        "country": "Poland",
        "province": "Silesia",
        "population": 4471,
        "latitude": 50.6341109490917,
        "longitude": 18.8412952423096
    },
    {
        "name": "Koniecpol",
        "country": "Poland",
        "province": "Silesia",
        "population": 6318,
        "latitude": 50.774681682270334,
        "longitude": 19.6889591217041
    },
    {
        "name": "Komprachcice",
        "country": "Poland",
        "province": "Opole Voivodeship",
        "population": 2800,
        "latitude": 50.6367784266033,
        "longitude": 17.8263473510742
    },
    {
        "name": "Koluszki",
        "country": "Poland",
        "province": "Łódź Voivodeship",
        "population": 13343,
        "latitude": 51.7387227856843,
        "longitude": 19.8199367523193
    },
    {
        "name": "Knurów",
        "country": "Poland",
        "province": "Silesia",
        "population": 39744,
        "latitude": 50.219708,
        "longitude": 18.65067
    },
    {
        "name": "Kęty",
        "country": "Poland",
        "province": "Lesser Poland",
        "population": 19249,
        "latitude": 49.8821368484784,
        "longitude": 19.2233276367188
    },
    {
        "name": "Kępno",
        "country": "Poland",
        "province": "Greater Poland",
        "population": 14813,
        "latitude": 51.2784007188075,
        "longitude": 17.9890823364258
    },
    {
        "name": "Środa Wielkopolska",
        "country": "Poland",
        "province": "Greater Poland",
        "population": 21757,
        "latitude": 52.2284302942613,
        "longitude": 17.2761726379395
    },
    {
        "name": "Środa Śląska",
        "country": "Poland",
        "province": "Lower Silesia",
        "population": 8912,
        "latitude": 51.1640595569921,
        "longitude": 16.5950846672058
    },
    {
        "name": "Słupca",
        "country": "Poland",
        "province": "Greater Poland",
        "population": 14476,
        "latitude": 52.2873250438644,
        "longitude": 17.8719234466553
    },
    {
        "name": "Skwierzyna",
        "country": "Poland",
        "province": "Lubusz",
        "population": 10051,
        "latitude": 52.5991377697697,
        "longitude": 15.5065155029297
    },
    {
        "name": "Skórcz",
        "country": "Poland",
        "province": "Pomerania",
        "population": 3564,
        "latitude": 53.79436463347384,
        "longitude": 18.525609970092773
    },
    {
        "name": "Skoczów",
        "country": "Poland",
        "province": "Silesia",
        "population": 14810,
        "latitude": 49.800892,
        "longitude": 18.787705
    },
    {
        "name": "Skarszewy",
        "country": "Poland",
        "province": "Pomerania",
        "population": 6942,
        "latitude": 54.06910970497909,
        "longitude": 18.444156646728516
    },
    {
        "name": "Sierpc",
        "country": "Poland",
        "province": "Mazovia",
        "population": 18866,
        "latitude": 52.8567970443809,
        "longitude": 19.669132232666
    },
    {
        "name": "Gmina Sierakowice",
        "country": "Poland",
        "province": "Pomerania",
        "population": 7068,
        "latitude": 54.3461013964137,
        "longitude": 17.8925228118896
    },
    {
        "name": "Sępólno Krajeńskie",
        "country": "Poland",
        "province": "Kujawsko-Pomorskie",
        "population": 9223,
        "latitude": 53.4519758890972,
        "longitude": 17.5316905975342
    },
    {
        "name": "Ścinawa",
        "country": "Poland",
        "province": "Lower Silesia",
        "population": 5863,
        "latitude": 51.41625781300167,
        "longitude": 16.42509698867798
    },
    {
        "name": "Rypin",
        "country": "Poland",
        "province": "Kujawsko-Pomorskie",
        "population": 16589,
        "latitude": 53.0660278418161,
        "longitude": 19.4094085693359
    },
    {
        "name": "Rydułtowy",
        "country": "Poland",
        "province": "Silesia",
        "population": 21887,
        "latitude": 50.0585714925436,
        "longitude": 18.4170341491699
    },
    {
        "name": "Gmina Rybno",
        "country": "Poland",
        "province": "Warmia-Masuria",
        "population": 2558,
        "latitude": 53.3834819506126,
        "longitude": 19.9322891235352
    },
    {
        "name": "Rumia",
        "country": "Poland",
        "province": "Pomerania",
        "population": 44791,
        "latitude": 54.5709172927414,
        "longitude": 18.3880233764648
    },
    {
        "name": "Rogoźno",
        "country": "Poland",
        "province": "Greater Poland",
        "population": 10859,
        "latitude": 52.75226,
        "longitude": 16.990493
    },
    {
        "name": "Resko",
        "country": "Poland",
        "province": "West Pomerania",
        "population": 4354,
        "latitude": 53.77306568858016,
        "longitude": 15.40607213973999
    },
    {
        "name": "Reda",
        "country": "Poland",
        "province": "Pomerania",
        "population": 18116,
        "latitude": 54.6052839201637,
        "longitude": 18.34716796875
    },
    {
        "name": "Rawicz",
        "country": "Poland",
        "province": "Greater Poland",
        "population": 21380,
        "latitude": 51.6094623144903,
        "longitude": 16.8585205078125
    },
    {
        "name": "Radzyń Chełmiński",
        "country": "Poland",
        "province": "Kujawsko-Pomorskie",
        "population": 1934,
        "latitude": 53.38509453909667,
        "longitude": 18.937253952026367
    },
    {
        "name": "Radzionków",
        "country": "Poland",
        "province": "Silesia",
        "population": 17167,
        "latitude": 50.40025700389075,
        "longitude": 18.902320861816406
    },
    {
        "name": "Radków",
        "country": "Poland",
        "province": "Lower Silesia",
        "population": 2410,
        "latitude": 50.504256278128636,
        "longitude": 16.40061378479004
    },
    {
        "name": "Rabka-Zdrój",
        "country": "Poland",
        "province": "Lesser Poland",
        "population": 13071,
        "latitude": 49.6088884683057,
        "longitude": 19.9665355682373
    },
    {
        "name": "Pyzdry",
        "country": "Poland",
        "province": "Greater Poland",
        "population": 3203,
        "latitude": 52.1705627915501,
        "longitude": 17.6900482177734
    },
    {
        "name": "Pyskowice",
        "country": "Poland",
        "province": "Silesia",
        "population": 19018,
        "latitude": 50.4,
        "longitude": 18.6333333
    },
    {
        "name": "Pyrzyce",
        "country": "Poland",
        "province": "West Pomerania",
        "population": 12893,
        "latitude": 53.1462040643257,
        "longitude": 14.8925685882568
    },
    {
        "name": "Frombork",
        "country": "Poland",
        "province": "Warmia-Masuria",
        "population": 2529,
        "latitude": 54.357656619539,
        "longitude": 19.680290222168
    },
    {
        "name": "Dzierzgoń",
        "country": "Poland",
        "province": "Pomerania",
        "population": 5518,
        "latitude": 53.92195664807998,
        "longitude": 19.347052574157715
    },
    {
        "name": "Działoszyn",
        "country": "Poland",
        "province": "Łódź Voivodeship",
        "population": 6222,
        "latitude": 51.11699357775439,
        "longitude": 18.86524200439453
    },
    {
        "name": "Duszniki-Zdrój",
        "country": "Poland",
        "province": "Lower Silesia",
        "population": 4888,
        "latitude": 50.4032659717561,
        "longitude": 16.3909149169922
    },
    {
        "name": "Dolsk",
        "country": "Poland",
        "province": "Greater Poland",
        "population": 1527,
        "latitude": 51.98180091024754,
        "longitude": 17.06273317337036
    },
    {
        "name": "Dobiegniew",
        "country": "Poland",
        "province": "Lubusz",
        "population": 3179,
        "latitude": 52.9694742614767,
        "longitude": 15.7536220550537
    },
    {
        "name": "Debrzno",
        "country": "Poland",
        "province": "Pomerania",
        "population": 5251,
        "latitude": 53.53816510636098,
        "longitude": 17.236433029174805
    },
    {
        "name": "Dębno",
        "country": "Poland",
        "province": "West Pomerania",
        "population": 13804,
        "latitude": 52.7390069591378,
        "longitude": 14.6980011463165
    },
    {
        "name": "Czerwionka-Leszczyny",
        "country": "Poland",
        "province": "Silesia",
        "population": 28740,
        "latitude": 50.1500663829863,
        "longitude": 18.6776161193848
    },
    {
        "name": "Czersk",
        "country": "Poland",
        "province": "Pomerania",
        "population": 9390,
        "latitude": 53.79588557299069,
        "longitude": 17.976465225219727
    },
    {
        "name": "Czeladź",
        "country": "Poland",
        "province": "Silesia",
        "population": 34308,
        "latitude": 50.315417,
        "longitude": 19.078245
    },
    {
        "name": "Czarnków",
        "country": "Poland",
        "province": "Greater Poland",
        "population": 11562,
        "latitude": 52.902144,
        "longitude": 16.564126
    },
    {
        "name": "Czaplinek",
        "country": "Poland",
        "province": "West Pomerania",
        "population": 6933,
        "latitude": 53.55774767833321,
        "longitude": 16.23332977294922
    },
    {
        "name": "Cieplice Śląskie Zdrój",
        "country": "Poland",
        "province": "Lower Silesia",
        "population": 15000,
        "latitude": 50.865452973284235,
        "longitude": 15.683670043945312
    },
    {
        "name": "Ciechocinek",
        "country": "Poland",
        "province": "Kujawsko-Pomorskie",
        "population": 10832,
        "latitude": 52.8790762287689,
        "longitude": 18.7950539588928
    },
    {
        "name": "Choszczno",
        "country": "Poland",
        "province": "West Pomerania",
        "population": 15733,
        "latitude": 53.169051,
        "longitude": 15.420537
    },
    {
        "name": "Chojnów",
        "country": "Poland",
        "province": "Lower Silesia",
        "population": 14209,
        "latitude": 51.273729429078024,
        "longitude": 15.936613082885742
    },
    {
        "name": "Chodzież",
        "country": "Poland",
        "province": "Greater Poland",
        "population": 19776,
        "latitude": 52.995053590622305,
        "longitude": 16.919803619384766
    },
    {
        "name": "Chocianów",
        "country": "Poland",
        "province": "Lower Silesia",
        "population": 8187,
        "latitude": 51.418666553612944,
        "longitude": 15.90172290802002
    },
    {
        "name": "Bytów",
        "country": "Poland",
        "province": "Pomerania",
        "population": 16724,
        "latitude": 54.1705741454671,
        "longitude": 17.4918651580811
    },
    {
        "name": "Bukowno",
        "country": "Poland",
        "province": "Lesser Poland",
        "population": 10874,
        "latitude": 50.264737978626684,
        "longitude": 19.459619522094727
    },
    {
        "name": "Nowe",
        "country": "Poland",
        "province": "Kujawsko-Pomorskie",
        "population": 6104,
        "latitude": 53.64905776836825,
        "longitude": 18.72716188430786
    },
    {
        "name": "Niemodlin",
        "country": "Poland",
        "province": "Opole Voivodeship",
        "population": 6315,
        "latitude": 50.64200406618209,
        "longitude": 17.61932373046875
    },
    {
        "name": "Niemcza",
        "country": "Poland",
        "province": "Lower Silesia",
        "population": 3110,
        "latitude": 50.72007441784197,
        "longitude": 16.835732460021973
    },
    {
        "name": "Namysłów",
        "country": "Poland",
        "province": "Opole Voivodeship",
        "population": 16376,
        "latitude": 51.0759197754568,
        "longitude": 17.7228355407715
    },
    {
        "name": "Myślibórz",
        "country": "Poland",
        "province": "West Pomerania",
        "population": 12092,
        "latitude": 52.9238201975902,
        "longitude": 14.8678493499756
    },
    {
        "name": "Myślenice",
        "country": "Poland",
        "province": "Lesser Poland",
        "population": 17686,
        "latitude": 49.833830529358,
        "longitude": 19.9382972717285
    },
    {
        "name": "Mosina",
        "country": "Poland",
        "province": "Greater Poland",
        "population": 12318,
        "latitude": 52.2454276961658,
        "longitude": 16.8470942974091
    },
    {
        "name": "Morąg",
        "country": "Poland",
        "province": "Warmia-Masuria",
        "population": 14745,
        "latitude": 53.91711,
        "longitude": 19.926025
    },
    {
        "name": "Mirsk",
        "country": "Poland",
        "province": "Lower Silesia",
        "population": 4150,
        "latitude": 50.970535344046034,
        "longitude": 15.385665893554688
    },
    {
        "name": "Mirosławiec",
        "country": "Poland",
        "province": "West Pomerania",
        "population": 2616,
        "latitude": 53.3407132858036,
        "longitude": 16.0879325866699
    },
    {
        "name": "Mieroszów",
        "country": "Poland",
        "province": "Lower Silesia",
        "population": 4480,
        "latitude": 50.665893077218676,
        "longitude": 16.18882656097412
    },
    {
        "name": "Międzylesie",
        "country": "Poland",
        "province": "Lower Silesia",
        "population": 2766,
        "latitude": 50.14778389058317,
        "longitude": 16.667118072509766
    },
    {
        "name": "Międzychód",
        "country": "Poland",
        "province": "Greater Poland",
        "population": 10994,
        "latitude": 52.5988249735775,
        "longitude": 15.8969593048096
    },
    {
        "name": "Międzybórz",
        "country": "Poland",
        "province": "Lower Silesia",
        "population": 2354,
        "latitude": 51.396260366742254,
        "longitude": 17.666101455688477
    },
    {
        "name": "Miastko",
        "country": "Poland",
        "province": "Pomerania",
        "population": 10954,
        "latitude": 54.0028252898243,
        "longitude": 16.9826316833496
    },
    {
        "name": "Małomice",
        "country": "Poland",
        "province": "Lubusz",
        "population": 3617,
        "latitude": 51.55596848988835,
        "longitude": 15.45003890991211
    },
    {
        "name": "Gmina Lwówek Śląski",
        "country": "Poland",
        "province": "Lower Silesia",
        "population": 9657,
        "latitude": 51.11074322727868,
        "longitude": 15.585823059082031
    },
    {
        "name": "Lubsko",
        "country": "Poland",
        "province": "Lubusz",
        "population": 14994,
        "latitude": 51.7846746046424,
        "longitude": 14.9719619750977
    },
    {
        "name": "Gmina Łubniany",
        "country": "Poland",
        "province": "Opole Voivodeship",
        "population": 1610,
        "latitude": 50.7859699142783,
        "longitude": 18.0010986328125
    },
    {
        "name": "Lubawka",
        "country": "Poland",
        "province": "Lower Silesia",
        "population": 6404,
        "latitude": 50.70455771060935,
        "longitude": 16.000256538391113
    },
    {
        "name": "Lubań",
        "country": "Poland",
        "province": "Lower Silesia",
        "population": 22245,
        "latitude": 51.120143,
        "longitude": 15.287678
    },
    {
        "name": "Libiąż",
        "country": "Poland",
        "province": "Lesser Poland",
        "population": 17834,
        "latitude": 50.1039554248012,
        "longitude": 19.3156814575195
    },
    {
        "name": "Gmina Łęczyce",
        "country": "Poland",
        "province": "Pomerania",
        "population": 1524,
        "latitude": 54.59404708492693,
        "longitude": 17.85930633544922
    },
    {
        "name": "Lewin Brzeski",
        "country": "Poland",
        "province": "Opole Voivodeship",
        "population": 6000,
        "latitude": 50.7487029759953,
        "longitude": 17.6168775558472
    },
    {
        "name": "Puck",
        "country": "Poland",
        "province": "Pomerania",
        "population": 11415,
        "latitude": 54.7179031998055,
        "longitude": 18.408408164978
    },
    {
        "name": "Pszów",
        "country": "Poland",
        "province": "Silesia",
        "population": 14028,
        "latitude": 50.0399428400785,
        "longitude": 18.394718170166
    },
    {
        "name": "Gmina Przywidz",
        "country": "Poland",
        "province": "Pomerania",
        "population": 1673,
        "latitude": 54.19523613572,
        "longitude": 18.3211612701416
    },
    {
        "name": "Przemków",
        "country": "Poland",
        "province": "Lower Silesia",
        "population": 6487,
        "latitude": 51.525299838315014,
        "longitude": 15.794413089752197
    },
    {
        "name": "Pruszcz Pomorski",
        "country": "Poland",
        "province": "Kujawsko-Pomorskie",
        "population": 2300,
        "latitude": 53.3302066304509,
        "longitude": 18.198938369751
    },
    {
        "name": "Pruszcz Gdański",
        "country": "Poland",
        "province": "Pomerania",
        "population": 23618,
        "latitude": 54.26216615473014,
        "longitude": 18.636245727539062
    },
    {
        "name": "Prusice",
        "country": "Poland",
        "province": "Lower Silesia",
        "population": 2203,
        "latitude": 51.37116418973457,
        "longitude": 16.960251331329346
    },
    {
        "name": "Prudnik",
        "country": "Poland",
        "province": "Opole Voivodeship",
        "population": 23343,
        "latitude": 50.3212443648509,
        "longitude": 17.5746059417725
    },
    {
        "name": "Prószków",
        "country": "Poland",
        "province": "Opole Voivodeship",
        "population": 2691,
        "latitude": 50.576696309543614,
        "longitude": 17.871429920196533
    },
    {
        "name": "Prochowice",
        "country": "Poland",
        "province": "Lower Silesia",
        "population": 3743,
        "latitude": 51.27307165185941,
        "longitude": 16.365315914154053
    },
    {
        "name": "Poręba",
        "country": "Poland",
        "province": "Silesia",
        "population": 8718,
        "latitude": 50.48831327515687,
        "longitude": 19.339027404785156
    },
    {
        "name": "Połczyn-Zdrój",
        "country": "Poland",
        "province": "West Pomerania",
        "population": 8682,
        "latitude": 53.7642386724027,
        "longitude": 16.09574317932129
    },
    {
        "name": "Polanica-Zdrój",
        "country": "Poland",
        "province": "Lower Silesia",
        "population": 6966,
        "latitude": 50.403728,
        "longitude": 16.512712
    },
    {
        "name": "Pniewy",
        "country": "Poland",
        "province": "Greater Poland",
        "population": 7738,
        "latitude": 52.5094302920429,
        "longitude": 16.2566757202148
    },
    {
        "name": "Płoty",
        "country": "Poland",
        "province": "West Pomerania",
        "population": 4093,
        "latitude": 53.8018167101213,
        "longitude": 15.2667045593262
    },
    {
        "name": "Pleszew",
        "country": "Poland",
        "province": "Greater Poland",
        "population": 17640,
        "latitude": 51.8963572013674,
        "longitude": 17.7854919433594
    },
    {
        "name": "Pelplin",
        "country": "Poland",
        "province": "Pomerania",
        "population": 8320,
        "latitude": 53.92834372682192,
        "longitude": 18.69770050048828
    },
    {
        "name": "Pasłęk",
        "country": "Poland",
        "province": "Warmia-Masuria",
        "population": 12267,
        "latitude": 54.061599,
        "longitude": 19.659322
    },
    {
        "name": "Ozorków",
        "country": "Poland",
        "province": "Łódź Voivodeship",
        "population": 20608,
        "latitude": 51.9633607510109,
        "longitude": 19.2913913726807
    },
    {
        "name": "Ozimek",
        "country": "Poland",
        "province": "Opole Voivodeship",
        "population": 9963,
        "latitude": 50.67943748127712,
        "longitude": 18.213701248168945
    },
    {
        "name": "Ostrzeszów",
        "country": "Poland",
        "province": "Greater Poland",
        "population": 14446,
        "latitude": 51.4264004291698,
        "longitude": 17.9335498809814
    },
    {
        "name": "Orzesze",
        "country": "Poland",
        "province": "Silesia",
        "population": 18438,
        "latitude": 50.155949,
        "longitude": 18.779235
    },
    {
        "name": "Olesno",
        "country": "Poland",
        "province": "Opole Voivodeship",
        "population": 10236,
        "latitude": 50.876976,
        "longitude": 18.420937
    },
    {
        "name": "Ogrodzieniec",
        "country": "Poland",
        "province": "Silesia",
        "population": 4467,
        "latitude": 50.451766037915625,
        "longitude": 19.519872665405273
    },
    {
        "name": "Oborniki Śląskie",
        "country": "Poland",
        "province": "Lower Silesia",
        "population": 8440,
        "latitude": 51.301374401133444,
        "longitude": 16.914653778076172
    },
    {
        "name": "Oborniki",
        "country": "Poland",
        "province": "Greater Poland",
        "population": 17915,
        "latitude": 52.647394,
        "longitude": 16.814061
    },
    {
        "name": "Nowy Tomyśl",
        "country": "Poland",
        "province": "Greater Poland",
        "population": 15179,
        "latitude": 52.31949757675924,
        "longitude": 16.12844467163086
    },
    {
        "name": "Nowy Staw",
        "country": "Poland",
        "province": "Pomerania",
        "population": 4403,
        "latitude": 54.13609304204,
        "longitude": 19.0090942382812
    },
    {
        "name": "Nowy Dwór Gdański",
        "country": "Poland",
        "province": "Pomerania",
        "population": 9822,
        "latitude": 54.21305,
        "longitude": 19.117714
    },
    {
        "name": "Gmina Nowogród Bobrzański",
        "country": "Poland",
        "province": "Lubusz",
        "population": 5114,
        "latitude": 51.7985571917661,
        "longitude": 15.2352046966553
    },
    {
        "name": "Nowogard",
        "country": "Poland",
        "province": "West Pomerania",
        "population": 16703,
        "latitude": 53.6743665332192,
        "longitude": 15.1162970066071
    },
    {
        "name": "Nowe Skalmierzyce",
        "country": "Poland",
        "province": "Greater Poland",
        "population": 4961,
        "latitude": 51.7103846744528,
        "longitude": 17.9933738708496
    },
    {
        "name": "Karpacz",
        "country": "Poland",
        "province": "Lower Silesia",
        "population": 4979,
        "latitude": 50.7766898843316,
        "longitude": 15.7559394836426
    },
    {
        "name": "Karlino",
        "country": "Poland",
        "province": "West Pomerania",
        "population": 5832,
        "latitude": 54.03514899414109,
        "longitude": 15.877389907836914
    },
    {
        "name": "Kamień Pomorski",
        "country": "Poland",
        "province": "West Pomerania",
        "population": 9036,
        "latitude": 53.968494850033544,
        "longitude": 14.77262020111084
    },
    {
        "name": "Kamienna Góra",
        "country": "Poland",
        "province": "Lower Silesia",
        "population": 21743,
        "latitude": 50.783136,
        "longitude": 16.030371
    },
    {
        "name": "Kalwaria Zebrzydowska",
        "country": "Poland",
        "province": "Lesser Poland",
        "population": 4429,
        "latitude": 49.8675891685012,
        "longitude": 19.6772003173828
    },
    {
        "name": "Wielki Kack",
        "country": "Poland",
        "province": "Pomerania",
        "population": 10012,
        "latitude": 54.4675436033534,
        "longitude": 18.4881019592285
    },
    {
        "name": "Jedlina-Zdrój",
        "country": "Poland",
        "province": "Lower Silesia",
        "population": 5062,
        "latitude": 50.7200472477131,
        "longitude": 16.3464546203613
    },
    {
        "name": "Jaworzyna Śląska",
        "country": "Poland",
        "province": "Lower Silesia",
        "population": 5242,
        "latitude": 50.9133971534479,
        "longitude": 16.432414054870605
    },
    {
        "name": "Jawor",
        "country": "Poland",
        "province": "Lower Silesia",
        "population": 23865,
        "latitude": 51.051317,
        "longitude": 16.193471
    },
    {
        "name": "Jastrowie",
        "country": "Poland",
        "province": "Greater Poland",
        "population": 8452,
        "latitude": 53.420478,
        "longitude": 16.817559
    },
    {
        "name": "Jastarnia",
        "country": "Poland",
        "province": "Pomerania",
        "population": 3925,
        "latitude": 54.6983,
        "longitude": 18.6773
    },
    {
        "name": "Iłowa",
        "country": "Poland",
        "province": "Lubusz",
        "population": 3892,
        "latitude": 51.50059508744448,
        "longitude": 15.199799537658691
    },
    {
        "name": "Hel",
        "country": "Poland",
        "province": "Pomerania",
        "population": 4136,
        "latitude": 54.60384,
        "longitude": 18.80351
    },
    {
        "name": "Gubin",
        "country": "Poland",
        "province": "Lubusz",
        "population": 16629,
        "latitude": 51.9495554086381,
        "longitude": 14.7283744812012
    },
    {
        "name": "Gryfice",
        "country": "Poland",
        "province": "West Pomerania",
        "population": 16720,
        "latitude": 53.9164974798711,
        "longitude": 15.2002716064453
    },
    {
        "name": "Grodzisk Wielkopolski",
        "country": "Poland",
        "province": "Greater Poland",
        "population": 13826,
        "latitude": 52.227622,
        "longitude": 16.365335
    },
    {
        "name": "Gostynin",
        "country": "Poland",
        "province": "Mazovia",
        "population": 18976,
        "latitude": 52.4293792811442,
        "longitude": 19.4619369506836
    },
    {
        "name": "Gostyń",
        "country": "Poland",
        "province": "Greater Poland",
        "population": 20771,
        "latitude": 51.882468,
        "longitude": 17.012255
    },
    {
        "name": "Górzno",
        "country": "Poland",
        "province": "Kujawsko-Pomorskie",
        "population": 1352,
        "latitude": 53.197793728452716,
        "longitude": 19.643168449401855
    },
    {
        "name": "Góra",
        "country": "Poland",
        "province": "Lower Silesia",
        "population": 12668,
        "latitude": 51.66638024247079,
        "longitude": 16.53493881225586
    },
    {
        "name": "Golub-Dobrzyń",
        "country": "Poland",
        "province": "Kujawsko-Pomorskie",
        "population": 12937,
        "latitude": 53.1108748706343,
        "longitude": 19.0538120269775
    },
    {
        "name": "Gniewino",
        "country": "Poland",
        "province": "Pomerania",
        "population": 1940,
        "latitude": 54.7170851871087,
        "longitude": 18.0166339874268
    },
    {
        "name": "Gniew",
        "country": "Poland",
        "province": "Pomerania",
        "population": 6759,
        "latitude": 53.83601843109115,
        "longitude": 18.82309913635254
    },
    {
        "name": "Głuszyca",
        "country": "Poland",
        "province": "Lower Silesia",
        "population": 6897,
        "latitude": 50.687431740688766,
        "longitude": 16.371731758117676
    },
    {
        "name": "Głuchołazy",
        "country": "Poland",
        "province": "Opole Voivodeship",
        "population": 15120,
        "latitude": 50.3150514041707,
        "longitude": 17.3835468292236
    },
    {
        "name": "Głubczyce",
        "country": "Poland",
        "province": "Opole Voivodeship",
        "population": 13697,
        "latitude": 50.2008580023328,
        "longitude": 17.8285789489746
    },
    {
        "name": "Głowno",
        "country": "Poland",
        "province": "Łódź Voivodeship",
        "population": 15103,
        "latitude": 51.9646299943699,
        "longitude": 19.7156524658203
    },
    {
        "name": "Żnin",
        "country": "Poland",
        "province": "Kujawsko-Pomorskie",
        "population": 14008,
        "latitude": 52.8495797628214,
        "longitude": 17.7199172973633
    },
    {
        "name": "Żmigród",
        "country": "Poland",
        "province": "Lower Silesia",
        "population": 6542,
        "latitude": 51.46672114160442,
        "longitude": 16.905641555786133
    },
    {
        "name": "Złoty Stok",
        "country": "Poland",
        "province": "Lower Silesia",
        "population": 2758,
        "latitude": 50.444715563761775,
        "longitude": 16.875858306884766
    },
    {
        "name": "Złocieniec",
        "country": "Poland",
        "province": "West Pomerania",
        "population": 13337,
        "latitude": 53.532862,
        "longitude": 16.011321
    },
    {
        "name": "Ziębice",
        "country": "Poland",
        "province": "Lower Silesia",
        "population": 9328,
        "latitude": 50.6012177713544,
        "longitude": 17.0406532287598
    },
    {
        "name": "Zdzieszowice",
        "country": "Poland",
        "province": "Opole Voivodeship",
        "population": 13401,
        "latitude": 50.4248155379476,
        "longitude": 18.1234931945801
    },
    {
        "name": "Zduńska Wola",
        "country": "Poland",
        "province": "Łódź Voivodeship",
        "population": 44515,
        "latitude": 51.599147122167174,
        "longitude": 18.939743041992188
    },
    {
        "name": "Zawidów",
        "country": "Poland",
        "province": "Silesia",
        "population": 4364,
        "latitude": 51.02545746085597,
        "longitude": 15.062127113342285
    },
    {
        "name": "Zawadzkie",
        "country": "Poland",
        "province": "Opole Voivodeship",
        "population": 8439,
        "latitude": 50.605031073159,
        "longitude": 18.4846687316895
    },
    {
        "name": "Żarów",
        "country": "Poland",
        "province": "Lower Silesia",
        "population": 6719,
        "latitude": 50.94116378129349,
        "longitude": 16.494662761688232
    },
    {
        "name": "Gmina Zabierzów",
        "country": "Poland",
        "province": "Lesser Poland",
        "population": 4689,
        "latitude": 50.114248952369,
        "longitude": 19.7978782653809
    },
    {
        "name": "Wschowa",
        "country": "Poland",
        "province": "Lubusz",
        "population": 14458,
        "latitude": 51.8070492106518,
        "longitude": 16.3166284561157
    },
    {
        "name": "Wronki",
        "country": "Poland",
        "province": "Greater Poland",
        "population": 11462,
        "latitude": 52.7105073382075,
        "longitude": 16.380443572998
    },
    {
        "name": "Wolsztyn",
        "country": "Poland",
        "province": "Greater Poland",
        "population": 13689,
        "latitude": 52.1155188578467,
        "longitude": 16.117115020752
    },
    {
        "name": "Wołów",
        "country": "Poland",
        "province": "Lower Silesia",
        "population": 12276,
        "latitude": 51.33656409378862,
        "longitude": 16.644287109375
    },
    {
        "name": "Wolin",
        "country": "Poland",
        "province": "West Pomerania",
        "population": 12438,
        "latitude": 53.8421401259101,
        "longitude": 14.6146488189697
    },
    {
        "name": "Wojkowice",
        "country": "Poland",
        "province": "Silesia",
        "population": 8927,
        "latitude": 50.36509263732428,
        "longitude": 19.03651714324951
    },
    {
        "name": "Włoszczowa",
        "country": "Poland",
        "province": "Świętokrzyskie",
        "population": 10661,
        "latitude": 50.852558375579136,
        "longitude": 19.96593475341797
    },
    {
        "name": "Władysławowo",
        "country": "Poland",
        "province": "Pomerania",
        "population": 14889,
        "latitude": 54.7908629373933,
        "longitude": 18.4008979797363
    },
    {
        "name": "Wilamowice",
        "country": "Poland",
        "province": "Silesia",
        "population": 2813,
        "latitude": 49.91700853144677,
        "longitude": 19.152367115020752
    },
    {
        "name": "Wieleń",
        "country": "Poland",
        "province": "Greater Poland",
        "population": 6067,
        "latitude": 52.8946130706266,
        "longitude": 16.1713600158691
    },
    {
        "name": "Gmina Wicko",
        "country": "Poland",
        "province": "Pomerania",
        "population": 690,
        "latitude": 54.6708034287641,
        "longitude": 17.6176071166992
    },
    {
        "name": "Wiązów",
        "country": "Poland",
        "province": "Lower Silesia",
        "population": 2340,
        "latitude": 50.81398876455836,
        "longitude": 17.202143669128418
    },
    {
        "name": "Węgorzyno",
        "country": "Poland",
        "province": "West Pomerania",
        "population": 3009,
        "latitude": 53.541008711295525,
        "longitude": 15.55964469909668
    },
    {
        "name": "Wąsosz",
        "country": "Poland",
        "province": "Lower Silesia",
        "population": 2789,
        "latitude": 51.56223847086577,
        "longitude": 16.690592765808105
    },
    {
        "name": "Wąbrzeźno",
        "country": "Poland",
        "province": "Kujawsko-Pomorskie",
        "population": 13911,
        "latitude": 53.2798926070206,
        "longitude": 18.9477252960205
    },
    {
        "name": "Ustroń",
        "country": "Poland",
        "province": "Silesia",
        "population": 15637,
        "latitude": 49.721526,
        "longitude": 18.801983
    },
    {
        "name": "Uniejów",
        "country": "Poland",
        "province": "Łódź Voivodeship",
        "population": 2932,
        "latitude": 51.9742803566692,
        "longitude": 18.7930798530579
    },
    {
        "name": "Ujście",
        "country": "Poland",
        "province": "Greater Poland",
        "population": 3869,
        "latitude": 53.0533900718014,
        "longitude": 16.732006072998
    },
    {
        "name": "Ujazd",
        "country": "Poland",
        "province": "Opole Voivodeship",
        "population": 1638,
        "latitude": 50.389378675588,
        "longitude": 18.3492922782898
    },
    {
        "name": "Twardogóra",
        "country": "Poland",
        "province": "Lower Silesia",
        "population": 6840,
        "latitude": 51.364867899155115,
        "longitude": 17.46877670288086
    },
    {
        "name": "Turek",
        "country": "Poland",
        "province": "Greater Poland",
        "population": 29533,
        "latitude": 52.015475910047215,
        "longitude": 18.500547409057617
    },
    {
        "name": "Tuchola",
        "country": "Poland",
        "province": "Kujawsko-Pomorskie",
        "population": 13686,
        "latitude": 53.5879197273254,
        "longitude": 17.8590488433838
    },
    {
        "name": "Trzebnica",
        "country": "Poland",
        "province": "Lower Silesia",
        "population": 12212,
        "latitude": 51.31076453560284,
        "longitude": 17.063312530517578
    },
    {
        "name": "Trzebinia",
        "country": "Poland",
        "province": "Lesser Poland",
        "population": 18828,
        "latitude": 50.1593052391342,
        "longitude": 19.4696617126465
    },
    {
        "name": "Trzciel",
        "country": "Poland",
        "province": "Lubusz",
        "population": 2335,
        "latitude": 52.3650396902254,
        "longitude": 15.8730554580688
    },
    {
        "name": "Trzcianka",
        "country": "Poland",
        "province": "Greater Poland",
        "population": 16914,
        "latitude": 53.040627,
        "longitude": 16.456285
    },
    {
        "name": "Toszek",
        "country": "Poland",
        "province": "Silesia",
        "population": 3633,
        "latitude": 50.45441652584973,
        "longitude": 18.522090911865234
    },
    {
        "name": "Sztum",
        "country": "Poland",
        "province": "Pomerania",
        "population": 9766,
        "latitude": 53.9207688342773,
        "longitude": 19.0307235717773
    },
    {
        "name": "Szprotawa",
        "country": "Poland",
        "province": "Lubusz",
        "population": 12786,
        "latitude": 51.56562656886882,
        "longitude": 15.536642074584961
    },
    {
        "name": "Szczytna",
        "country": "Poland",
        "province": "Lower Silesia",
        "population": 5234,
        "latitude": 50.41342666491333,
        "longitude": 16.447434425354004
    },
    {
        "name": "Szczekociny",
        "country": "Poland",
        "province": "Silesia",
        "population": 3841,
        "latitude": 50.626692932761706,
        "longitude": 19.825000762939453
    },
    {
        "name": "Szczawno-Zdrój",
        "country": "Poland",
        "province": "Lower Silesia",
        "population": 5586,
        "latitude": 50.803520956812925,
        "longitude": 16.25654697418213
    },
    {
        "name": "Syców",
        "country": "Poland",
        "province": "Lower Silesia",
        "population": 10809,
        "latitude": 51.308135491619936,
        "longitude": 17.719788551330566
    },
    {
        "name": "Świeradów-Zdrój",
        "country": "Poland",
        "province": "Lower Silesia",
        "population": 4492,
        "latitude": 50.909202992880005,
        "longitude": 15.343093872070312
    },
    {
        "name": "Gmina Świebodzin",
        "country": "Poland",
        "province": "Lubusz",
        "population": 21757,
        "latitude": 52.2475100379836,
        "longitude": 15.5335521697998
    },
    {
        "name": "Świebodzice",
        "country": "Poland",
        "province": "Lower Silesia",
        "population": 23228,
        "latitude": 50.85974,
        "longitude": 16.31966
    },
    {
        "name": "Susz",
        "country": "Poland",
        "province": "Warmia-Masuria",
        "population": 5593,
        "latitude": 53.7174346544755,
        "longitude": 19.3364524841309
    },
    {
        "name": "Borne Sulinowo",
        "country": "Poland",
        "province": "West Pomerania",
        "population": 4349,
        "latitude": 53.5766077319029,
        "longitude": 16.5339517593384
    },
    {
        "name": "Sulechów",
        "country": "Poland",
        "province": "Lubusz",
        "population": 18055,
        "latitude": 52.083620216177,
        "longitude": 15.6251335144043
    },
    {
        "name": "Gmina Strzelin",
        "country": "Poland",
        "province": "Lower Silesia",
        "population": 12394,
        "latitude": 50.781574340194915,
        "longitude": 17.06477165222168
    },
    {
        "name": "Strzelce Opolskie",
        "country": "Poland",
        "province": "Opole Voivodeship",
        "population": 20241,
        "latitude": 50.510697471955,
        "longitude": 18.3005619049072
    },
    {
        "name": "Strzelce Krajeńskie",
        "country": "Poland",
        "province": "Lubusz",
        "population": 9978,
        "latitude": 52.8772632345093,
        "longitude": 15.5297756195068
    },
    {
        "name": "Stronie Śląskie",
        "country": "Poland",
        "province": "Lower Silesia",
        "population": 6192,
        "latitude": 50.29553556280712,
        "longitude": 16.87397003173828
    },
    {
        "name": "Gmina Stężyca",
        "country": "Poland",
        "province": "Pomerania",
        "population": 2200,
        "latitude": 54.2059301438854,
        "longitude": 17.9556941986084
    },
    {
        "name": "Stęszew",
        "country": "Poland",
        "province": "Greater Poland",
        "population": 5596,
        "latitude": 52.28370220193437,
        "longitude": 16.700849533081055
    },