[
    {
        "name": "Lisbon",
        "country": "Portugal",
        "province": "Lisbon",
        "population": 517802,
        "latitude": 38.7166667,
        "longitude": -9.1333333
    },
    {
        "name": "Braga",
        "country": "Portugal",
        "province": "Braga",
        "population": 121394,
        "latitude": 41.550323,
        "longitude": -8.420052
    },
    {
        "name": "Porto",
        "country": "Portugal",
        "province": "Porto",
        "population": 249633,
        "latitude": 41.149606,
        "longitude": -8.610993
    },
    {
        "name": "Setúbal",
        "country": "Portugal",
        "province": "Setúbal",
        "population": 117110,
        "latitude": 38.52439858953607,
        "longitude": -8.88819694519043
    },
    {
        "name": "Coimbra",
        "country": "Portugal",
        "province": "Coimbra",
        "population": 106582,
        "latitude": 40.205642,
        "longitude": -8.419551
    },
    {
        "name": "Funchal",
        "country": "Portugal",
        "province": "Madeira",
        "population": 100847,
        "latitude": 32.66568,
        "longitude": -16.92547
    },
    {
        "name": "Amadora",
        "country": "Portugal",
        "province": "Lisbon",
        "population": 178858,
        "latitude": 38.75381553851626,
        "longitude": -9.230833053588867
    },
    {
        "name": "Queluz",
        "country": "Portugal",
        "province": "Lisbon",
        "population": 103399,
        "latitude": 38.756572,
        "longitude": -9.254512
    },
    {
        "name": "Vila Nova de Gaia",
        "country": "Portugal",
        "province": "Porto",
        "population": 70811,
        "latitude": 41.12401,
        "longitude": -8.61241
    },
    {
        "name": "Cacém",
        "country": "Portugal",
        "province": "Lisbon",
        "population": 93982,
        "latitude": 38.766976,
        "longitude": -9.297926
    },
    {
        "name": "Aveiro",
        "country": "Portugal",
        "province": "Aveiro",
        "population": 54162,
        "latitude": 40.644269,
        "longitude": -8.645535
    },
    {
        "name": "Leiria",
        "country": "Portugal",
        "province": "Leiria",
        "population": 45112,
        "latitude": 39.7436180100595,
        "longitude": -8.8070547580719
    },
    {
        "name": "Evora",
        "country": "Portugal",
        "province": "Évora",
        "population": 55620,
        "latitude": 38.5666667,
        "longitude": -7.9
    },
    {
        "name": "Guarda",
        "country": "Portugal",
        "province": "Guarda",
        "population": 32111,
        "latitude": 40.537328,
        "longitude": -7.265749
    },
    {
        "name": "Viseu",
        "country": "Portugal",
        "province": "Viseu",
        "population": 26364,
        "latitude": 40.661014,
        "longitude": -7.909714
    },
    {
        "name": "Vila Real",
        "country": "Portugal",
        "province": "Vila Real",
        "population": 17001,
        "latitude": 41.30062,
        "longitude": -7.744129
    },
    {
        "name": "Odivelas",
        "country": "Portugal",
        "province": "Lisbon",
        "population": 54624,
        "latitude": 38.79269385587191,
        "longitude": -9.183797836303711
    },
    {
        "name": "Loures",
        "country": "Portugal",
        "province": "Lisbon",
        "population": 66231,
        "latitude": 38.83091474771716,
        "longitude": -9.168450236320496
    },
    {
        "name": "Fátima",
        "country": "Portugal",
        "province": "Santarém",
        "population": 11798,
        "latitude": 39.62071,
        "longitude": -8.652367
    },
    {
        "name": "Faro",
        "country": "Portugal",
        "province": "Faro",
        "population": 41355,
        "latitude": 37.01869,
        "longitude": -7.92716
    },
    {
        "name": "Estoril",
        "country": "Portugal",
        "province": "Lisbon",
        "population": 23700,
        "latitude": 38.7057069409603,
        "longitude": -9.39773082733154
    },
    {
        "name": "Cascais",
        "country": "Portugal",
        "province": "Lisbon",
        "population": 36436,
        "latitude": 38.69681,
        "longitude": -9.42147
    },
    {
        "name": "Sintra",
        "country": "Portugal",
        "province": "Lisbon",
        "population": 26193,
        "latitude": 38.800971,
        "longitude": -9.378257
    },
    {
        "name": "Santarém",
        "country": "Portugal",
        "province": "Santarém",
        "population": 29385,
        "latitude": 39.2333333,
        "longitude": -8.6833333
    },
    {
        "name": "Ponta Delgada",
        "country": "Portugal",
        "province": "Azores",
        "population": 20056,
        "latitude": 37.73952,
        "longitude": -25.66874
    },
    {
        "name": "Angra do Heroísmo",
        "country": "Portugal",
        "province": "Azores",
        "population": 12045,
        "latitude": 38.65483,
        "longitude": -27.21734
    },
    {
        "name": "Lousã",
        "country": "Portugal",
        "province": "Coimbra",
        "population": 11445,
        "latitude": 40.1167347417729,
        "longitude": -8.24920892715454
    },
    {
        "name": "Guimarães",
        "country": "Portugal",
        "province": "Braga",
        "population": 40604,
        "latitude": 41.444435,
        "longitude": -8.296189
    },
    {
        "name": "Figueira da Foz Municipality",
        "country": "Portugal",
        "province": "Coimbra",
        "population": 46600,
        "latitude": 40.150852,
        "longitude": -8.861786
    },
    {
        "name": "Felgueiras",
        "country": "Portugal",
        "province": "Porto",
        "population": 58065,
        "latitude": 41.368058,
        "longitude": -8.193961
    },
    {
        "name": "Espinho",
        "country": "Portugal",
        "province": "Aveiro",
        "population": 32786,
        "latitude": 41.007628,
        "longitude": -8.641251
    },
    {
        "name": "Bragança",
        "country": "Portugal",
        "province": "Bragança",
        "population": 34375,
        "latitude": 41.805817,
        "longitude": -6.757189
    },
    {
        "name": "Arcos de Valdevez",
        "country": "Portugal",
        "province": "Viana do Castelo",
        "population": 22847,
        "latitude": 41.84667508471573,
        "longitude": -8.419046401977539
    },
    {
        "name": "Vila do Conde",
        "country": "Portugal",
        "province": "Porto",
        "population": 27642,
        "latitude": 41.35326,
        "longitude": -8.74516
    },
    {
        "name": "Viana do Castelo",
        "country": "Portugal",
        "province": "Viana do Castelo",
        "population": 36148,
        "latitude": 41.693234,
        "longitude": -8.832869
    },
    {
        "name": "Rio Tinto",
        "country": "Portugal",
        "province": "Porto",
        "population": 49966,
        "latitude": 41.17872,
        "longitude": -8.55953
    },
    {
        "name": "Póvoa de Varzim",
        "country": "Portugal",
        "province": "Porto",
        "population": 29044,
        "latitude": 41.38344,
        "longitude": -8.763637
    },
    {
        "name": "Póvoa de Santa Iria",
        "country": "Portugal",
        "province": "Lisbon",
        "population": 28901,
        "latitude": 38.861009,
        "longitude": -9.064528
    },
    {
        "name": "Portimão",
        "country": "Portugal",
        "province": "Faro",
        "population": 38487,
        "latitude": 37.138561378985116,
        "longitude": -8.537750244140625
    },
    {
        "name": "Portalegre",
        "country": "Portugal",
        "province": "Portalegre",
        "population": 15581,
        "latitude": 39.2937898260305,
        "longitude": -7.43122100830078
    },
    {
        "name": "Peniche",
        "country": "Portugal",
        "province": "Leiria",
        "population": 15662,
        "latitude": 39.355803406634,
        "longitude": -9.381122589111328
    },
    {
        "name": "Olivais",
        "country": "Portugal",
        "province": "Lisbon",
        "population": 33788,
        "latitude": 38.769937,
        "longitude": -9.106735
    },
    {
        "name": "Óbidos",
        "country": "Portugal",
        "province": "Leiria",
        "population": 11187,
        "latitude": 39.360551,
        "longitude": -9.156696
    },
    {
        "name": "Machico",
        "country": "Portugal",
        "province": "Madeira",
        "population": 12567,
        "latitude": 32.7162,
        "longitude": -16.76758
    },
    {
        "name": "Corroios",
        "country": "Portugal",
        "province": "Setúbal",
        "population": 52520,
        "latitude": 38.64004,
        "longitude": -9.1508
    },
    {
        "name": "Castelo Branco",
        "country": "Portugal",
        "province": "Castelo Branco",
        "population": 33479,
        "latitude": 39.822191,
        "longitude": -7.490869
    },
    {
        "name": "Câmara de Lobos",
        "country": "Portugal",
        "province": "Madeira",
        "population": 32209,
        "latitude": 32.65043,
        "longitude": -16.97718
    },
    {
        "name": "Tomar",
        "country": "Portugal",
        "province": "Santarém",
        "population": 19168,
        "latitude": 39.601987,
        "longitude": -8.409242
    },
    {
        "name": "Tavira",
        "country": "Portugal",
        "province": "Faro",
        "population": 15133,
        "latitude": 37.127338,
        "longitude": -7.648609
    },
    {
        "name": "Santa Cruz",
        "country": "Portugal",
        "province": "Madeira",
        "population": 6010,
        "latitude": 32.68806,
        "longitude": -16.79388
    },
    {
        "name": "Sacavém",
        "country": "Portugal",
        "province": "Lisbon",
        "population": 17718,
        "latitude": 38.79202487301663,
        "longitude": -9.108009338378906
    },
    {
        "name": "Cape Roca",
        "country": "Portugal",
        "province": "Lisbon",
        "population": 23,
        "latitude": 38.781604,
        "longitude": -9.497021
    },
    {
        "name": "Beja",
        "country": "Portugal",
        "province": "Beja",
        "population": 34760,
        "latitude": 38.015064,
        "longitude": -7.863227
    },
    {
        "name": "Batalha",
        "country": "Portugal",
        "province": "Leiria",
        "population": 7910,
        "latitude": 39.660252,
        "longitude": -8.824751
    },
    {
        "name": "Barreiro",
        "country": "Portugal",
        "province": "Setúbal",
        "population": 51280,
        "latitude": 38.663137,
        "longitude": -9.072395
    },
    {
        "name": "Amora",
        "country": "Portugal",
        "province": "Setúbal",
        "population": 52577,
        "latitude": 38.629613,
        "longitude": -9.115569
    },
    {
        "name": "Almada",
        "country": "Portugal",
        "province": "Setúbal",
        "population": 34008,
        "latitude": 38.679018,
        "longitude": -9.156904
    },
    {
        "name": "Alcobaça",
        "country": "Portugal",
        "province": "Leiria",
        "population": 15800,
        "latitude": 39.552233,
        "longitude": -8.977495
    },
    {
        "name": "Albufeira",
        "country": "Portugal",
        "province": "Faro",
        "population": 15851,
        "latitude": 37.08818579535012,
        "longitude": -8.250303268432617
    },
    {
        "name": "Abrantes",
        "country": "Portugal",
        "province": "Santarém",
        "population": 13646,
        "latitude": 39.466667,
        "longitude": -8.2
    },
    {
        "name": "Velas",
        "country": "Portugal",
        "province": "Azores",
        "population": 1980,
        "latitude": 38.68182,
        "longitude": -28.20909
    },
    {
        "name": "Ribeira Grande",
        "country": "Portugal",
        "province": "Azores",
        "population": 3968,
        "latitude": 37.82175,
        "longitude": -25.52141
    },
    {
        "name": "Praia da Vitória",
        "country": "Portugal",
        "province": "Azores",
        "population": 6061,
        "latitude": 38.733333,
        "longitude": -27.066667
    },
    {
        "name": "Lagens",
        "country": "Portugal",
        "province": "Azores",
        "population": 3907,
        "latitude": 39.37744,
        "longitude": -31.17847
    },
    {
        "name": "Lagoa",
        "country": "Portugal",
        "province": "Azores",
        "population": 14442,
        "latitude": 37.74486,
        "longitude": -25.57184
    },
    {
        "name": "Horta",
        "country": "Portugal",
        "province": "Azores",
        "population": 6572,
        "latitude": 38.53737,
        "longitude": -28.62615
    },
    {
        "name": "Moreira",
        "country": "Portugal",
        "province": "Porto",
        "population": 12890,
        "latitude": 41.247559,
        "longitude": -8.64788
    },
    {
        "name": "Montemor-o-Velho",
        "country": "Portugal",
        "province": "Coimbra",
        "population": 3154,
        "latitude": 40.172873,
        "longitude": -8.686162
    },
    {
        "name": "Monção",
        "country": "Portugal",
        "province": "Viana do Castelo",
        "population": 19738,
        "latitude": 42.0789225922598,
        "longitude": -8.48075866699219
    },
    {
        "name": "Miranda do Douro",
        "country": "Portugal",
        "province": "Bragança",
        "population": 7482,
        "latitude": 41.496921,
        "longitude": -6.273077
    },
    {
        "name": "Miranda do Corvo",
        "country": "Portugal",
        "province": "Coimbra",
        "population": 7857,
        "latitude": 40.09318,
        "longitude": -8.332608
    },
    {
        "name": "Melres",
        "country": "Portugal",
        "province": "Porto",
        "population": 10328,
        "latitude": 41.069893,
        "longitude": -8.400911
    },
    {
        "name": "Matosinhos Municipality",
        "country": "Portugal",
        "province": "Porto",
        "population": 28070,
        "latitude": 41.18207,
        "longitude": -8.689076
    },
    {
        "name": "Marco de Canaveses",
        "country": "Portugal",
        "province": "Porto",
        "population": 9042,
        "latitude": 41.183887,
        "longitude": -8.148641
    },
    {
        "name": "Maia",
        "country": "Portugal",
        "province": "Porto",
        "population": 36426,
        "latitude": 41.235739,
        "longitude": -8.619897
    },
    {
        "name": "Leça da Palmeira",
        "country": "Portugal",
        "province": "Porto",
        "population": 17996,
        "latitude": 41.190998,
        "longitude": -8.700268
    },
    {
        "name": "Gondomar",
        "country": "Portugal",
        "province": "Porto",
        "population": 27691,
        "latitude": 41.144536,
        "longitude": -8.532229
    },
    {
        "name": "Góis",
        "country": "Portugal",
        "province": "Coimbra",
        "population": 2171,
        "latitude": 40.157353,
        "longitude": -8.110067
    },
    {
        "name": "Gafanha",
        "country": "Portugal",
        "province": "Aveiro",
        "population": 14840,
        "latitude": 40.636212,
        "longitude": -8.713377
    },
    {
        "name": "Fânzeres",
        "country": "Portugal",
        "province": "Porto",
        "population": 23916,
        "latitude": 41.16754,
        "longitude": -8.52981
    },
    {
        "name": "Esmoriz",
        "country": "Portugal",
        "province": "Aveiro",
        "population": 11393,
        "latitude": 40.957733774724154,
        "longitude": -8.62752914428711
    },
    {
        "name": "Ermesinde",
        "country": "Portugal",
        "province": "Porto",
        "population": 39420,
        "latitude": 41.21653,
        "longitude": -8.55318
    },
    {
        "name": "Covilha",
        "country": "Portugal",
        "province": "Castelo Branco",
        "population": 17610,
        "latitude": 40.28106,
        "longitude": -7.50504
    },
    {
        "name": "Condeixa-a-Nova",
        "country": "Portugal",
        "province": "Coimbra",
        "population": 17078,
        "latitude": 40.11283,
        "longitude": -8.49804
    },
    {
        "name": "Canidelo",
        "country": "Portugal",
        "province": "Porto",
        "population": 26431,
        "latitude": 41.12314,
        "longitude": -8.64654
    },
    {
        "name": "Barcelos",
        "country": "Portugal",
        "province": "Braga",
        "population": 19085,
        "latitude": 41.53174,
        "longitude": -8.61843
    },
    {
        "name": "Baião",
        "country": "Portugal",
        "province": "Porto",
        "population": 20522,
        "latitude": 41.162735,
        "longitude": -8.034704
    },
    {
        "name": "Baguim do Monte",
        "country": "Portugal",
        "province": "Porto",
        "population": 15850,
        "latitude": 41.19203,
        "longitude": -8.54118
    },
    {
        "name": "Arcozelo",
        "country": "Portugal",
        "province": "Porto",
        "population": 14352,
        "latitude": 41.061873,
        "longitude": -8.631919
    },
    {
        "name": "Alijó",
        "country": "Portugal",
        "province": "Vila Real",
        "population": 11942,
        "latitude": 41.276444,
        "longitude": -7.474889
    },
    {
        "name": "Alfena",
        "country": "Portugal",
        "province": "Porto",
        "population": 15211,
        "latitude": 41.236709,
        "longitude": -8.524538
    },
    {
        "name": "Vilar de Andorinho",
        "country": "Portugal",
        "province": "Porto",
        "population": 18944,
        "latitude": 41.10574,
        "longitude": -8.58622
    },
    {
        "name": "Valongo",
        "country": "Portugal",
        "province": "Porto",
        "population": 21328,
        "latitude": 41.18883,
        "longitude": -8.49857
    },
    {
        "name": "Trofa",
        "country": "Portugal",
        "province": "Porto",
        "population": 20692,
        "latitude": 41.33729183409619,
        "longitude": -8.55960488319397
    },
    {
        "name": "Soure Municipality",
        "country": "Portugal",
        "province": "Coimbra",
        "population": 8416,
        "latitude": 40.05989,
        "longitude": -8.626053
    },
    {
        "name": "Senhora da Hora",
        "country": "Portugal",
        "province": "Porto",
        "population": 28930,
        "latitude": 41.186405,
        "longitude": -8.651721
    },
    {
        "name": "Semelhe",
        "country": "Portugal",
        "province": "Braga",
        "population": 11700,
        "latitude": 41.554372,
        "longitude": -8.462814
    },
    {
        "name": "São Mamede de Infesta",
        "country": "Portugal",
        "province": "Porto",
        "population": 25940,
        "latitude": 41.19183,
        "longitude": -8.61105
    },
    {
        "name": "São João da Madeira",
        "country": "Portugal",
        "province": "Aveiro",
        "population": 22079,
        "latitude": 40.9007,
        "longitude": -8.4902
    },
    {
        "name": "Santo António dos Olivais",
        "country": "Portugal",
        "province": "Coimbra",
        "population": 38936,
        "latitude": 40.21805,
        "longitude": -8.40523
    },
    {
        "name": "Rebordosa",
        "country": "Portugal",
        "province": "Porto",
        "population": 11491,
        "latitude": 41.224052,
        "longitude": -8.406689
    },
    {
        "name": "Ponte de Lima",
        "country": "Portugal",
        "province": "Viana do Castelo",
        "population": 44667,
        "latitude": 41.767188,
        "longitude": -8.583926
    },
    {
        "name": "Penafiel",
        "country": "Portugal",
        "province": "Porto",
        "population": 8065,
        "latitude": 41.208348,
        "longitude": -8.282847
    },
    {
        "name": "Pedroso",
        "country": "Portugal",
        "province": "Porto",
        "population": 18963,
        "latitude": 41.41103,
        "longitude": -8.748974
    },
    {
        "name": "Pampilhosa da Serra",
        "country": "Portugal",
        "province": "Coimbra",
        "population": 1389,
        "latitude": 40.046198,
        "longitude": -7.951824
    },
    {
        "name": "Paços de Ferreira",
        "country": "Portugal",
        "province": "Porto",
        "population": 6782,
        "latitude": 41.276571,
        "longitude": -8.376174
    },
    {
        "name": "Ovar",
        "country": "Portugal",
        "province": "Aveiro",
        "population": 18452,
        "latitude": 40.85861641127567,
        "longitude": -8.625125885009766
    },
    {
        "name": "Oliveira do Hospital",
        "country": "Portugal",
        "province": "Coimbra",
        "population": 4704,
        "latitude": 40.361796,
        "longitude": -7.86014
    },
    {
        "name": "Oliveira de Azeméis",
        "country": "Portugal",
        "province": "Aveiro",
        "population": 11771,
        "latitude": 40.84101,
        "longitude": -8.475554
    },
    {
        "name": "Rio de Mouro",
        "country": "Portugal",
        "province": "Lisbon",
        "population": 54695,
        "latitude": 38.76613,
        "longitude": -9.32804
    },
    {
        "name": "Ribeira Brava",
        "country": "Portugal",
        "province": "Madeira",
        "population": 5932,
        "latitude": 32.67483,
        "longitude": -17.06288
    },
    {
        "name": "Porto Salvo",
        "country": "Portugal",
        "province": "Lisbon",
        "population": 13867,
        "latitude": 38.72293,
        "longitude": -9.30473
    },
    {
        "name": "Porto Moniz",
        "country": "Portugal",
        "province": "Madeira",
        "population": 2762,
        "latitude": 32.86681,
        "longitude": -17.16667
    },
    {
        "name": "Ponta do Sol",
        "country": "Portugal",
        "province": "Madeira",
        "population": 4235,
        "latitude": 32.6798,
        "longitude": -17.1
    },
    {
        "name": "Pinhal Novo",
        "country": "Portugal",
        "province": "Setúbal",
        "population": 23510,
        "latitude": 38.631057,
        "longitude": -8.913764
    },
    {
        "name": "Piedade",
        "country": "Portugal",
        "province": "Setúbal",
        "population": 19472,
        "latitude": 38.67005,
        "longitude": -9.15852
    },
    {
        "name": "Palmela",
        "country": "Portugal",
        "province": "Setúbal",
        "population": 16934,
        "latitude": 38.569021,
        "longitude": -8.901255
    },
    {
        "name": "Paço de Arcos",
        "country": "Portugal",
        "province": "Lisbon",
        "population": 25974,
        "latitude": 38.69569279955452,
        "longitude": -9.29142951965332
    },
    {
        "name": "Olhão",
        "country": "Portugal",
        "province": "Faro",
        "population": 29239,
        "latitude": 37.0286,
        "longitude": -7.841101
    },
    {
        "name": "Oeiras",
        "country": "Portugal",
        "province": "Lisbon",
        "population": 35000,
        "latitude": 38.691049,
        "longitude": -9.310847
    },
    {
        "name": "Nazaré",
        "country": "Portugal",
        "province": "Leiria",
        "population": 8993,
        "latitude": 39.602891,
        "longitude": -9.068355
    },
    {
        "name": "Montijo",
        "country": "Portugal",
        "province": "Setúbal",
        "population": 30011,
        "latitude": 38.706747,
        "longitude": -8.973885
    },
    {
        "name": "Monsanto",
        "country": "Portugal",
        "province": "Santarém",
        "population": 50000,
        "latitude": 39.462031,
        "longitude": -8.711797
    },
    {
        "name": "Massamá",
        "country": "Portugal",
        "province": "Lisbon",
        "population": 28112,
        "latitude": 38.75279,
        "longitude": -9.2811
    },
    {
        "name": "Marinha Grande",
        "country": "Portugal",
        "province": "Leiria",
        "population": 28916,
        "latitude": 39.747691,
        "longitude": -8.932284
    },
    {
        "name": "Lagos",
        "country": "Portugal",
        "province": "Faro",
        "population": 18831,
        "latitude": 37.10201503945822,
        "longitude": -8.67422103881836
    },
    {
        "name": "Charneca",
        "country": "Portugal",
        "province": "Lisbon",
        "population": 10509,
        "latitude": 38.78351,
        "longitude": -9.14348
    },
    {
        "name": "Charneca de Caparica",
        "country": "Portugal",
        "province": "Setúbal",
        "population": 29763,
        "latitude": 38.62032,
        "longitude": -9.19426
    },
    {
        "name": "Carregado",
        "country": "Portugal",
        "province": "Lisbon",
        "population": 10474,
        "latitude": 39.023619,
        "longitude": -8.976916
    },
    {
        "name": "Caparica",
        "country": "Portugal",
        "province": "Setúbal",
        "population": 21167,
        "latitude": 38.66179,
        "longitude": -9.20032
    },
    {
        "name": "Camarate",
        "country": "Portugal",
        "province": "Lisbon",
        "population": 20177,
        "latitude": 38.80358,
        "longitude": -9.128085
    },
    {
        "name": "Calheta",
        "country": "Portugal",
        "province": "Madeira",
        "population": 1618,
        "latitude": 32.72753,
        "longitude": -17.17893
    },
    {
        "name": "Caldas da Rainha",
        "country": "Portugal",
        "province": "Leiria",
        "population": 27378,
        "latitude": 39.403255,
        "longitude": -9.138387
    },
    {
        "name": "Vila Real de Santo António",
        "country": "Portugal",
        "province": "Faro",
        "population": 11560,
        "latitude": 37.194999,
        "longitude": -7.417658
    },
    {
        "name": "Torres Vedras",
        "country": "Portugal",
        "province": "Lisbon",
        "population": 24443,
        "latitude": 39.091089,
        "longitude": -9.258602
    },
    {
        "name": "Sobreda",
        "country": "Portugal",
        "province": "Setúbal",
        "population": 11146,
        "latitude": 38.649608,
        "longitude": -9.189766
    },
    {
        "name": "Sines Municipality",
        "country": "Portugal",
        "province": "Setúbal",
        "population": 12791,
        "latitude": 37.956215,
        "longitude": -8.869788
    },
    {
        "name": "Silves",
        "country": "Portugal",
        "province": "Faro",
        "population": 10917,
        "latitude": 37.189213,
        "longitude": -8.438217
    },
    {
        "name": "Sesimbra",
        "country": "Portugal",
        "province": "Setúbal",
        "population": 41134,
        "latitude": 38.44451410586946,
        "longitude": -9.101486206054688
    },
    {
        "name": "São Vicente",
        "country": "Portugal",
        "province": "Madeira",
        "population": 6063,
        "latitude": 32.79672655697978,
        "longitude": -17.043228149414062
    },
    {
        "name": "São Domingos de Rana",
        "country": "Portugal",
        "province": "Lisbon",
        "population": 46718,
        "latitude": 38.70194,
        "longitude": -9.34083
    },
    {
        "name": "São Brás de Alportel",
        "country": "Portugal",
        "province": "Faro",
        "population": 11153,
        "latitude": 37.1531,
        "longitude": -7.887515
    },
    {
        "name": "Belém Tower",
        "country": "Portugal",
        "province": "Lisbon",
        "population": -1,
        "latitude": 38.698745,
        "longitude": -9.192886
    },
    {
        "name": "Arrentela",
        "country": "Portugal",
        "province": "Setúbal",
        "population": 30156,
        "latitude": 38.625,
        "longitude": -9.10151
    },
    {
        "name": "Alhos Vedros",
        "country": "Portugal",
        "province": "Setúbal",
        "population": 13384,
        "latitude": 38.654864,
        "longitude": -9.023682
    },
    {
        "name": "Algés",
        "country": "Portugal",
        "province": "Lisbon",
        "population": 19327,
        "latitude": 38.702452,
        "longitude": -9.22936
    },
    {
        "name": "Aldeia de Paio Pires",
        "country": "Portugal",
        "province": "Setúbal",
        "population": 12179,
        "latitude": 38.6166667,
        "longitude": -9.0833333
    },
    {
        "name": "Alcácer do Sal",
        "country": "Portugal",
        "province": "Setúbal",
        "population": 9198,
        "latitude": 38.373258,
        "longitude": -8.514436
    },
    {
        "name": "Alcabideche",
        "country": "Portugal",
        "province": "Lisbon",
        "population": 33315,
        "latitude": 38.73366,
        "longitude": -9.409278
    },
    {
        "name": "Águeda Municipality",
        "country": "Portugal",
        "province": "Aveiro",
        "population": 11941,
        "latitude": 40.577205,
        "longitude": -8.444418
    },
    {
        "name": "Águas Santas",
        "country": "Portugal",
        "province": "Porto",
        "population": 27686,
        "latitude": 41.21017,
        "longitude": -8.57599
    },
    {
        "name": "Alvalade",
        "country": "Portugal",
        "province": "Lisbon",
        "population": 31813,
        "latitude": 38.7532800609531,
        "longitude": -9.14397239685059
    },
    {
        "name": "Vila Franca do Campo",
        "country": "Portugal",
        "province": "Azores",
        "population": 5035,
        "latitude": 37.71603,
        "longitude": -25.43225
    },
    {
        "name": "São Roque do Pico",
        "country": "Portugal",
        "province": "Azores",
        "population": 3705,
        "latitude": 38.51631,
        "longitude": -28.30752
    },
    {
        "name": "São Roque",
        "country": "Portugal",
        "province": "Azores",
        "population": 4932,
        "latitude": 37.75418,
        "longitude": -25.64127
    },
    {
        "name": "São Mateus",
        "country": "Portugal",
        "province": "Azores",
        "population": 3757,
        "latitude": 38.6563,
        "longitude": -27.26935
    },
    {
        "name": "Santa Cruz das Flores",
        "country": "Portugal",
        "province": "Azores",
        "population": 1725,
        "latitude": 39.45782,
        "longitude": -31.12989
    },
    {
        "name": "Santa Cruz da Graciosa",
        "country": "Portugal",
        "province": "Azores",
        "population": 1776,
        "latitude": 39.08577,
        "longitude": -28.0058
    },
    {
        "name": "Povoação",
        "country": "Portugal",
        "province": "Azores",
        "population": 2161,
        "latitude": 37.75,
        "longitude": -25.25
    },
    {
        "name": "Madalena",
        "country": "Portugal",
        "province": "Azores",
        "population": 6136,
        "latitude": 38.536417263583,
        "longitude": -28.5266017913818
    },
    {
        "name": "Lajes",
        "country": "Portugal",
        "province": "Azores",
        "population": 3744,
        "latitude": 38.76352,
        "longitude": -27.10336
    },
    {
        "name": "Lajes",
        "country": "Portugal",
        "province": "Azores",
        "population": 4711,
        "latitude": 38.39529,
        "longitude": -28.2522
    },
    {
        "name": "Furnas",
        "country": "Portugal",
        "province": "Azores",
        "population": 1599,
        "latitude": 37.77566736187932,
        "longitude": -25.310354232788086
    },
    {
        "name": "Fenais da Ajuda",
        "country": "Portugal",
        "province": "Azores",
        "population": 1131,
        "latitude": 37.85128,
        "longitude": -25.32406
    },
    {
        "name": "Vila do Corvo",
        "country": "Portugal",
        "province": "Azores",
        "population": 250,
        "latitude": 39.67317,
        "longitude": -31.11184
    },
    {
        "name": "Calheta",
        "country": "Portugal",
        "province": "Azores",
        "population": 3773,
        "latitude": 38.60186,
        "longitude": -28.01792
    },
    {
        "name": "Angústias",
        "country": "Portugal",
        "province": "Azores",
        "population": 2418,
        "latitude": 38.52547,
        "longitude": -28.63132
    },
    {
        "name": "Água de Pau",
        "country": "Portugal",
        "province": "Azores",
        "population": 3058,
        "latitude": 37.72142,
        "longitude": -25.5117
    },
    {
        "name": "Valenza",
        "country": "Portugal",
        "province": "Viana do Castelo",
        "population": 14172,
        "latitude": 42.0241760070862,
        "longitude": -8.63473892211914
    },
    {
        "name": "Prior Velho",
        "country": "Portugal",
        "province": "Lisbon",
        "population": 6500,
        "latitude": 38.79174,
        "longitude": -9.12119
    },
    {
        "name": "Vilamoura",
        "country": "Portugal",
        "province": "Faro",
        "population": 1900,
        "latitude": 37.08728,
        "longitude": -8.11701
    },
    {
        "name": "Vila Nova De Cacela",
        "country": "Portugal",
        "province": "Faro",
        "population": 3902,
        "latitude": 37.17391,
        "longitude": -7.53169
    },
    {
        "name": "Nogueira da Regedoura",
        "country": "Portugal",
        "province": "Aveiro",
        "population": 5328,
        "latitude": 41.005301,
        "longitude": -8.591953
    },
    {
        "name": "Moreira de Conegos",
        "country": "Portugal",
        "province": "Braga",
        "population": 5607,
        "latitude": 41.386797,
        "longitude": -8.339399
    },
    {
        "name": "Moimenta da Beira",
        "country": "Portugal",
        "province": "Viseu",
        "population": 10212,
        "latitude": 40.983828,
        "longitude": -7.617653
    },
    {
        "name": "Mogadouro",
        "country": "Portugal",
        "province": "Bragança",
        "population": 3936,
        "latitude": 41.34034482706094,
        "longitude": -6.711874008178711
    },
    {
        "name": "Mirandela",
        "country": "Portugal",
        "province": "Bragança",
        "population": 12504,
        "latitude": 41.487385,
        "longitude": -7.186949
    },
    {
        "name": "Mindelo",
        "country": "Portugal",
        "province": "Porto",
        "population": 3491,
        "latitude": 41.315266,
        "longitude": -8.721245
    },
    {
        "name": "Milheirós de Poiares",
        "country": "Portugal",
        "province": "Aveiro",
        "population": 4339,
        "latitude": 40.921628,
        "longitude": -8.467883
    },
    {
        "name": "Melgaço",
        "country": "Portugal",
        "province": "Viana do Castelo",
        "population": -1,
        "latitude": 42.113371,
        "longitude": -8.260161
    },
    {
        "name": "Mangualde",
        "country": "Portugal",
        "province": "Viseu",
        "population": 8895,
        "latitude": 40.604248,
        "longitude": -7.76115
    },
    {
        "name": "Macieira de Rates",
        "country": "Portugal",
        "province": "Braga",
        "population": 2083,
        "latitude": 41.44092,
        "longitude": -8.634264
    },
    {
        "name": "Lourosa",
        "country": "Portugal",
        "province": "Aveiro",
        "population": 9619,
        "latitude": 40.984202,
        "longitude": -8.55142
    },
    {
        "name": "Loriga",
        "country": "Portugal",
        "province": "Guarda",
        "population": 1053,
        "latitude": 40.32513,
        "longitude": -7.689516
    },
    {
        "name": "Lordelo",
        "country": "Portugal",
        "province": "Porto",
        "population": 10035,
        "latitude": 41.234507,
        "longitude": -8.402969
    },
    {
        "name": "Leça do Bailio",
        "country": "Portugal",
        "province": "Porto",
        "population": 16103,
        "latitude": 41.21201,
        "longitude": -8.63422
    },
    {
        "name": "Lavos",
        "country": "Portugal",
        "province": "Coimbra",
        "population": 4164,
        "latitude": 40.093628,
        "longitude": -8.828263
    },
    {
        "name": "Lamego",
        "country": "Portugal",
        "province": "Viseu",
        "population": 10928,
        "latitude": 41.097407,
        "longitude": -7.809907
    },
    {
        "name": "Lago",
        "country": "Portugal",
        "province": "Braga",
        "population": 1910,
        "latitude": 41.62148,
        "longitude": -8.412581
    },
    {
        "name": "Joane",
        "country": "Portugal",
        "province": "Braga",
        "population": 7869,
        "latitude": 41.439063,
        "longitude": -8.40846
    },
    {
        "name": "Ílhavo",
        "country": "Portugal",
        "province": "Aveiro",
        "population": 17236,
        "latitude": 40.60188,
        "longitude": -8.67021
    },
    {
        "name": "Grijó",
        "country": "Portugal",
        "province": "Porto",
        "population": 10907,
        "latitude": 41.02836,
        "longitude": -8.580167
    },
    {
        "name": "Gandra",
        "country": "Portugal",
        "province": "Braga",
        "population": 1323,
        "latitude": 41.52185,
        "longitude": -8.76185
    },
    {
        "name": "Gandra",
        "country": "Portugal",
        "province": "Porto",
        "population": 6034,
        "latitude": 41.201156,
        "longitude": -8.433757
    },
    {
        "name": "Galegos",
        "country": "Portugal",
        "province": "Braga",
        "population": 5404,
        "latitude": 41.562679,
        "longitude": -8.57204
    },
    {
        "name": "Freixo de Espada à Cinta Municipality",
        "country": "Portugal",
        "province": "Bragança",
        "population": 3780,
        "latitude": 41.090327,
        "longitude": -6.806478
    },
    {
        "name": "Freamunde",
        "country": "Portugal",
        "province": "Porto",
        "population": 7983,
        "latitude": 41.288348,
        "longitude": -8.335334
    },
    {
        "name": "Frazão",
        "country": "Portugal",
        "province": "Porto",
        "population": 4314,
        "latitude": 41.258657,
        "longitude": -8.400142
    },
    {
        "name": "Fiães",
        "country": "Portugal",
        "province": "Aveiro",
        "population": 8708,
        "latitude": 40.994459,
        "longitude": -8.52537
    },
    {
        "name": "Ferreiros",
        "country": "Portugal",
        "province": "Braga",
        "population": 7870,
        "latitude": 41.35,
        "longitude": -8.55
    },
    {
        "name": "Ferreira",
        "country": "Portugal",
        "province": "Porto",
        "population": 4205,
        "latitude": 41.267182,
        "longitude": -8.344339
    },
    {
        "name": "Feira",
        "country": "Portugal",
        "province": "Aveiro",
        "population": 16376,
        "latitude": 40.925348,
        "longitude": -8.542769
    },
    {
        "name": "Favaios",
        "country": "Portugal",
        "province": "Vila Real",
        "population": 1064,
        "latitude": 41.26876,
        "longitude": -7.504653
    },
    {
        "name": "Estela",
        "country": "Portugal",
        "province": "Porto",
        "population": 2307,
        "latitude": 41.449437,
        "longitude": -8.751662
    },
    {
        "name": "Ervedosa do Douro",
        "country": "Portugal",
        "province": "Viseu",
        "population": 1294,
        "latitude": 41.166263,
        "longitude": -7.473054
    },
    {
        "name": "Eixo",
        "country": "Portugal",
        "province": "Aveiro",
        "population": 5978,
        "latitude": 40.627582,
        "longitude": -8.569224
    },
    {
        "name": "Darque",
        "country": "Portugal",
        "province": "Viana do Castelo",
        "population": 8092,
        "latitude": 41.6833333,
        "longitude": -8.7666667
    },
    {
        "name": "Cucujães",
        "country": "Portugal",
        "province": "Aveiro",
        "population": 11087,
        "latitude": 40.87413,
        "longitude": -8.50687
    },
    {
        "name": "Chaves",
        "country": "Portugal",
        "province": "Vila Real",
        "population": 17535,
        "latitude": 41.740186,
        "longitude": -7.468789
    },
    {
        "name": "Castelões de Cepeda",
        "country": "Portugal",
        "province": "Porto",
        "population": 8322,
        "latitude": 41.202648,
        "longitude": -8.335161
    },
    {
        "name": "Carapinheira",
        "country": "Portugal",
        "province": "Coimbra",
        "population": 2898,
        "latitude": 40.206195,
        "longitude": -8.6481
    },
    {
        "name": "Canelas",
        "country": "Portugal",
        "province": "Porto",
        "population": 14247,
        "latitude": 41.0833333,
        "longitude": -8.6
    },
    {
        "name": "Canas de Senhorim",
        "country": "Portugal",
        "province": "Viseu",
        "population": 3509,
        "latitude": 40.500117,
        "longitude": -7.898743
    },
    {
        "name": "Caminha",
        "country": "Portugal",
        "province": "Viana do Castelo",
        "population": -1,
        "latitude": 41.877038469836634,
        "longitude": -8.83875846862793
    },
    {
        "name": "Caldelas",
        "country": "Portugal",
        "province": "Braga",
        "population": 5724,
        "latitude": 41.671009,
        "longitude": -8.381475
    },
    {
        "name": "Caldas de Vizela",
        "country": "Portugal",
        "province": "Braga",
        "population": 10239,
        "latitude": 41.382118,
        "longitude": -8.308902
    },
    {
        "name": "Taipas",
        "country": "Portugal",
        "province": "Braga",
        "population": 5723,
        "latitude": 41.484646,
        "longitude": -8.348503
    },
    {
        "name": "Cabeceiras de Basto",
        "country": "Portugal",
        "province": "Braga",
        "population": 16710,
        "latitude": 41.514312,
        "longitude": -7.989415
    },
    {
        "name": "Cabanas de Viriato",
        "country": "Portugal",
        "province": "Viseu",
        "population": 1533,
        "latitude": 40.47662,
        "longitude": -7.97445
    },
    {
        "name": "Buarcos",
        "country": "Portugal",
        "province": "Coimbra",
        "population": 7865,
        "latitude": 40.166039,
        "longitude": -8.876801
    },
    {
        "name": "Belver",
        "country": "Portugal",
        "province": "Bragança",
        "population": 1100,
        "latitude": 41.246958,
        "longitude": -7.275943
    },
    {
        "name": "Baltar",
        "country": "Portugal",
        "province": "Porto",
        "population": 4929,
        "latitude": 41.19272,
        "longitude": -8.38768
    },
    {
        "name": "Aves",
        "country": "Portugal",
        "province": "Porto",
        "population": 8507,
        "latitude": 41.370339,
        "longitude": -8.410104
    },
    {
        "name": "Aver-o-Mar",
        "country": "Portugal",
        "province": "Porto",
        "population": 10501,
        "latitude": 41.40607,
        "longitude": -8.77958
    },
    {
        "name": "Avanca",
        "country": "Portugal",
        "province": "Aveiro",
        "population": 6540,
        "latitude": 40.807707,
        "longitude": -8.5722
    },
    {
        "name": "Arrifana",
        "country": "Portugal",
        "province": "Aveiro",
        "population": 6927,
        "latitude": 40.915653,
        "longitude": -8.496569
    },
    {
        "name": "Argoncilhe",
        "country": "Portugal",
        "province": "Aveiro",
        "population": 8743,
        "latitude": 41.025406,
        "longitude": -8.538849
    },
    {
        "name": "Areosa",
        "country": "Portugal",
        "province": "Viana do Castelo",
        "population": 4626,
        "latitude": 41.717788,
        "longitude": -8.857073
    },
    {
        "name": "Arazede",
        "country": "Portugal",
        "province": "Coimbra",
        "population": 5906,
        "latitude": 40.286268,
        "longitude": -8.649989
    },
    {
        "name": "Aradas",
        "country": "Portugal",
        "province": "Aveiro",
        "population": 7295,
        "latitude": 40.62084,
        "longitude": -8.641953
    },
    {
        "name": "Apúlia",
        "country": "Portugal",
        "province": "Braga",
        "population": 4394,
        "latitude": 41.485125,
        "longitude": -8.764133
    },
    {
        "name": "Alpendurada",
        "country": "Portugal",
        "province": "Porto",
        "population": 8485,
        "latitude": 41.08944,
        "longitude": -8.24643
    },
    {
        "name": "Alhadas",
        "country": "Portugal",
        "province": "Coimbra",
        "population": 3768,
        "latitude": 40.186072,
        "longitude": -8.790568
    },
    {
        "name": "Alfarelos",
        "country": "Portugal",
        "province": "Coimbra",
        "population": 1439,
        "latitude": 40.150571,
        "longitude": -8.653261
    },
    {
        "name": "Vizela",
        "country": "Portugal",
        "province": "Porto",
        "population": 4066,
        "latitude": 41.382422,
        "longitude": -8.248868
    },
    {
        "name": "Vilela",
        "country": "Portugal",
        "province": "Vila Real",
        "population": 5540,
        "latitude": 41.225112,
        "longitude": -7.603378
    },
    {
        "name": "Vilar do Paraíso",
        "country": "Portugal",
        "province": "Porto",
        "population": 14727,
        "latitude": 41.08974,
        "longitude": -8.621095
    },
    {
        "name": "Vila Praia de Âncora",
        "country": "Portugal",
        "province": "Viana do Castelo",
        "population": 4987,
        "latitude": 41.810976,
        "longitude": -8.852548
    },
    {
        "name": "Várzea",
        "country": "Portugal",
        "province": "Braga",
        "population": 1904,
        "latitude": 41.51512,
        "longitude": -8.584
    },
    {
        "name": "Treixedo",
        "country": "Portugal",
        "province": "Viseu",
        "population": 1104,
        "latitude": 40.432463,
        "longitude": -8.094282
    },
    {
        "name": "Tondela",
        "country": "Portugal",
        "province": "Viseu",
        "population": 8800,
        "latitude": 40.516815,
        "longitude": -8.080866
    },
    {
        "name": "Tebosa",
        "country": "Portugal",
        "province": "Braga",
        "population": 1129,
        "latitude": 41.482525,
        "longitude": -8.483992
    },
    {
        "name": "Tavarede",
        "country": "Portugal",
        "province": "Coimbra",
        "population": 8586,
        "latitude": 40.16692,
        "longitude": -8.84568
    },
    {
        "name": "Tábua",
        "country": "Portugal",
        "province": "Coimbra",
        "population": 12071,
        "latitude": 40.362074,
        "longitude": -8.02936
    },
    {
        "name": "Sobrado",
        "country": "Portugal",
        "province": "Porto",
        "population": 6703,
        "latitude": 41.210406,
        "longitude": -8.45488
    },
    {
        "name": "Sequeira",
        "country": "Portugal",
        "province": "Guarda",
        "population": 28502,
        "latitude": 40.553642,
        "longitude": -7.225939
    },
    {
        "name": "Selho",
        "country": "Portugal",
        "province": "Braga",
        "population": 10223,
        "latitude": 41.419382,
        "longitude": -8.345989
    },
    {
        "name": "São Miguel do Couto",
        "country": "Portugal",
        "province": "Porto",
        "population": 5416,
        "latitude": 41.331669,
        "longitude": -8.461851
    },
    {
        "name": "São João de Ver",
        "country": "Portugal",
        "province": "Aveiro",
        "population": 9568,
        "latitude": 40.95527,
        "longitude": -8.551171
    },
    {
        "name": "São João de Areias",
        "country": "Portugal",
        "province": "Viseu",
        "population": 1939,
        "latitude": 40.387219,
        "longitude": -8.067829
    },
    {
        "name": "Santa Comba Dão",
        "country": "Portugal",
        "province": "Viseu",
        "population": 11597,
        "latitude": 40.398559,
        "longitude": -8.131601
    },
    {
        "name": "Sangalhos",
        "country": "Portugal",
        "province": "Aveiro",
        "population": 4516,
        "latitude": 40.486781,
        "longitude": -8.469679
    },
    {
        "name": "Rio Meão",
        "country": "Portugal",
        "province": "Aveiro",
        "population": 4802,
        "latitude": 40.957752,
        "longitude": -8.578176
    },
    {
        "name": "Rio Mau",
        "country": "Portugal",
        "province": "Porto",
        "population": 1407,
        "latitude": 41.055416,
        "longitude": -8.368911
    },
    {
        "name": "Riba de Ave",
        "country": "Portugal",
        "province": "Braga",
        "population": 3425,
        "latitude": 41.396485,
        "longitude": -8.386849
    },
    {
        "name": "Rendufe",
        "country": "Portugal",
        "province": "Braga",
        "population": 1124,
        "latitude": 41.62898049164029,
        "longitude": -8.408575057983398
    },
    {
        "name": "Recarei",
        "country": "Portugal",
        "province": "Porto",
        "population": 4856,
        "latitude": 41.153559,
        "longitude": -8.411779
    },
    {
        "name": "Póvoa de Lanhoso",
        "country": "Portugal",
        "province": "Braga",
        "population": 5008,
        "latitude": 41.57599,
        "longitude": -8.27008
    },
    {
        "name": "Ponte da Barca",
        "country": "Portugal",
        "province": "Viana do Castelo",
        "population": 4372,
        "latitude": 41.804509,
        "longitude": -8.415541
    },
    {
        "name": "Peso da Régua Municipality",
        "country": "Portugal",
        "province": "Vila Real",
        "population": 5048,
        "latitude": 41.163176,
        "longitude": -7.789014
    },
    {
        "name": "Perozinho",
        "country": "Portugal",
        "province": "Porto",
        "population": 6259,
        "latitude": 41.065128,
        "longitude": -8.585315
    },
    {
        "name": "Penela",
        "country": "Portugal",
        "province": "Coimbra",
        "population": -1,
        "latitude": 40.033333,
        "longitude": -8.383333
    },
    {
        "name": "Pedrouços",
        "country": "Portugal",
        "province": "Porto",
        "population": 12553,
        "latitude": 41.1888,
        "longitude": -8.58624
    },
    {
        "name": "Pampilhosa",
        "country": "Portugal",
        "province": "Aveiro",
        "population": 4512,
        "latitude": 40.335801,
        "longitude": -8.427381
    },
    {
        "name": "Paços de Brandão",
        "country": "Portugal",
        "province": "Aveiro",
        "population": 4637,
        "latitude": 40.975411,
        "longitude": -8.583504
    },
    {
        "name": "Oiã",
        "country": "Portugal",
        "province": "Aveiro",
        "population": 7118,
        "latitude": 40.542641,
        "longitude": -8.538562
    },
    {
        "name": "Rio Maior",
        "country": "Portugal",
        "province": "Santarém",
        "population": 12064,
        "latitude": 39.337325,
        "longitude": -8.939063
    },
    {
        "name": "Praia do Ribatejo",
        "country": "Portugal",
        "province": "Santarém",
        "population": 1702,
        "latitude": 39.4666667,
        "longitude": -8.35
    },
    {
        "name": "Pragal",
        "country": "Portugal",
        "province": "Setúbal",
        "population": 7701,
        "latitude": 38.674592,
        "longitude": -9.169806
    },
    {
        "name": "Póvoa de Santo Adrião",
        "country": "Portugal",
        "province": "Lisbon",
        "population": 14897,
        "latitude": 38.8,
        "longitude": -9.1666667
    },
    {
        "name": "Porto Covo",
        "country": "Portugal",
        "province": "Setúbal",
        "population": 1400,
        "latitude": 37.852560020114,
        "longitude": -8.7901782989502
    },
    {
        "name": "Pontinha",
        "country": "Portugal",
        "province": "Lisbon",
        "population": 23249,
        "latitude": 38.767713,
        "longitude": -9.199346
    },
    {
        "name": "Ponte de Sôr",
        "country": "Portugal",
        "province": "Portalegre",
        "population": 11062,
        "latitude": 39.249642,
        "longitude": -8.010086
    },
    {
        "name": "Pego",
        "country": "Portugal",
        "province": "Santarém",
        "population": 2431,
        "latitude": 39.46146,
        "longitude": -8.14955
    },
    {
        "name": "Parede",
        "country": "Portugal",
        "province": "Lisbon",
        "population": 17212,
        "latitude": 38.692815,
        "longitude": -9.35412
    },
    {
        "name": "Paderne",
        "country": "Portugal",
        "province": "Faro",
        "population": 3304,
        "latitude": 37.179352,
        "longitude": -8.201501
    },
    {
        "name": "Ourém",
        "country": "Portugal",
        "province": "Santarém",
        "population": 12729,
        "latitude": 39.641675,
        "longitude": -8.591899
    },
    {
        "name": "Ota",
        "country": "Portugal",
        "province": "Lisbon",
        "population": 1289,
        "latitude": 39.111989,
        "longitude": -8.99105
    },
    {
        "name": "Olhos de Água",
        "country": "Portugal",
        "province": "Faro",
        "population": 3221,
        "latitude": 37.09023980307208,
        "longitude": -8.191680908203125
    },
    {
        "name": "Olho Marinho",
        "country": "Portugal",
        "province": "Leiria",
        "population": 1158,
        "latitude": 39.327913,
        "longitude": -9.231787
    },
    {
        "name": "Odemira",
        "country": "Portugal",
        "province": "Beja",
        "population": 5830,
        "latitude": 37.597980088464666,
        "longitude": -8.639717102050781
    },
    {
        "name": "Nossa Senhora do Monte",
        "country": "Portugal",
        "province": "Madeira",
        "population": 7444,
        "latitude": 32.6666667,
        "longitude": -16.9
    },
    {
        "name": "Nadadouro",
        "country": "Portugal",
        "province": "Leiria",
        "population": 1904,
        "latitude": 39.419271,
        "longitude": -9.190912
    },
    {
        "name": "Moura",
        "country": "Portugal",
        "province": "Beja",
        "population": 9360,
        "latitude": 38.140095,
        "longitude": -7.44856
    },
    {
        "name": "Monte Real",
        "country": "Portugal",
        "province": "Leiria",
        "population": 5756,
        "latitude": 39.852097,
        "longitude": -8.863486
    },
    {
        "name": "Monte Gordo",
        "country": "Portugal",
        "province": "Faro",
        "population": 4282,
        "latitude": 37.181923,
        "longitude": -7.452252
    },
    {
        "name": "Monforte",
        "country": "Portugal",
        "province": "Portalegre",
        "population": 3329,
        "latitude": 39.0531848012576,
        "longitude": -7.43688583374023
    },
    {
        "name": "Moncarapacho",
        "country": "Portugal",
        "province": "Faro",
        "population": 8545,
        "latitude": 37.0836,
        "longitude": -7.78763
    },
    {
        "name": "Minas de São Domingos",
        "country": "Portugal",
        "province": "Beja",
        "population": 2500,
        "latitude": 37.67322310137699,
        "longitude": -7.497653961181641
    },
    {
        "name": "Mexilhoeira Grande",
        "country": "Portugal",
        "province": "Faro",
        "population": 4029,
        "latitude": 37.158583,
        "longitude": -8.614874
    },
    {
        "name": "Mértola",
        "country": "Portugal",
        "province": "Beja",
        "population": 7274,
        "latitude": 37.643041,
        "longitude": -7.661104
    },
    {
        "name": "Marvão",
        "country": "Portugal",
        "province": "Portalegre",
        "population": 3739,
        "latitude": 39.3937711747897,
        "longitude": -7.37663269042969
    },
    {
        "name": "Manta Rota",
        "country": "Portugal",
        "province": "Faro",
        "population": 1200,
        "latitude": 37.16849,
        "longitude": -7.51804
    },
    {
        "name": "Mafra",
        "country": "Portugal",
        "province": "Lisbon",
        "population": 12259,
        "latitude": 38.937933,
        "longitude": -9.327565
    },
    {
        "name": "Lourinhã",
        "country": "Portugal",
        "province": "Lisbon",
        "population": 9196,
        "latitude": 39.24166,
        "longitude": -9.31254
    },
    {
        "name": "Louriçal",
        "country": "Portugal",
        "province": "Leiria",
        "population": 5085,
        "latitude": 40.003898,
        "longitude": -8.737363
    },
    {
        "name": "Loulé",
        "country": "Portugal",
        "province": "Faro",
        "population": 23109,
        "latitude": 37.137722,
        "longitude": -8.019684
    },
    {
        "name": "Linda a Velha",
        "country": "Portugal",
        "province": "Lisbon",
        "population": 20895,
        "latitude": 38.71446,
        "longitude": -9.242202
    },
    {
        "name": "Guia",
        "country": "Portugal",
        "province": "Faro",
        "population": 4173,
        "latitude": 37.129586,
        "longitude": -8.299625
    },
    {
        "name": "Grândola",
        "country": "Portugal",
        "province": "Setúbal",
        "population": 10737,
        "latitude": 38.177181,
        "longitude": -8.566746
    },
    {
        "name": "Foz do Arelho",
        "country": "Portugal",
        "province": "Leiria",
        "population": 1339,
        "latitude": 39.436723,
        "longitude": -9.213744
    },
    {
        "name": "Fontanelas",
        "country": "Portugal",
        "province": "Lisbon",
        "population": 6001,
        "latitude": 38.848065,
        "longitude": -9.439419
    },
    {
        "name": "Ferreiras",
        "country": "Portugal",
        "province": "Faro",
        "population": 5157,
        "latitude": 37.129265,
        "longitude": -8.237592
    },
    {
        "name": "Ferragudo",
        "country": "Portugal",
        "province": "Faro",
        "population": 1973,
        "latitude": 37.124743,
        "longitude": -8.519155
    },
    {
        "name": "Famalicão",
        "country": "Portugal",
        "province": "Leiria",
        "population": 1740,
        "latitude": 39.536416,
        "longitude": -9.083084
    },
    {
        "name": "Estômbar",
        "country": "Portugal",
        "province": "Faro",
        "population": 8590,
        "latitude": 37.146292705737935,
        "longitude": -8.485050201416016
    },
    {
        "name": "Ericeira",
        "country": "Portugal",
        "province": "Lisbon",
        "population": 7538,
        "latitude": 38.96274577502874,
        "longitude": -9.415626525878906
    },
    {
        "name": "Entroncamento",
        "country": "Portugal",
        "province": "Santarém",
        "population": 19887,
        "latitude": 39.466667,
        "longitude": -8.466667
    },
    {
        "name": "Conceição",
        "country": "Portugal",
        "province": "Faro",
        "population": 2519,
        "latitude": 37.14789,
        "longitude": -7.60426
    },
    {
        "name": "Comporta",
        "country": "Portugal",
        "province": "Setúbal",
        "population": 1268,
        "latitude": 38.380587,
        "longitude": -8.786079
    },
    {
        "name": "Colares",
        "country": "Portugal",
        "province": "Lisbon",
        "population": 7905,
        "latitude": 38.799215,
        "longitude": -9.44691
    },
    {
        "name": "Caxias",
        "country": "Portugal",
        "province": "Lisbon",
        "population": 9007,
        "latitude": 38.703139,
        "longitude": -9.276663
    },
    {
        "name": "Castelo de Vide",
        "country": "Portugal",
        "province": "Portalegre",
        "population": 3780,
        "latitude": 39.4162369038257,
        "longitude": -7.4567985534668
    },
    {
        "name": "Castanheira do Ribatejo",
        "country": "Portugal",
        "province": "Lisbon",
        "population": 7651,
        "latitude": 38.992978,
        "longitude": -8.973462
    },
    {
        "name": "Cartaxo",
        "country": "Portugal",
        "province": "Santarém",
        "population": 10502,
        "latitude": 39.160221,
        "longitude": -8.787408
    },
    {
        "name": "Carnaxide",
        "country": "Portugal",
        "province": "Lisbon",
        "population": 23698,
        "latitude": 38.727064,
        "longitude": -9.246714
    },
    {
        "name": "Caranguejeira",
        "country": "Portugal",
        "province": "Leiria",
        "population": 5248,
        "latitude": 39.746193,
        "longitude": -8.707398
    },
    {
        "name": "Caniçal",
        "country": "Portugal",
        "province": "Madeira",
        "population": 3893,
        "latitude": 32.73833881029566,
        "longitude": -16.738357543945312
    },
    {
        "name": "Caneças",
        "country": "Portugal",
        "province": "Lisbon",
        "population": 10978,
        "latitude": 38.813209,
        "longitude": -9.226794
    },
    {
        "name": "Campelos",
        "country": "Portugal",
        "province": "Lisbon",
        "population": 3667,
        "latitude": 39.196785,
        "longitude": -9.235194
    },
    {
        "name": "Zambujeira do Mar",
        "country": "Portugal",
        "province": "Beja",
        "population": 2011,
        "latitude": 37.527987,
        "longitude": -8.784827
    },
    {
        "name": "Vila Nova de Milfontes",
        "country": "Portugal",
        "province": "Beja",
        "population": 4393,
        "latitude": 37.723766,
        "longitude": -8.782775
    },
    {
        "name": "Vestiaria",
        "country": "Portugal",
        "province": "Leiria",
        "population": 1258,
        "latitude": 39.552715,
        "longitude": -8.997899
    },
    {
        "name": "Ventosa",
        "country": "Portugal",
        "province": "Lisbon",
        "population": 5215,
        "latitude": 39.12696,
        "longitude": -9.084235
    },
    {
        "name": "Turquel",
        "country": "Portugal",
        "province": "Leiria",
        "population": 4434,
        "latitude": 39.464115,
        "longitude": -8.977427
    },
    {
        "name": "Tramagal",
        "country": "Portugal",
        "province": "Santarém",
        "population": 3821,
        "latitude": 39.45,
        "longitude": -8.25
    },
    {
        "name": "Trafaria",
        "country": "Portugal",
        "province": "Setúbal",
        "population": 5603,
        "latitude": 38.672225,
        "longitude": -9.232679
    },
    {
        "name": "Torres Novas",
        "country": "Portugal",
        "province": "Santarém",
        "population": 15002,
        "latitude": 39.47581,
        "longitude": -8.54348
    },
    {
        "name": "Senhora da Luz",
        "country": "Portugal",
        "province": "Faro",
        "population": 3545,
        "latitude": 37.087711,
        "longitude": -8.726495
    },
    {
        "name": "Sardoal",
        "country": "Portugal",
        "province": "Santarém",
        "population": 3939,
        "latitude": 39.53448935433674,
        "longitude": -8.161189556121826
    },
    {
        "name": "São Martinho do Porto",
        "country": "Portugal",
        "province": "Leiria",
        "population": 2868,
        "latitude": 39.51444,
        "longitude": -9.131115
    },
    {
        "name": "São Marcos da Serra",
        "country": "Portugal",
        "province": "Faro",
        "population": 1352,
        "latitude": 37.360996,
        "longitude": -8.377644
    },
    {
        "name": "São Jorge",
        "country": "Portugal",
        "province": "Madeira",
        "population": 1473,
        "latitude": 32.8166667,
        "longitude": -16.9
    },
    {
        "name": "São Bartolomeu de Messines",
        "country": "Portugal",
        "province": "Faro",
        "population": 8381,
        "latitude": 37.25648,
        "longitude": -8.28672
    },
    {
        "name": "Santo Antão do Tojal",
        "country": "Portugal",
        "province": "Lisbon",
        "population": 4156,
        "latitude": 38.85151,
        "longitude": -9.13975
    },
    {
        "name": "Santa Luzia",
        "country": "Portugal",
        "province": "Faro",
        "population": 1455,
        "latitude": 37.102237,
        "longitude": -7.662019
    },
    {
        "name": "Santa Iria da Azóia",
        "country": "Portugal",
        "province": "Lisbon",
        "population": 18573,
        "latitude": 38.8411,
        "longitude": -9.09908
    },
    {
        "name": "Santa Catarina da Serra",
        "country": "Portugal",
        "province": "Leiria",
        "population": 4405,
        "latitude": 39.679604,
        "longitude": -8.68679
    },
    {
        "name": "Santa Bárbara de Nexe",
        "country": "Portugal",
        "province": "Faro",
        "population": 4087,
        "latitude": 37.106191,
        "longitude": -7.966481
    },
    {
        "name": "Samora Correia",
        "country": "Portugal",
        "province": "Santarém",
        "population": 14154,
        "latitude": 38.937093,
        "longitude": -8.871779
    },
    {
        "name": "Salir de Matos",
        "country": "Portugal",
        "province": "Leiria",
        "population": 2583,
        "latitude": 39.431863,
        "longitude": -9.094787
    },
    {
        "name": "Sagres",
        "country": "Portugal",
        "province": "Faro",
        "population": 1939,
        "latitude": 37.008644,
        "longitude": -8.943111
    },
    {
        "name": "Cadafais",
        "country": "Portugal",
        "province": "Lisbon",
        "population": 1687,
        "latitude": 39.00461,
        "longitude": -9.004186
    },
    {
        "name": "Cacilhas",
        "country": "Portugal",
        "province": "Setúbal",
        "population": 6494,
        "latitude": 38.68638,
        "longitude": -9.14938
    },
    {
        "name": "Cabeça Gorda",
        "country": "Portugal",
        "province": "Beja",
        "population": 1386,
        "latitude": 37.924009,
        "longitude": -7.7929
    },
    {
        "name": "Cabanas de Torres",
        "country": "Portugal",
        "province": "Lisbon",
        "population": 1018,
        "latitude": 39.155809,
        "longitude": -9.065878
    },
    {
        "name": "Bucelas",
        "country": "Portugal",
        "province": "Lisbon",
        "population": 4614,
        "latitude": 38.901929,
        "longitude": -9.118848
    },
    {
        "name": "Bombarral",
        "country": "Portugal",
        "province": "Leiria",
        "population": 5852,
        "latitude": 39.267231,
        "longitude": -9.157952
    },
    {
        "name": "Boliqueime",
        "country": "Portugal",
        "province": "Faro",
        "population": 4470,
        "latitude": 37.137184,
        "longitude": -8.1582
    },
    {
        "name": "Boavista dos Pinheiros",
        "country": "Portugal",
        "province": "Beja",
        "population": 1633,
        "latitude": 37.58058,
        "longitude": -8.66441
    },
    {
        "name": "Boaventura",
        "country": "Portugal",
        "province": "Madeira",
        "population": 1221,
        "latitude": 32.81846,
        "longitude": -16.97268
    },
    {
        "name": "Beringel",
        "country": "Portugal",
        "province": "Beja",
        "population": 1301,
        "latitude": 38.056555,
        "longitude": -7.984274
    },
    {
        "name": "Bensafrim",
        "country": "Portugal",
        "province": "Faro",
        "population": 2004,
        "latitude": 37.15583,
        "longitude": -8.7352
    },
    {
        "name": "Barcarena",
        "country": "Portugal",
        "province": "Lisbon",
        "population": 11968,
        "latitude": 38.73245,
        "longitude": -9.279998
    },
    {
        "name": "Avelar",
        "country": "Portugal",
        "province": "Leiria",
        "population": 1458,
        "latitude": 39.923733,
        "longitude": -8.358301
    },
    {
        "name": "Aveiras de Cima",
        "country": "Portugal",
        "province": "Lisbon",
        "population": 4615,
        "latitude": 39.137957,
        "longitude": -8.899323
    },
    {
        "name": "Atouguia da Baleia",
        "country": "Portugal",
        "province": "Leiria",
        "population": 8313,
        "latitude": 39.338145,
        "longitude": -9.326302
    },
    {
        "name": "Arranhó",
        "country": "Portugal",
        "province": "Lisbon",
        "population": 2531,
        "latitude": 38.953776,
        "longitude": -9.134652
    },
    {
        "name": "Armação de Pêra",
        "country": "Portugal",
        "province": "Faro",
        "population": 4030,
        "latitude": 37.102565,
        "longitude": -8.356954
    },
    {
        "name": "Amor",
        "country": "Portugal",
        "province": "Leiria",
        "population": 4870,
        "latitude": 39.804039,
        "longitude": -8.859845
    },
    {
        "name": "Amiães de Baixo",
        "country": "Portugal",
        "province": "Santarém",
        "population": 1851,
        "latitude": 39.44296,
        "longitude": -8.733584
    },
    {
        "name": "Alvorninha",
        "country": "Portugal",
        "province": "Leiria",
        "population": 2987,
        "latitude": 39.382238,
        "longitude": -9.036745
    },
    {
        "name": "Alvor",
        "country": "Portugal",
        "province": "Faro",
        "population": 5272,
        "latitude": 37.12993967579273,
        "longitude": -8.591737747192383
    },
    {
        "name": "Alter do Chão",
        "country": "Portugal",
        "province": "Portalegre",
        "population": 2600,
        "latitude": 39.197407155743,
        "longitude": -7.6589298248291
    },
    {
        "name": "Almeirim",
        "country": "Portugal",
        "province": "Santarém",
        "population": 11557,
        "latitude": 39.20837,
        "longitude": -8.62635
    },
    {
        "name": "Almancil",
        "country": "Portugal",
        "province": "Faro",
        "population": 9898,
        "latitude": 37.086858,
        "longitude": -8.030738
    },
    {
        "name": "Aljubarrota",
        "country": "Portugal",
        "province": "Leiria",
        "population": 6146,
        "latitude": 39.567155,
        "longitude": -8.929254
    },
    {
        "name": "Alhandra",
        "country": "Portugal",
        "province": "Lisbon",
        "population": 7226,
        "latitude": 38.92732,
        "longitude": -9.00864
    },
    {
        "name": "Algueirão",
        "country": "Portugal",
        "province": "Lisbon",
        "population": 66250,
        "latitude": 38.79764,
        "longitude": -9.3437
    },
    {
        "name": "Algoz",
        "country": "Portugal",
        "province": "Faro",
        "population": 2946,
        "latitude": 37.163008,
        "longitude": -8.303595
    },
    {
        "name": "Alferrarede",
        "country": "Portugal",
        "province": "Santarém",
        "population": 3654,
        "latitude": 39.4833333,
        "longitude": -8.1666667
    },
    {
        "name": "Alfeizerão",
        "country": "Portugal",
        "province": "Leiria",
        "population": 3854,
        "latitude": 39.499707,
        "longitude": -9.103411
    },
    {
        "name": "Alcanhões",
        "country": "Portugal",
        "province": "Santarém",
        "population": 1469,
        "latitude": 39.296032,
        "longitude": -8.658473
    },
    {
        "name": "Alcanena",
        "country": "Portugal",
        "province": "Santarém",
        "population": 4408,
        "latitude": 39.459005,
        "longitude": -8.668924
    },
    {
        "name": "Alcanede",
        "country": "Portugal",
        "province": "Santarém",
        "population": 5020,
        "latitude": 39.41501,
        "longitude": -8.821886
    },
    {
        "name": "Alcains",
        "country": "Portugal",
        "province": "Guarda",
        "population": 5030,
        "latitude": 39.916415,
        "longitude": -7.456551
    },
    {
        "name": "A dos Francos",
        "country": "Portugal",
        "province": "Leiria",
        "population": 1701,
        "latitude": 39.32272,
        "longitude": -9.047425
    },
    {
        "name": "Abrigada",
        "country": "Portugal",
        "province": "Lisbon",
        "population": 3416,
        "latitude": 39.144161,
        "longitude": -9.018528
    },
    {
        "name": "Aguçadoura",
        "country": "Portugal",
        "province": "Porto",
        "population": 4521,
        "latitude": 41.43116,
        "longitude": -8.77844
    },
    {
        "name": "Aguada de Cima",
        "country": "Portugal",
        "province": "Aveiro",
        "population": 4388,
        "latitude": 40.522909,
        "longitude": -8.427
    },
    {
        "name": "Adaúfe",
        "country": "Portugal",
        "province": "Braga",
        "population": 3850,
        "latitude": 41.58732,
        "longitude": -8.398173
    },
    {
        "name": "Abraveses",
        "country": "Portugal",
        "province": "Viseu",
        "population": 9319,
        "latitude": 40.681372,
        "longitude": -7.921024
    },
    {
        "name": "Alfragide",
        "country": "Portugal",
        "province": "Lisbon",
        "population": 17044,
        "latitude": 38.73202505202021,
        "longitude": -9.219202995300293
    },
    {
        "name": "Ribeira de Elos",
        "country": "Portugal",
        "province": "Vila Real",
        "population": -1,
        "latitude": 41.231701,
        "longitude": -7.797111
    },
    {
        "name": "Urzelina",
        "country": "Portugal",
        "province": "Azores",
        "population": 902,
        "latitude": 38.65,
        "longitude": -28.1333333
    },
    {
        "name": "Topo",
        "country": "Portugal",
        "province": "Azores",
        "population": -1,
        "latitude": 38.54733,
        "longitude": -27.76631
    },
    {
        "name": "Toledo",
        "country": "Portugal",
        "province": "Azores",
        "population": 60,
        "latitude": 38.7,
        "longitude": -28.15
    },
    {
        "name": "Senhora do Rosário",
        "country": "Portugal",
        "province": "Azores",
        "population": 4937,
        "latitude": 37.833333,
        "longitude": -25.15
    },
    {
        "name": "São Pedro",
        "country": "Portugal",
        "province": "Azores",
        "population": -1,
        "latitude": 37.8333333,
        "longitude": -25.6333333
    },
    {
        "name": "Rosto de Cão",
        "country": "Portugal",
        "province": "Azores",
        "population": 7880,
        "latitude": 37.75,
        "longitude": -25.65
    },
    {
        "name": "Ribeirinha",
        "country": "Portugal",
        "province": "Azores",
        "population": -1,
        "latitude": 38.59088,
        "longitude": -28.6129
    },
    {
        "name": "Rabo de Peixe",
        "country": "Portugal",
        "province": "Azores",
        "population": 7681,
        "latitude": 37.81022,
        "longitude": -25.58263
    },
    {
        "name": "Praia da Graciosa",
        "country": "Portugal",
        "province": "Azores",
        "population": 836,
        "latitude": 39.05154,
        "longitude": -27.97107
    },
    {
        "name": "Pedro Miguel",
        "country": "Portugal",
        "province": "Azores",
        "population": -1,
        "latitude": 38.57479,
        "longitude": -28.6184
    },
    {
        "name": "Norte Grande",
        "country": "Portugal",
        "province": "Azores",
        "population": -1,
        "latitude": 38.6666667,
        "longitude": -28.0666667
    },
    {
        "name": "Matriz",
        "country": "Portugal",
        "province": "Azores",
        "population": -1,
        "latitude": 38.5333333,
        "longitude": -28.6333333
    },
    {
        "name": "Manadas",
        "country": "Portugal",
        "province": "Azores",
        "population": 374,
        "latitude": 38.6333333,
        "longitude": -28.1
    },
    {
        "name": "Livramento",
        "country": "Portugal",
        "province": "Azores",
        "population": -1,
        "latitude": 37.76407,
        "longitude": -25.60733
    },
    {
        "name": "Fonte Bastardo",
        "country": "Portugal",
        "province": "Azores",
        "population": 1278,
        "latitude": 38.69201,
        "longitude": -27.07942
    },
    {
        "name": "Fajã dos Vimes",
        "country": "Portugal",
        "province": "Azores",
        "population": 70,
        "latitude": 38.5833333,
        "longitude": -27.9333333
    },
    {
        "name": "Fajã do Ouvidor",
        "country": "Portugal",
        "province": "Azores",
        "population": 90,
        "latitude": 38.67601,
        "longitude": -28.05331
    },
    {
        "name": "Fajã de São João",
        "country": "Portugal",
        "province": "Azores",
        "population": 7,
        "latitude": 38.55,
        "longitude": -27.8666667
    },
    {
        "name": "Conceição",
        "country": "Portugal",
        "province": "Azores",
        "population": -1,
        "latitude": 38.5333333,
        "longitude": -28.6333333
    },
    {
        "name": "Bretanha",
        "country": "Portugal",
        "province": "Azores",
        "population": -1,
        "latitude": 37.9,
        "longitude": -25.7666667
    },
    {
        "name": "Biscoitos",
        "country": "Portugal",
        "province": "Azores",
        "population": 1425,
        "latitude": 38.7833333,
        "longitude": -27.25
    },
    {
        "name": "Barroselas",
        "country": "Portugal",
        "province": "Viana do Castelo",
        "population": -1,
        "latitude": 41.64739040268027,
        "longitude": -8.700742721557617
    },
    {
        "name": "São Pedro de Moel",
        "country": "Portugal",
        "province": "Leiria",
        "population": 389,
        "latitude": 39.7585398,
        "longitude": -9.0315771
    },
    {
        "name": "Quinta Do Conde",
        "country": "Portugal",
        "province": "Setúbal",
        "population": 25606,
        "latitude": 38.56528,
        "longitude": -9.04316
    },
    {
        "name": "Nelas",
        "country": "Portugal",
        "province": "Viseu",
        "population": 4190,
        "latitude": 40.532157,
        "longitude": -7.851525
    },
    {
        "name": "Negrelos",
        "country": "Portugal",
        "province": "Porto",
        "population": 6664,
        "latitude": 41.349457,
        "longitude": -8.401447
    },
    {
        "name": "Negrelos",
        "country": "Portugal",
        "province": "Porto",
        "population": -1,
        "latitude": 41.344222,
        "longitude": -8.350132
    },
    {
        "name": "Navarra",
        "country": "Portugal",
        "province": "Braga",
        "population": -1,
        "latitude": 41.607352,
        "longitude": -8.380068
    },
    {
        "name": "Murtosa",
        "country": "Portugal",
        "province": "Aveiro",
        "population": 8282,
        "latitude": 40.736948,
        "longitude": -8.637697
    },
    {
        "name": "Moure",
        "country": "Portugal",
        "province": "Braga",
        "population": -1,
        "latitude": 41.505917,
        "longitude": -8.56296
    },
    {
        "name": "Moreira",
        "country": "Portugal",
        "province": "Porto",
        "population": 11336,
        "latitude": 41.056004,
        "longitude": -8.389392
    },
    {
        "name": "Monte Córdova",
        "country": "Portugal",
        "province": "Porto",
        "population": -1,
        "latitude": 41.316476,
        "longitude": -8.439958
    },
    {
        "name": "Modivas",
        "country": "Portugal",
        "province": "Porto",
        "population": -1,
        "latitude": 41.296567,
        "longitude": -8.689947
    },
    {
        "name": "Mire de Tibães",
        "country": "Portugal",
        "province": "Braga",
        "population": -1,
        "latitude": 41.556024,
        "longitude": -8.479023
    },
    {
        "name": "Miramar",
        "country": "Portugal",
        "province": "Porto",
        "population": -1,
        "latitude": 41.06775,
        "longitude": -8.65045
    },
    {
        "name": "Midões",
        "country": "Portugal",
        "province": "Coimbra",
        "population": -1,
        "latitude": 40.38587,
        "longitude": -7.950984
    },
    {
        "name": "Mealhada",
        "country": "Portugal",
        "province": "Aveiro",
        "population": 4443,
        "latitude": 40.378063,
        "longitude": -8.449912
    },
    {
        "name": "Martim",
        "country": "Portugal",
        "province": "Braga",
        "population": -1,
        "latitude": 41.534193,
        "longitude": -8.519156
    },
    {
        "name": "Manhente",
        "country": "Portugal",
        "province": "Braga",
        "population": -1,
        "latitude": 41.547131,
        "longitude": -8.573063
    },
    {
        "name": "Macinhata do Vouga",
        "country": "Portugal",
        "province": "Aveiro",
        "population": -1,
        "latitude": 40.653466,
        "longitude": -8.45333
    },
    {
        "name": "Macedo do Mato",
        "country": "Portugal",
        "province": "Bragança",
        "population": -1,
        "latitude": 41.576137,
        "longitude": -6.782043
    },
    {
        "name": "Lustosa",
        "country": "Portugal",
        "province": "Porto",
        "population": 4686,
        "latitude": 41.340815,
        "longitude": -8.317153
    },
    {
        "name": "Luso",
        "country": "Portugal",
        "province": "Aveiro",
        "population": 2593,
        "latitude": 40.38429,
        "longitude": -8.378453
    },
    {
        "name": "Lousada",
        "country": "Portugal",
        "province": "Porto",
        "population": 2166,
        "latitude": 41.278223,
        "longitude": -8.279926
    },
    {
        "name": "Lordelo do Ouro",
        "country": "Portugal",
        "province": "Porto",
        "population": -1,
        "latitude": 41.150589,
        "longitude": -8.648445
    },
    {
        "name": "Lordelo",
        "country": "Portugal",
        "province": "Braga",
        "population": 4560,
        "latitude": 41.374108,
        "longitude": -8.380164
    },
    {
        "name": "Lever",
        "country": "Portugal",
        "province": "Porto",
        "population": -1,
        "latitude": 41.06681,
        "longitude": -8.475752
    },
    {
        "name": "Lazarim",
        "country": "Portugal",
        "province": "Viseu",
        "population": -1,
        "latitude": 41.032091,
        "longitude": -7.845693
    },
    {
        "name": "Lavra",
        "country": "Portugal",
        "province": "Porto",
        "population": 9633,
        "latitude": 41.259355,
        "longitude": -8.718489
    },
    {
        "name": "Laundos",
        "country": "Portugal",
        "province": "Porto",
        "population": -1,
        "latitude": 41.436617,
        "longitude": -8.721913
    },
    {
        "name": "Lamelas",
        "country": "Portugal",
        "province": "Porto",
        "population": 953,
        "latitude": 41.2874167746582,
        "longitude": -8.47457885742188
    },
    {
        "name": "Lamas de Mouro",
        "country": "Portugal",
        "province": "Viana do Castelo",
        "population": -1,
        "latitude": 42.05147553173247,
        "longitude": -8.199427127838135
    },
    {
        "name": "Lama",
        "country": "Portugal",
        "province": "Braga",
        "population": -1,
        "latitude": 41.574851,
        "longitude": -8.541101
    },
    {
        "name": "Lama",
        "country": "Portugal",
        "province": "Porto",
        "population": -1,
        "latitude": 41.361952,
        "longitude": -8.474383
    },
    {
        "name": "Lalim",
        "country": "Portugal",
        "province": "Viseu",
        "population": 729,
        "latitude": 41.039449,
        "longitude": -7.816054
    },
    {
        "name": "Labruja",
        "country": "Portugal",
        "province": "Viana do Castelo",
        "population": -1,
        "latitude": 41.841074,
        "longitude": -8.599617
    },
    {
        "name": "Jovim",
        "country": "Portugal",
        "province": "Porto",
        "population": 7067,
        "latitude": 41.111022,
        "longitude": -8.51903
    },
    {
        "name": "Guimarei",
        "country": "Portugal",
        "province": "Porto",
        "population": -1,
        "latitude": 41.303436,
        "longitude": -8.486944
    },
    {
        "name": "Guide",
        "country": "Portugal",
        "province": "Bragança",
        "population": -1,
        "latitude": 41.638184,
        "longitude": -7.151096
    },
    {
        "name": "Gualtar",
        "country": "Portugal",
        "province": "Braga",
        "population": -1,
        "latitude": 41.56501814545015,
        "longitude": -8.385486602783203
    },
    {
        "name": "Gradiz",
        "country": "Portugal",
        "province": "Guarda",
        "population": 212,
        "latitude": 40.85957,
        "longitude": -7.528338
    },
    {
        "name": "Gontães",
        "country": "Portugal",
        "province": "Vila Real",
        "population": -1,
        "latitude": 41.298962,
        "longitude": -7.837596
    },
    {
        "name": "Goães",
        "country": "Portugal",
        "province": "Braga",
        "population": 557,
        "latitude": 41.658931,
        "longitude": -8.309397
    },
    {
        "name": "Gimonde",
        "country": "Portugal",
        "province": "Bragança",
        "population": 341,
        "latitude": 41.802028,
        "longitude": -6.699981
    },
    {
        "name": "Gião",
        "country": "Portugal",
        "province": "Porto",
        "population": -1,
        "latitude": 41.315383,
        "longitude": -8.673127
    },
    {
        "name": "Gemunde",
        "country": "Portugal",
        "province": "Porto",
        "population": 5284,
        "latitude": 41.267661,
        "longitude": -8.645151
    },
    {
        "name": "Galegos",
        "country": "Portugal",
        "province": "Braga",
        "population": -1,
        "latitude": 41.565369,
        "longitude": -8.565662
    },
    {
        "name": "Gafanha da Encarnação",
        "country": "Portugal",
        "province": "Aveiro",
        "population": 4914,
        "latitude": 40.618058,
        "longitude": -8.733026
    },
    {
        "name": "Freixo de Numão",
        "country": "Portugal",
        "province": "Guarda",
        "population": 609,
        "latitude": 41.067067,
        "longitude": -7.22124
    },
    {
        "name": "Frechas",
        "country": "Portugal",
        "province": "Bragança",
        "population": -1,
        "latitude": 41.415138,
        "longitude": -7.165269
    },
    {
        "name": "Fraião",
        "country": "Portugal",
        "province": "Braga",
        "population": -1,
        "latitude": 41.535947,
        "longitude": -8.4012
    },
    {
        "name": "Fradelos",
        "country": "Portugal",
        "province": "Braga",
        "population": 1580,
        "latitude": 41.368464,
        "longitude": -8.598873
    },
    {
        "name": "Foz do Douro",
        "country": "Portugal",
        "province": "Porto",
        "population": 10997,
        "latitude": 41.151188,
        "longitude": -8.671245
    },
    {
        "name": "Forninhos",
        "country": "Portugal",
        "province": "Guarda",
        "population": -1,
        "latitude": 40.705355,
        "longitude": -7.555548
    },
    {
        "name": "Forjães",
        "country": "Portugal",
        "province": "Braga",
        "population": -1,
        "latitude": 41.605924,
        "longitude": -8.742886
    },
    {
        "name": "Fontoura",
        "country": "Portugal",
        "province": "Viana do Castelo",
        "population": -1,
        "latitude": 41.957953,
        "longitude": -8.633188
    },
    {
        "name": "Fontes",
        "country": "Portugal",
        "province": "Vila Real",
        "population": -1,
        "latitude": 41.230214,
        "longitude": -7.813709
    },
    {
        "name": "Fontelo",
        "country": "Portugal",
        "province": "Viseu",
        "population": 641,
        "latitude": 41.119682,
        "longitude": -7.730087
    },
    {
        "name": "Fonte de Aldeia",
        "country": "Portugal",
        "province": "Bragança",
        "population": -1,
        "latitude": 41.437131,
        "longitude": -6.395496
    },
    {
        "name": "Fontainhas",
        "country": "Portugal",
        "province": "Porto",
        "population": -1,
        "latitude": 41.41653,
        "longitude": -8.653008
    },
    {
        "name": "Fiscal",
        "country": "Portugal",
        "province": "Braga",
        "population": -1,
        "latitude": 41.652758,
        "longitude": -8.397104
    },
    {
        "name": "Figueira de Lorvão",
        "country": "Portugal",
        "province": "Coimbra",
        "population": -1,
        "latitude": 40.286331,
        "longitude": -8.331884
    },
    {
        "name": "Fiães",
        "country": "Portugal",
        "province": "Viana do Castelo",
        "population": -1,
        "latitude": 42.103247,
        "longitude": -8.210941
    },
    {
        "name": "Ferro",
        "country": "Portugal",
        "province": "Castelo Branco",
        "population": -1,
        "latitude": 40.234538,
        "longitude": -7.444515
    },
    {
        "name": "Fermentelos",
        "country": "Portugal",
        "province": "Aveiro",
        "population": -1,
        "latitude": 40.568249,
        "longitude": -8.524728
    },
    {
        "name": "Fajozes",
        "country": "Portugal",
        "province": "Porto",
        "population": -1,
        "latitude": 41.327587,
        "longitude": -8.6956
    },
    {
        "name": "Fajões",
        "country": "Portugal",
        "province": "Aveiro",
        "population": -1,
        "latitude": 40.922644,
        "longitude": -8.429338
    },
    {
        "name": "Fafe",
        "country": "Portugal",
        "province": "Braga",
        "population": 16868,
        "latitude": 41.45083,
        "longitude": -8.17258
    },
    {
        "name": "Estarreja",
        "country": "Portugal",
        "province": "Aveiro",
        "population": -1,
        "latitude": 40.756482,
        "longitude": -8.572074
    },
    {
        "name": "Esposende",
        "country": "Portugal",
        "province": "Braga",
        "population": 34625,
        "latitude": 41.536098,
        "longitude": -8.782011
    },
    {
        "name": "Espinho",
        "country": "Portugal",
        "province": "Braga",
        "population": -1,
        "latitude": 41.548024,
        "longitude": -8.361945
    },
    {
        "name": "Espinhal",
        "country": "Portugal",
        "province": "Coimbra",
        "population": -1,
        "latitude": 40.014155,
        "longitude": -8.351824
    },
    {
        "name": "Eirado",
        "country": "Portugal",
        "province": "Guarda",
        "population": 230,
        "latitude": 40.774735,
        "longitude": -7.488909
    },
    {
        "name": "Duas Igrejas",
        "country": "Portugal",
        "province": "Porto",
        "population": -1,
        "latitude": 41.187443,
        "longitude": -8.269343
    },
    {
        "name": "Dornelas",
        "country": "Portugal",
        "province": "Braga",
        "population": -1,
        "latitude": 41.644308,
        "longitude": -8.32975
    },
    {
        "name": "Custoias",
        "country": "Portugal",
        "province": "Guarda",
        "population": 19406,
        "latitude": 41.1053,
        "longitude": -7.320971
    },
    {
        "name": "Cunha Alta",
        "country": "Portugal",
        "province": "Viseu",
        "population": -1,
        "latitude": 40.601969,
        "longitude": -7.692606
    },
    {
        "name": "Cunha",
        "country": "Portugal",
        "province": "Braga",
        "population": -1,
        "latitude": 41.490606,
        "longitude": -8.5107
    },
    {
        "name": "Cubalhão",
        "country": "Portugal",
        "province": "Viana do Castelo",
        "population": -1,
        "latitude": 42.05649430785439,
        "longitude": -8.24197769165039
    },
    {
        "name": "Covas do Barroso",
        "country": "Portugal",
        "province": "Vila Real",
        "population": -1,
        "latitude": 41.635508,
        "longitude": -7.783024
    },
    {
        "name": "Couto de Esteves",
        "country": "Portugal",
        "province": "Aveiro",
        "population": -1,
        "latitude": 40.75,
        "longitude": -8.3166667
    },
    {
        "name": "Coruche",
        "country": "Portugal",
        "province": "Guarda",
        "population": -1,
        "latitude": 40.793054,
        "longitude": -7.540073
    },
    {
        "name": "Cortegaça",
        "country": "Portugal",
        "province": "Aveiro",
        "population": 4139,
        "latitude": 40.948833,
        "longitude": -8.6213
    },
    {
        "name": "Coriscada",
        "country": "Portugal",
        "province": "Guarda",
        "population": -1,
        "latitude": 40.865461,
        "longitude": -7.208035
    },
    {
        "name": "Coiço",
        "country": "Portugal",
        "province": "Coimbra",
        "population": -1,
        "latitude": 40.30667,
        "longitude": -8.243628
    },
    {
        "name": "Chaviães",
        "country": "Portugal",
        "province": "Viana do Castelo",
        "population": -1,
        "latitude": 42.130358,
        "longitude": -8.251176
    },
    {
        "name": "Cevide",
        "country": "Portugal",
        "province": "Viana do Castelo",
        "population": -1,
        "latitude": 42.151781,
        "longitude": -8.197955
    },
    {
        "name": "Cerejais",
        "country": "Portugal",
        "province": "Bragança",
        "population": -1,
        "latitude": 41.29475,
        "longitude": -6.923607
    },
    {
        "name": "Celeirós",
        "country": "Portugal",
        "province": "Vila Real",
        "population": -1,
        "latitude": 41.242266,
        "longitude": -7.55774
    },
    {
        "name": "Castro Daire",
        "country": "Portugal",
        "province": "Viseu",
        "population": 4744,
        "latitude": 40.898399,
        "longitude": -7.933805
    },
    {
        "name": "Castelejo",
        "country": "Portugal",
        "province": "Castelo Branco",
        "population": -1,
        "latitude": 40.123917,
        "longitude": -7.576971
    },
    {
        "name": "Casal Vasco",
        "country": "Portugal",
        "province": "Guarda",
        "population": -1,
        "latitude": 40.649611,
        "longitude": -7.546811
    },
    {
        "name": "Casal de Abade",
        "country": "Portugal",
        "province": "Coimbra",
        "population": -1,
        "latitude": 40.318706,
        "longitude": -7.97186
    },
    {
        "name": "Carviçais",
        "country": "Portugal",
        "province": "Bragança",
        "population": -1,
        "latitude": 41.183305,
        "longitude": -6.893146
    },
    {
        "name": "Carvalhal",
        "country": "Portugal",
        "province": "Braga",
        "population": -1,
        "latitude": 41.51403,
        "longitude": -8.622112
    },
    {
        "name": "Carregosa",
        "country": "Portugal",
        "province": "Aveiro",
        "population": -1,
        "latitude": 40.882663,
        "longitude": -8.413982
    },
    {
        "name": "Carrazedo",
        "country": "Portugal",
        "province": "Braga",
        "population": -1,
        "latitude": 41.630587,
        "longitude": -8.386304
    },
    {
        "name": "Carapeços",
        "country": "Portugal",
        "province": "Braga",
        "population": -1,
        "latitude": 41.584663,
        "longitude": -8.632774
    },
    {
        "name": "Caramulo",
        "country": "Portugal",
        "province": "Viseu",
        "population": -1,
        "latitude": 40.571935,
        "longitude": -8.169736
    },
    {
        "name": "Cantanhede",
        "country": "Portugal",
        "province": "Coimbra",
        "population": 7347,
        "latitude": 40.346708,
        "longitude": -8.594195
    },
    {
        "name": "Canelas",
        "country": "Portugal",
        "province": "Aveiro",
        "population": -1,
        "latitude": 40.972939,
        "longitude": -8.202787
    },
    {
        "name": "Canedo",
        "country": "Portugal",
        "province": "Aveiro",
        "population": -1,
        "latitude": 41.008809,
        "longitude": -8.464493
    },
    {
        "name": "Candoso",
        "country": "Portugal",
        "province": "Braga",
        "population": 3893,
        "latitude": 41.427683,
        "longitude": -8.321657
    },
    {
        "name": "Cancelos de Baixo",
        "country": "Portugal",
        "province": "Guarda",
        "population": -1,
        "latitude": 40.990529,
        "longitude": -7.282834
    },
    {
        "name": "Campo",
        "country": "Portugal",
        "province": "Porto",
        "population": -1,
        "latitude": 41.361702,
        "longitude": -8.361281
    },
    {
        "name": "Campanhã",
        "country": "Portugal",
        "province": "Porto",
        "population": -1,
        "latitude": 41.157058,
        "longitude": -8.574661
    },
    {
        "name": "Cambres",
        "country": "Portugal",
        "province": "Viseu",
        "population": -1,
        "latitude": 41.13544,
        "longitude": -7.812377
    },
    {
        "name": "Cambeses",
        "country": "Portugal",
        "province": "Braga",
        "population": -1,
        "latitude": 41.486355,
        "longitude": -8.533069
    },