[
    {
        "name": "San Salvador",
        "country": "El Salvador",
        "province": "San Salvador",
        "population": 525990,
        "latitude": 13.689354910772549,
        "longitude": -89.18718338012695
    },
    {
        "name": "Santa Ana",
        "country": "El Salvador",
        "province": "Santa Ana",
        "population": 176661,
        "latitude": 13.9941667,
        "longitude": -89.5597222
    },
    {
        "name": "Soyapango",
        "country": "El Salvador",
        "province": "San Salvador",
        "population": 329708,
        "latitude": 13.71024,
        "longitude": -89.13989
    },
    {
        "name": "Santa Tecla",
        "country": "El Salvador",
        "province": "La Libertad",
        "population": 124694,
        "latitude": 13.6769444,
        "longitude": -89.2797222
    },
    {
        "name": "Apopa",
        "country": "El Salvador",
        "province": "San Salvador",
        "population": 112158,
        "latitude": 13.8072222,
        "longitude": -89.1791667
    },
    {
        "name": "Sonsonate",
        "country": "El Salvador",
        "province": "Sonsonate",
        "population": 59468,
        "latitude": 13.7188889,
        "longitude": -89.7241667
    },
    {
        "name": "Mejicanos",
        "country": "El Salvador",
        "province": "San Salvador",
        "population": 160317,
        "latitude": 13.723966,
        "longitude": -89.188
    },
    {
        "name": "Delgado",
        "country": "El Salvador",
        "province": "San Salvador",
        "population": 71594,
        "latitude": 13.72171,
        "longitude": -89.168743
    },
    {
        "name": "Usulután",
        "country": "El Salvador",
        "province": "Usulután",
        "population": 51910,
        "latitude": 13.35,
        "longitude": -88.45
    },
    {
        "name": "San Miguel",
        "country": "El Salvador",
        "province": "San Miguel",
        "population": 247126,
        "latitude": 13.483333,
        "longitude": -88.183333
    },
    {
        "name": "San Marcos",
        "country": "El Salvador",
        "province": "San Salvador",
        "population": 54615,
        "latitude": 13.661075,
        "longitude": -89.182525
    },
    {
        "name": "Chalatenango",
        "country": "El Salvador",
        "province": "Chalatenango",
        "population": 19364,
        "latitude": 14.0333333,
        "longitude": -88.9333333
    },
    {
        "name": "Cojutepeque",
        "country": "El Salvador",
        "province": "Cuscatlán",
        "population": 48411,
        "latitude": 13.7166667,
        "longitude": -88.9333333
    },
    {
        "name": "Ahuachapán",
        "country": "El Salvador",
        "province": "Ahuachapán",
        "population": 34102,
        "latitude": 13.9213889,
        "longitude": -89.845
    },
    {
        "name": "Zacatecoluca",
        "country": "El Salvador",
        "province": "La Paz",
        "population": 39613,
        "latitude": 13.5,
        "longitude": -88.8666667
    },
    {
        "name": "Sensuntepeque",
        "country": "El Salvador",
        "province": "Cabañas",
        "population": 20386,
        "latitude": 13.8666667,
        "longitude": -88.6333333
    },
    {
        "name": "San Vicente",
        "country": "El Salvador",
        "province": "San Vicente",
        "population": 41504,
        "latitude": 13.6333333,
        "longitude": -88.8
    },
    {
        "name": "San Francisco",
        "country": "El Salvador",
        "province": "Morazán",
        "population": 16152,
        "latitude": 13.7,
        "longitude": -88.1
    },
    {
        "name": "La Unión",
        "country": "El Salvador",
        "province": "La Unión",
        "population": 26807,
        "latitude": 13.3369444,
        "longitude": -87.8438889
    },
    {
        "name": "La Libertad",
        "country": "El Salvador",
        "province": "La Libertad",
        "population": 16855,
        "latitude": 13.4883333,
        "longitude": -89.3222222
    },
    {
        "name": "Jucuapa",
        "country": "El Salvador",
        "province": "Usulután",
        "population": 10601,
        "latitude": 13.5166667,
        "longitude": -88.3833333
    },
    {
        "name": "Izalco",
        "country": "El Salvador",
        "province": "Sonsonate",
        "population": 19197,
        "latitude": 13.7447222,
        "longitude": -89.6730556
    },
    {
        "name": "Ilopango",
        "country": "El Salvador",
        "province": "San Salvador",
        "population": 38890,
        "latitude": 13.7016667,
        "longitude": -89.1094444
    },
    {
        "name": "Guazapa",
        "country": "El Salvador",
        "province": "San Salvador",
        "population": 10995,
        "latitude": 13.8769444,
        "longitude": -89.1730556
    },
    {
        "name": "Chalchuapa",
        "country": "El Salvador",
        "province": "Santa Ana",
        "population": 32282,
        "latitude": 13.9866667,
        "longitude": -89.6811111
    },
    {
        "name": "Berlín",
        "country": "El Salvador",
        "province": "Usulután",
        "population": 11313,
        "latitude": 13.5,
        "longitude": -88.5333333
    },
    {
        "name": "Ayutuxtepeque",
        "country": "El Salvador",
        "province": "San Salvador",
        "population": 25426,
        "latitude": 13.735377,
        "longitude": -89.202205
    },
    {
        "name": "Armenia",
        "country": "El Salvador",
        "province": "Sonsonate",
        "population": 14997,
        "latitude": 13.7436111,
        "longitude": -89.4988889
    },
    {
        "name": "Antiguo Cuscatlán",
        "country": "El Salvador",
        "province": "La Libertad",
        "population": 33767,
        "latitude": 13.66492,
        "longitude": -89.25319
    },
    {
        "name": "Aguilares",
        "country": "El Salvador",
        "province": "San Salvador",
        "population": 21445,
        "latitude": 13.9572222,
        "longitude": -89.1897222
    },
    {
        "name": "Acajutla",
        "country": "El Salvador",
        "province": "Sonsonate",
        "population": 22763,
        "latitude": 13.5927778,
        "longitude": -89.8275
    },
    {
        "name": "Zaragoza",
        "country": "El Salvador",
        "province": "La Libertad",
        "population": 11749,
        "latitude": 13.5894444,
        "longitude": -89.2888889
    },
    {
        "name": "Sonzacate",
        "country": "El Salvador",
        "province": "Sonsonate",
        "population": 15446,
        "latitude": 13.7341667,
        "longitude": -89.7147222
    },
    {
        "name": "Santiago de María",
        "country": "El Salvador",
        "province": "Usulután",
        "population": 15032,
        "latitude": 13.483333,
        "longitude": -88.466667
    },
    {
        "name": "Santa Rosa de Lima",
        "country": "El Salvador",
        "province": "La Unión",
        "population": 13249,
        "latitude": 13.6247222,
        "longitude": -87.8936111
    },
    {
        "name": "San Rafael Oriente",
        "country": "El Salvador",
        "province": "San Miguel",
        "population": 19095,
        "latitude": 13.3833333,
        "longitude": -88.35
    },
    {
        "name": "Quezaltepeque",
        "country": "El Salvador",
        "province": "La Libertad",
        "population": 28886,
        "latitude": 13.83124,
        "longitude": -89.27221
    },
    {
        "name": "Puerto El Triunfo",
        "country": "El Salvador",
        "province": "Usulután",
        "population": 19074,
        "latitude": 13.2833333,
        "longitude": -88.55
    },
    {
        "name": "Metapán",
        "country": "El Salvador",
        "province": "Santa Ana",
        "population": 19143,
        "latitude": 14.3333333,
        "longitude": -89.45
    },
    {
        "name": "Jujutla",
        "country": "El Salvador",
        "province": "Ahuachapán",
        "population": 2022,
        "latitude": 13.7869444,
        "longitude": -89.8572222
    },
    {
        "name": "Jucuarán",
        "country": "El Salvador",
        "province": "Usulután",
        "population": 1643,
        "latitude": 13.2538889,
        "longitude": -88.2477778
    },
    {
        "name": "Juayúa",
        "country": "El Salvador",
        "province": "Sonsonate",
        "population": 9936,
        "latitude": 13.8413889,
        "longitude": -89.7455556
    },
    {
        "name": "Jocoro",
        "country": "El Salvador",
        "province": "Morazán",
        "population": 4298,
        "latitude": 13.6166667,
        "longitude": -88.0166667
    },
    {
        "name": "Jiquilisco",
        "country": "El Salvador",
        "province": "Usulután",
        "population": 9129,
        "latitude": 13.3166667,
        "longitude": -88.5833333
    },
    {
        "name": "Guaymango",
        "country": "El Salvador",
        "province": "Ahuachapán",
        "population": 1517,
        "latitude": 13.7502778,
        "longitude": -89.8422222
    },
    {
        "name": "Guatajiagua",
        "country": "El Salvador",
        "province": "Morazán",
        "population": 5273,
        "latitude": 13.6666667,
        "longitude": -88.2
    },
    {
        "name": "El Tránsito",
        "country": "El Salvador",
        "province": "San Miguel",
        "population": 9485,
        "latitude": 13.35,
        "longitude": -88.35
    },
    {
        "name": "El Rosario",
        "country": "El Salvador",
        "province": "La Paz",
        "population": 5620,
        "latitude": 13.4977778,
        "longitude": -89.0297222
    },
    {
        "name": "El Paisnal",
        "country": "El Salvador",
        "province": "San Salvador",
        "population": 1641,
        "latitude": 13.9736111,
        "longitude": -89.2186111
    },
    {
        "name": "El Congo",
        "country": "El Salvador",
        "province": "Santa Ana",
        "population": 8905,
        "latitude": 13.9088889,
        "longitude": -89.4958333
    },
    {
        "name": "Corinto",
        "country": "El Salvador",
        "province": "Morazán",
        "population": 3160,
        "latitude": 13.8108333,
        "longitude": -87.9713889
    },
    {
        "name": "Conchagua",
        "country": "El Salvador",
        "province": "La Unión",
        "population": 3034,
        "latitude": 13.3077778,
        "longitude": -87.8647222
    },
    {
        "name": "Concepción Batres",
        "country": "El Salvador",
        "province": "Usulután",
        "population": 3286,
        "latitude": 13.35,
        "longitude": -88.3666667
    },
    {
        "name": "Coatepeque",
        "country": "El Salvador",
        "province": "Santa Ana",
        "population": 5773,
        "latitude": 13.9286111,
        "longitude": -89.5041667
    },
    {
        "name": "Ciudad Barrios",
        "country": "El Salvador",
        "province": "San Miguel",
        "population": 8491,
        "latitude": 13.7666667,
        "longitude": -88.2666667
    },
    {
        "name": "Ciudad Arce",
        "country": "El Salvador",
        "province": "La Libertad",
        "population": 10095,
        "latitude": 13.8402778,
        "longitude": -89.4472222
    },
    {
        "name": "Chinameca",
        "country": "El Salvador",
        "province": "San Miguel",
        "population": 8646,
        "latitude": 13.5,
        "longitude": -88.35
    },
    {
        "name": "Chapeltique",
        "country": "El Salvador",
        "province": "San Miguel",
        "population": 3159,
        "latitude": 13.6333333,
        "longitude": -88.2666667
    },
    {
        "name": "Candelaria de La Frontera",
        "country": "El Salvador",
        "province": "Santa Ana",
        "population": 6301,
        "latitude": 14.1166667,
        "longitude": -89.65
    },
    {
        "name": "Cacaopera",
        "country": "El Salvador",
        "province": "Morazán",
        "population": 2528,
        "latitude": 13.7666667,
        "longitude": -88.0833333
    },
    {
        "name": "Apastepeque",
        "country": "El Salvador",
        "province": "San Vicente",
        "population": 5785,
        "latitude": 13.6666667,
        "longitude": -88.7833333
    },
    {
        "name": "Victoria",
        "country": "El Salvador",
        "province": "Cabañas",
        "population": 2023,
        "latitude": 13.95,
        "longitude": -88.6333333
    },
    {
        "name": "Tonacatepeque",
        "country": "El Salvador",
        "province": "San Salvador",
        "population": 6245,
        "latitude": 13.7811111,
        "longitude": -89.1186111
    },
    {
        "name": "Texistepeque",
        "country": "El Salvador",
        "province": "Santa Ana",
        "population": 2401,
        "latitude": 14.1333333,
        "longitude": -89.5
    },
    {
        "name": "Tenancingo",
        "country": "El Salvador",
        "province": "Cuscatlán",
        "population": 1011,
        "latitude": 13.8333333,
        "longitude": -88.9833333
    },
    {
        "name": "Tacuba",
        "country": "El Salvador",
        "province": "Ahuachapán",
        "population": 5055,
        "latitude": 13.9011111,
        "longitude": -89.9297222
    },
    {
        "name": "Suchitoto",
        "country": "El Salvador",
        "province": "Cuscatlán",
        "population": 5735,
        "latitude": 13.9380556,
        "longitude": -89.0277778
    },
    {
        "name": "Sociedad",
        "country": "El Salvador",
        "province": "Morazán",
        "population": 1770,
        "latitude": 13.7,
        "longitude": -88.0166667
    },
    {
        "name": "Sesori",
        "country": "El Salvador",
        "province": "San Miguel",
        "population": 1390,
        "latitude": 13.7166667,
        "longitude": -88.3666667
    },
    {
        "name": "Santiago Nonualco",
        "country": "El Salvador",
        "province": "La Paz",
        "population": 9490,
        "latitude": 13.5166667,
        "longitude": -88.95
    },
    {
        "name": "Santa Elena",
        "country": "El Salvador",
        "province": "Usulután",
        "population": 5887,
        "latitude": 13.3833333,
        "longitude": -88.4166667
    },
    {
        "name": "San Sebastián",
        "country": "El Salvador",
        "province": "San Vicente",
        "population": 7333,
        "latitude": 13.7333333,
        "longitude": -88.8333333
    },
    {
        "name": "San Pedro Masahuat",
        "country": "El Salvador",
        "province": "La Paz",
        "population": 2654,
        "latitude": 13.5436111,
        "longitude": -89.0386111
    },
    {
        "name": "San Pablo Tacachico",
        "country": "El Salvador",
        "province": "La Libertad",
        "population": 3033,
        "latitude": 13.9755556,
        "longitude": -89.34
    },
    {
        "name": "San Martín",
        "country": "El Salvador",
        "province": "Cuscatlán",
        "population": 39361,
        "latitude": 13.7833333,
        "longitude": -88.9166667
    },
    {
        "name": "San Francisco Menéndez",
        "country": "El Salvador",
        "province": "Ahuachapán",
        "population": 1264,
        "latitude": 13.8430556,
        "longitude": -90.0158333
    },
    {
        "name": "San Antonio del Monte",
        "country": "El Salvador",
        "province": "Sonsonate",
        "population": 9135,
        "latitude": 13.7163889,
        "longitude": -89.7383333
    },
    {
        "name": "San Alejo",
        "country": "El Salvador",
        "province": "La Unión",
        "population": 5149,
        "latitude": 13.4313889,
        "longitude": -87.9630556
    },
    {
        "name": "San Agustín",
        "country": "El Salvador",
        "province": "Usulután",
        "population": 2149,
        "latitude": 13.4333333,
        "longitude": -88.6
    },
    {
        "name": "Rosario de Mora",
        "country": "El Salvador",
        "province": "San Salvador",
        "population": 5178,
        "latitude": 13.5752778,
        "longitude": -89.2088889
    },
    {
        "name": "Pasaquina",
        "country": "El Salvador",
        "province": "La Unión",
        "population": 2149,
        "latitude": 13.5844444,
        "longitude": -87.8411111
    },
    {
        "name": "Panchimalco",
        "country": "El Salvador",
        "province": "San Salvador",
        "population": 6764,
        "latitude": 13.6127778,
        "longitude": -89.18
    },
    {
        "name": "Ozatlán",
        "country": "El Salvador",
        "province": "Usulután",
        "population": 4171,
        "latitude": 13.3833333,
        "longitude": -88.5
    },
    {
        "name": "Olocuilta",
        "country": "El Salvador",
        "province": "La Paz",
        "population": 6324,
        "latitude": 13.5697222,
        "longitude": -89.1172222
    },
    {
        "name": "Nueva Guadalupe",
        "country": "El Salvador",
        "province": "San Miguel",
        "population": 5798,
        "latitude": 13.5333333,
        "longitude": -88.35
    },
    {
        "name": "Nueva Esparta",
        "country": "El Salvador",
        "province": "La Unión",
        "population": 2528,
        "latitude": 13.7836111,
        "longitude": -87.8386111
    },
    {
        "name": "Nueva Concepción",
        "country": "El Salvador",
        "province": "Chalatenango",
        "population": 9990,
        "latitude": 14.133333,
        "longitude": -89.3
    },
    {
        "name": "Nahuizalco",
        "country": "El Salvador",
        "province": "Sonsonate",
        "population": 7358,
        "latitude": 13.7775,
        "longitude": -89.7366667
    },
    {
        "name": "Moncagua",
        "country": "El Salvador",
        "province": "San Miguel",
        "population": 2148,
        "latitude": 13.5333333,
        "longitude": -88.25
    },
    {
        "name": "Lolotique",
        "country": "El Salvador",
        "province": "San Miguel",
        "population": 2654,
        "latitude": 13.55,
        "longitude": -88.35
    },
    {
        "name": "Las Chinamas",
        "country": "El Salvador",
        "province": "Ahuachapán",
        "population": -1,
        "latitude": 14,
        "longitude": -89.8833333
    },
    {
        "name": "La Reina",
        "country": "El Salvador",
        "province": "Chalatenango",
        "population": -1,
        "latitude": 14.2,
        "longitude": -89.15
    },
    {
        "name": "La Palma",
        "country": "El Salvador",
        "province": "Chalatenango",
        "population": -1,
        "latitude": 14.3166667,
        "longitude": -89.1666667
    },
    {
        "name": "La Laguna",
        "country": "El Salvador",
        "province": "Chalatenango",
        "population": -1,
        "latitude": 14.0666667,
        "longitude": -88.8833333
    },
    {
        "name": "La Cruzadilla de San Juan",
        "country": "El Salvador",
        "province": "Usulután",
        "population": -1,
        "latitude": 13.3666667,
        "longitude": -88.6166667
    },
    {
        "name": "Jutiapa",
        "country": "El Salvador",
        "province": "Cabañas",
        "population": -1,
        "latitude": 13.8833333,
        "longitude": -88.9
    },
    {
        "name": "Joya de Cerén",
        "country": "El Salvador",
        "province": "La Libertad",
        "population": -1,
        "latitude": 13.8238889,
        "longitude": -89.3583333
    },
    {
        "name": "Jobal Arrozales",
        "country": "El Salvador",
        "province": "Usulután",
        "population": -1,
        "latitude": 13.4,
        "longitude": -88.6166667
    },
    {
        "name": "Joateca",
        "country": "El Salvador",
        "province": "Morazán",
        "population": -1,
        "latitude": 13.9,
        "longitude": -88.05
    },
    {
        "name": "Ilobasco",
        "country": "El Salvador",
        "province": "Cabañas",
        "population": -1,
        "latitude": 13.85,
        "longitude": -88.85
    },
    {
        "name": "Hatos de Los Reyes",
        "country": "El Salvador",
        "province": "La Paz",
        "population": -1,
        "latitude": 13.4166667,
        "longitude": -88.85
    },
    {
        "name": "Hacienda Plan de La Laguna",
        "country": "El Salvador",
        "province": "Cuscatlán",
        "population": -1,
        "latitude": 13.67226,
        "longitude": -89.24851
    },
    {
        "name": "Hacienda Atalaya",
        "country": "El Salvador",
        "province": "Sonsonate",
        "population": -1,
        "latitude": 13.6,
        "longitude": -89.8333333
    },
    {
        "name": "Güiligüiste",
        "country": "El Salvador",
        "province": "Cabañas",
        "population": -1,
        "latitude": 13.85,
        "longitude": -88.95
    },
    {
        "name": "Gualococti",
        "country": "El Salvador",
        "province": "Morazán",
        "population": -1,
        "latitude": 13.8166667,
        "longitude": -88.2166667
    },
    {
        "name": "Guadalupe",
        "country": "El Salvador",
        "province": "San Vicente",
        "population": -1,
        "latitude": 13.6166667,
        "longitude": -88.8833333
    },
    {
        "name": "Guacotecti",
        "country": "El Salvador",
        "province": "Cabañas",
        "population": -1,
        "latitude": 13.8666667,
        "longitude": -88.65
    },
    {
        "name": "Estanzuelas",
        "country": "El Salvador",
        "province": "Usulután",
        "population": -1,
        "latitude": 13.65,
        "longitude": -88.5
    },
    {
        "name": "Ereguayquín",
        "country": "El Salvador",
        "province": "Usulután",
        "population": -1,
        "latitude": 13.35,
        "longitude": -88.3833333
    },
    {
        "name": "El Triunfo",
        "country": "El Salvador",
        "province": "Usulután",
        "population": -1,
        "latitude": 13.5666667,
        "longitude": -88.4333333
    },
    {
        "name": "El Talpetate",
        "country": "El Salvador",
        "province": "Ahuachapán",
        "population": -1,
        "latitude": 13.8666667,
        "longitude": -90.05
    },
    {
        "name": "El Sauce",
        "country": "El Salvador",
        "province": "La Unión",
        "population": -1,
        "latitude": 13.6688889,
        "longitude": -87.8005556
    },
    {
        "name": "El Rosario",
        "country": "El Salvador",
        "province": "Cuscatlán",
        "population": -1,
        "latitude": 13.6833333,
        "longitude": -88.9833333
    },
    {
        "name": "El Rosario",
        "country": "El Salvador",
        "province": "Morazán",
        "population": -1,
        "latitude": 13.5666667,
        "longitude": -88.0833333
    },
    {
        "name": "El Refugio",
        "country": "El Salvador",
        "province": "Ahuachapán",
        "population": -1,
        "latitude": 13.9766667,
        "longitude": -89.7047222
    },
    {
        "name": "El Porvenir",
        "country": "El Salvador",
        "province": "Santa Ana",
        "population": -1,
        "latitude": 14.0166667,
        "longitude": -89.65
    },
    {
        "name": "El Paraíso",
        "country": "El Salvador",
        "province": "Chalatenango",
        "population": -1,
        "latitude": 14.1,
        "longitude": -89.0666667
    },
    {
        "name": "El Mozote",
        "country": "El Salvador",
        "province": "Morazán",
        "population": -1,
        "latitude": 13.9,
        "longitude": -88.1166667
    },
    {
        "name": "El Divisadero",
        "country": "El Salvador",
        "province": "Morazán",
        "population": -1,
        "latitude": 13.6,
        "longitude": -88.05
    },
    {
        "name": "El Chupadero",
        "country": "El Salvador",
        "province": "Chalatenango",
        "population": -1,
        "latitude": 14.2333333,
        "longitude": -88.9833333
    },
    {
        "name": "El Carrizal",
        "country": "El Salvador",
        "province": "Chalatenango",
        "population": -1,
        "latitude": 14.1833333,
        "longitude": -88.8833333
    },
    {
        "name": "El Carmen",
        "country": "El Salvador",
        "province": "Cuscatlán",
        "population": -1,
        "latitude": 13.7166667,
        "longitude": -88.9
    },
    {
        "name": "El Carmen",
        "country": "El Salvador",
        "province": "La Unión",
        "population": -1,
        "latitude": 13.3547222,
        "longitude": -88
    },
    {
        "name": "Dulce Nombre de María",
        "country": "El Salvador",
        "province": "Chalatenango",
        "population": -1,
        "latitude": 14.15,
        "longitude": -89.016667
    },
    {
        "name": "Dolores",
        "country": "El Salvador",
        "province": "Cabañas",
        "population": -1,
        "latitude": 13.7833333,
        "longitude": -88.5666667
    },
    {
        "name": "Delicias de Concepción",
        "country": "El Salvador",
        "province": "Morazán",
        "population": -1,
        "latitude": 13.7833333,
        "longitude": -88.1333333
    },
    {
        "name": "Cuscatancingo",
        "country": "El Salvador",
        "province": "San Salvador",
        "population": 44369,
        "latitude": 13.727025,
        "longitude": -89.181608
    },
    {
        "name": "Cuisnahuat",
        "country": "El Salvador",
        "province": "Sonsonate",
        "population": -1,
        "latitude": 13.6366667,
        "longitude": -89.6036111
    },
    {
        "name": "Concepción Quezaltepeque",
        "country": "El Salvador",
        "province": "Chalatenango",
        "population": -1,
        "latitude": 14.0833333,
        "longitude": -88.95
    },
    {
        "name": "Comecayo",
        "country": "El Salvador",
        "province": "Santa Ana",
        "population": -1,
        "latitude": 14,
        "longitude": -89.6
    },
    {
        "name": "Comalapa",
        "country": "El Salvador",
        "province": "Chalatenango",
        "population": -1,
        "latitude": 14.1333333,
        "longitude": -88.95
    },
    {
        "name": "Comacarán",
        "country": "El Salvador",
        "province": "San Miguel",
        "population": -1,
        "latitude": 13.5333333,
        "longitude": -88.0666667
    },
    {
        "name": "Citalá",
        "country": "El Salvador",
        "province": "Chalatenango",
        "population": -1,
        "latitude": 14.366667,
        "longitude": -89.216667
    },
    {
        "name": "Cinquera",
        "country": "El Salvador",
        "province": "Cabañas",
        "population": -1,
        "latitude": 13.8833333,
        "longitude": -88.9666667
    },
    {
        "name": "Chilanga",
        "country": "El Salvador",
        "province": "Morazán",
        "population": -1,
        "latitude": 13.7166667,
        "longitude": -88.1166667
    },
    {
        "name": "Carolina",
        "country": "El Salvador",
        "province": "San Miguel",
        "population": -1,
        "latitude": 13.85,
        "longitude": -88.3
    },
    {
        "name": "Candelaria",
        "country": "El Salvador",
        "province": "Cuscatlán",
        "population": -1,
        "latitude": 13.75,
        "longitude": -88.95
    },
    {
        "name": "Caluco",
        "country": "El Salvador",
        "province": "Sonsonate",
        "population": -1,
        "latitude": 13.7236111,
        "longitude": -89.6622222
    },
    {
        "name": "California",
        "country": "El Salvador",
        "province": "Usulután",
        "population": -1,
        "latitude": 13.3666667,
        "longitude": -88.6666667
    },
    {
        "name": "Bolívar",
        "country": "El Salvador",
        "province": "La Unión",
        "population": -1,
        "latitude": 13.5736111,
        "longitude": -87.9558333
    },
    {
        "name": "Azacualpa",
        "country": "El Salvador",
        "province": "Chalatenango",
        "population": -1,
        "latitude": 13.9833333,
        "longitude": -88.9833333
    },
    {
        "name": "Arambala",
        "country": "El Salvador",
        "province": "Morazán",
        "population": -1,
        "latitude": 13.9166667,
        "longitude": -88.1333333
    },
    {
        "name": "Alegría",
        "country": "El Salvador",
        "province": "Usulután",
        "population": -1,
        "latitude": 13.5,
        "longitude": -88.4833333
    },
    {
        "name": "Albornoz Arriba",
        "country": "El Salvador",
        "province": "La Unión",
        "population": -1,
        "latitude": 13.5833333,
        "longitude": -87.95
    },
    {
        "name": "Zamorán",
        "country": "El Salvador",
        "province": "Usulután",
        "population": -1,
        "latitude": 13.333333,
        "longitude": -88.7
    },
    {
        "name": "Yucuaiquín",
        "country": "El Salvador",
        "province": "La Unión",
        "population": -1,
        "latitude": 13.55,
        "longitude": -88
    },
    {
        "name": "Yoloaiquín",
        "country": "El Salvador",
        "province": "Morazán",
        "population": -1,
        "latitude": 13.7666667,
        "longitude": -88.15
    },
    {
        "name": "Yayantique",
        "country": "El Salvador",
        "province": "La Unión",
        "population": -1,
        "latitude": 13.4486111,
        "longitude": -88.0222222
    },
    {
        "name": "Yamabal",
        "country": "El Salvador",
        "province": "Morazán",
        "population": -1,
        "latitude": 13.6666667,
        "longitude": -88.1666667
    },
    {
        "name": "Verapaz",
        "country": "El Salvador",
        "province": "San Vicente",
        "population": -1,
        "latitude": 13.65,
        "longitude": -88.8666667
    },
    {
        "name": "Uluazapa",
        "country": "El Salvador",
        "province": "San Miguel",
        "population": -1,
        "latitude": 13.5,
        "longitude": -88.0666667
    },
    {
        "name": "Turín",
        "country": "El Salvador",
        "province": "Ahuachapán",
        "population": -1,
        "latitude": 13.9663889,
        "longitude": -89.7661111
    },
    {
        "name": "Torola",
        "country": "El Salvador",
        "province": "Morazán",
        "population": -1,
        "latitude": 13.9166667,
        "longitude": -88.2333333
    },
    {
        "name": "Tepetitán",
        "country": "El Salvador",
        "province": "San Vicente",
        "population": -1,
        "latitude": 13.65,
        "longitude": -88.8333333
    },
    {
        "name": "Tepecoyo",
        "country": "El Salvador",
        "province": "La Libertad",
        "population": -1,
        "latitude": 13.7002778,
        "longitude": -89.4677778
    },
    {
        "name": "Teotepeque",
        "country": "El Salvador",
        "province": "La Libertad",
        "population": -1,
        "latitude": 13.5852778,
        "longitude": -89.5183333
    },
    {
        "name": "Tejutla",
        "country": "El Salvador",
        "province": "Chalatenango",
        "population": -1,
        "latitude": 14.1666667,
        "longitude": -89.1
    },
    {
        "name": "Tejutepeque",
        "country": "El Salvador",
        "province": "Cabañas",
        "population": -1,
        "latitude": 13.85,
        "longitude": -88.9
    },
    {
        "name": "Tecoluca",
        "country": "El Salvador",
        "province": "San Vicente",
        "population": -1,
        "latitude": 13.5333333,
        "longitude": -88.7833333
    },
    {
        "name": "Tecapán",
        "country": "El Salvador",
        "province": "Usulután",
        "population": -1,
        "latitude": 13.45,
        "longitude": -88.4833333
    },
    {
        "name": "Tapalshucut",
        "country": "El Salvador",
        "province": "Sonsonate",
        "population": -1,
        "latitude": 13.7666667,
        "longitude": -89.6833333
    },
    {
        "name": "Tapalhuaca",
        "country": "El Salvador",
        "province": "La Paz",
        "population": -1,
        "latitude": 13.5602778,
        "longitude": -89.0802778
    },
    {
        "name": "Tamanique",
        "country": "El Salvador",
        "province": "La Libertad",
        "population": -1,
        "latitude": 13.5983333,
        "longitude": -89.4202778
    },
    {
        "name": "Talnique",
        "country": "El Salvador",
        "province": "La Libertad",
        "population": -1,
        "latitude": 13.6669444,
        "longitude": -89.4091667
    },
    {
        "name": "Taburete Los Claros",
        "country": "El Salvador",
        "province": "Usulután",
        "population": -1,
        "latitude": 13.3666667,
        "longitude": -88.5833333
    },
    {
        "name": "Sensembra",
        "country": "El Salvador",
        "province": "Morazán",
        "population": -1,
        "latitude": 13.6666667,
        "longitude": -88.1666667
    },
    {
        "name": "Santo Tomás",
        "country": "El Salvador",
        "province": "San Salvador",
        "population": 14581,
        "latitude": 13.6408333,
        "longitude": -89.1333333
    },
    {
        "name": "Santo Domingo de Guzmán",
        "country": "El Salvador",
        "province": "Sonsonate",
        "population": -1,
        "latitude": 13.715,
        "longitude": -89.798333
    },
    {
        "name": "Santo Domingo",
        "country": "El Salvador",
        "province": "San Vicente",
        "population": -1,
        "latitude": 13.7166667,
        "longitude": -88.85
    },
    {
        "name": "Santiago Texacuangos",
        "country": "El Salvador",
        "province": "San Salvador",
        "population": -1,
        "latitude": 13.6427778,
        "longitude": -89.1183333
    },
    {
        "name": "Santiago de La Frontera",
        "country": "El Salvador",
        "province": "Santa Ana",
        "population": -1,
        "latitude": 14.1830556,
        "longitude": -89.6066667
    },
    {
        "name": "Santa Rosa Guachipilín",
        "country": "El Salvador",
        "province": "Santa Ana",
        "population": -1,
        "latitude": 14.2,
        "longitude": -89.35
    },
    {
        "name": "Santa Rita",
        "country": "El Salvador",
        "province": "Chalatenango",
        "population": -1,
        "latitude": 14.1333333,
        "longitude": -89
    },
    {
        "name": "Santa María",
        "country": "El Salvador",
        "province": "Usulután",
        "population": -1,
        "latitude": 13.35,
        "longitude": -88.4333333
    },
    {
        "name": "Santa Isabel Ishuatán",
        "country": "El Salvador",
        "province": "Sonsonate",
        "population": -1,
        "latitude": 13.61,
        "longitude": -89.5852778
    },
    {
        "name": "Santa Cruz Michapa",
        "country": "El Salvador",
        "province": "Cuscatlán",
        "population": -1,
        "latitude": 13.7333333,
        "longitude": -88.9666667
    },
    {
        "name": "Santa Cruz La Vega",
        "country": "El Salvador",
        "province": "La Paz",
        "population": -1,
        "latitude": 13.6333333,
        "longitude": -89.0666667
    },
    {
        "name": "Santa Cruz Analquito",
        "country": "El Salvador",
        "province": "Cuscatlán",
        "population": -1,
        "latitude": 13.65,
        "longitude": -88.95
    },
    {
        "name": "Santa Clara",
        "country": "El Salvador",
        "province": "San Vicente",
        "population": -1,
        "latitude": 13.7,
        "longitude": -88.7333333
    },
    {
        "name": "Santa Catarina Masahuat",
        "country": "El Salvador",
        "province": "Sonsonate",
        "population": -1,
        "latitude": 13.7861111,
        "longitude": -89.7661111
    },
    {
        "name": "San Simón",
        "country": "El Salvador",
        "province": "Morazán",
        "population": -1,
        "latitude": 13.8333333,
        "longitude": -88.2333333
    },
    {
        "name": "San Sebastián Salitrillo",
        "country": "El Salvador",
        "province": "Santa Ana",
        "population": -1,
        "latitude": 13.9691667,
        "longitude": -89.6361111
    },
    {
        "name": "San Ramón",
        "country": "El Salvador",
        "province": "Cuscatlán",
        "population": -1,
        "latitude": 13.6833333,
        "longitude": -88.9333333
    },
    {
        "name": "San Rafael Obrajuelo",
        "country": "El Salvador",
        "province": "La Paz",
        "population": -1,
        "latitude": 13.5,
        "longitude": -88.9333333
    },
    {
        "name": "San Rafael Cedros",
        "country": "El Salvador",
        "province": "Cuscatlán",
        "population": -1,
        "latitude": 13.7333333,
        "longitude": -88.8833333
    },
    {
        "name": "San Rafael",
        "country": "El Salvador",
        "province": "Chalatenango",
        "population": -1,
        "latitude": 14.1333333,
        "longitude": -89.0333333
    },
    {
        "name": "San Pedro Puxtla",
        "country": "El Salvador",
        "province": "Ahuachapán",
        "population": -1,
        "latitude": 13.7722222,
        "longitude": -89.8041667
    },
    {
        "name": "San Pedro Nonualco",
        "country": "El Salvador",
        "province": "La Paz",
        "population": -1,
        "latitude": 13.6,
        "longitude": -88.9333333
    },
    {
        "name": "San Miguel Tepezontes",
        "country": "El Salvador",
        "province": "La Paz",
        "population": -1,
        "latitude": 13.6225,
        "longitude": -89.0213889
    },
    {
        "name": "San Miguel de Mercedes",
        "country": "El Salvador",
        "province": "Chalatenango",
        "population": -1,
        "latitude": 14.0166667,
        "longitude": -88.9333333
    },
    {
        "name": "San Matías",
        "country": "El Salvador",
        "province": "La Libertad",
        "population": -1,
        "latitude": 13.8869444,
        "longitude": -89.3175
    },
    {
        "name": "San Martín",
        "country": "El Salvador",
        "province": "San Salvador",
        "population": -1,
        "latitude": 13.7416667,
        "longitude": -89.0563889
    },
    {
        "name": "San Luis del Carmen",
        "country": "El Salvador",
        "province": "Chalatenango",
        "population": -1,
        "latitude": 13.9666667,
        "longitude": -88.9666667
    },
    {
        "name": "San Luis de la Reina",
        "country": "El Salvador",
        "province": "San Miguel",
        "population": -1,
        "latitude": 13.8166667,
        "longitude": -88.35
    },
    {
        "name": "San Lorenzo",
        "country": "El Salvador",
        "province": "Ahuachapán",
        "population": -1,
        "latitude": 14.0333333,
        "longitude": -89.7833333
    },
    {
        "name": "San Lorenzo",
        "country": "El Salvador",
        "province": "San Vicente",
        "population": -1,
        "latitude": 13.7166667,
        "longitude": -88.8
    },
    {
        "name": "San Julián",
        "country": "El Salvador",
        "province": "Sonsonate",
        "population": -1,
        "latitude": 13.6136111,
        "longitude": -89.7925
    },
    {
        "name": "San Juan Tepezontes",
        "country": "El Salvador",
        "province": "La Paz",
        "population": -1,
        "latitude": 13.6138889,
        "longitude": -89.01
    },
    {
        "name": "San Juan Talpa",
        "country": "El Salvador",
        "province": "La Paz",
        "population": -1,
        "latitude": 13.5027778,
        "longitude": -89.0908333
    },
    {
        "name": "San Juan Opico",
        "country": "El Salvador",
        "province": "La Libertad",
        "population": 7127,
        "latitude": 13.8761111,
        "longitude": -89.3597222
    },
    {
        "name": "San Juan Nonualco",
        "country": "El Salvador",
        "province": "La Paz",
        "population": -1,
        "latitude": 13.5,
        "longitude": -88.8833333
    },
    {
        "name": "San José Villanueva",
        "country": "El Salvador",
        "province": "La Libertad",
        "population": -1,
        "latitude": 13.5780556,
        "longitude": -89.2652778
    },
    {
        "name": "San José Las Flores",
        "country": "El Salvador",
        "province": "Chalatenango",
        "population": -1,
        "latitude": 14.05,
        "longitude": -88.8333333
    },
    {
        "name": "San José Las Flores",
        "country": "El Salvador",
        "province": "Santa Ana",
        "population": -1,
        "latitude": 13.868889,
        "longitude": -89.510833
    },
    {
        "name": "San José Cancasque",
        "country": "El Salvador",
        "province": "Chalatenango",
        "population": -1,
        "latitude": 13.983333,
        "longitude": -88.85
    },
    {
        "name": "San José",
        "country": "El Salvador",
        "province": "La Unión",
        "population": -1,
        "latitude": 13.4166667,
        "longitude": -87.9833333
    },
    {
        "name": "San Jorge",
        "country": "El Salvador",
        "province": "San Miguel",
        "population": -1,
        "latitude": 13.6833333,
        "longitude": -88.3833333
    },
    {
        "name": "San Isidro Labrador",
        "country": "El Salvador",
        "province": "Chalatenango",
        "population": -1,
        "latitude": 14,
        "longitude": -88.85
    },
    {
        "name": "San Isidro",
        "country": "El Salvador",
        "province": "Morazán",
        "population": -1,
        "latitude": 13.85,
        "longitude": -88.2333333
    },
    {
        "name": "San Isidro",
        "country": "El Salvador",
        "province": "Cabañas",
        "population": -1,
        "latitude": 13.8333333,
        "longitude": -88.7166667
    },
    {
        "name": "San Ildefonso",
        "country": "El Salvador",
        "province": "San Vicente",
        "population": -1,
        "latitude": 13.7,
        "longitude": -88.5666667
    },
    {
        "name": "San Ignacio",
        "country": "El Salvador",
        "province": "Chalatenango",
        "population": -1,
        "latitude": 14.3333333,
        "longitude": -89.1833333
    },
    {
        "name": "San Gerardo",
        "country": "El Salvador",
        "province": "San Miguel",
        "population": -1,
        "latitude": 13.8,
        "longitude": -88.4
    },
    {
        "name": "San Francisco Morazán",
        "country": "El Salvador",
        "province": "Chalatenango",
        "population": 506,
        "latitude": 14.1833333,
        "longitude": -89.05
    },
    {
        "name": "San Francisco Lempa",
        "country": "El Salvador",
        "province": "Chalatenango",
        "population": -1,
        "latitude": 13.9744444,
        "longitude": -89.0013889
    },
    {
        "name": "San Francisco Javier",
        "country": "El Salvador",
        "province": "Usulután",
        "population": -1,
        "latitude": 13.4166667,
        "longitude": -88.5666667
    },
    {
        "name": "San Francisco Chinameca",
        "country": "El Salvador",
        "province": "La Paz",
        "population": -1,
        "latitude": 13.6055556,
        "longitude": -89.0963889
    },
    {
        "name": "San Fernando",
        "country": "El Salvador",
        "province": "Chalatenango",
        "population": -1,
        "latitude": 14.3,
        "longitude": -89.0333333
    },
    {
        "name": "San Fernando",
        "country": "El Salvador",
        "province": "Morazán",
        "population": -1,
        "latitude": 13.9666667,
        "longitude": -88.2
    },
    {
        "name": "San Esteban Catarina",
        "country": "El Salvador",
        "province": "San Vicente",
        "population": -1,
        "latitude": 13.6833333,
        "longitude": -88.7833333
    },
    {
        "name": "San Emigdio",
        "country": "El Salvador",
        "province": "La Paz",
        "population": -1,
        "latitude": 13.65,
        "longitude": -88.9833333
    },
    {
        "name": "San Dionisio",
        "country": "El Salvador",
        "province": "Usulután",
        "population": -1,
        "latitude": 13.2833333,
        "longitude": -88.4666667
    },
    {
        "name": "San Cristóbal",
        "country": "El Salvador",
        "province": "Cuscatlán",
        "population": -1,
        "latitude": 14.0333333,
        "longitude": -89.0833333
    },
    {
        "name": "San Cayetano Istepeque",
        "country": "El Salvador",
        "province": "San Vicente",
        "population": -1,
        "latitude": 13.65,
        "longitude": -88.8166667
    },
    {
        "name": "San Carlos",
        "country": "El Salvador",
        "province": "Morazán",
        "population": -1,
        "latitude": 13.65,
        "longitude": -88.1
    },
    {
        "name": "San Buenaventura",
        "country": "El Salvador",
        "province": "Usulután",
        "population": -1,
        "latitude": 13.5333333,
        "longitude": -88.3833333
    },
    {
        "name": "San Bartolomé Perulapía",
        "country": "El Salvador",
        "province": "Cuscatlán",
        "population": -1,
        "latitude": 13.765833,
        "longitude": -89.050833
    },
    {
        "name": "San Antonio Pajonal",
        "country": "El Salvador",
        "province": "Santa Ana",
        "population": -1,
        "latitude": 14.1966667,
        "longitude": -89.5811111
    },
    {
        "name": "San Antonio Masahuat",
        "country": "El Salvador",
        "province": "La Paz",
        "population": -1,
        "latitude": 13.5680556,
        "longitude": -89.0391667
    },
    {
        "name": "San Antonio Los Ranchos",
        "country": "El Salvador",
        "province": "Chalatenango",
        "population": -1,
        "latitude": 14,
        "longitude": -88.9
    },
    {
        "name": "San Antonio de La Cruz",
        "country": "El Salvador",
        "province": "Chalatenango",
        "population": -1,
        "latitude": 14.0166667,
        "longitude": -88.7833333
    },
    {
        "name": "San Antonio",
        "country": "El Salvador",
        "province": "San Miguel",
        "population": -1,
        "latitude": 13.8333333,
        "longitude": -88.2666667
    },
    {
        "name": "San Andrés",
        "country": "El Salvador",
        "province": "La Libertad",
        "population": -1,
        "latitude": 13.816667,
        "longitude": -89.4
    },
    {
        "name": "Salinas de Ayacachapa",
        "country": "El Salvador",
        "province": "Sonsonate",
        "population": -1,
        "latitude": 13.5483333,
        "longitude": -89.6677778
    },
    {
        "name": "Salcoatitán",
        "country": "El Salvador",
        "province": "Sonsonate",
        "population": -1,
        "latitude": 13.828611,
        "longitude": -89.758333
    },
    {
        "name": "Sacacoyo",
        "country": "El Salvador",
        "province": "La Libertad",
        "population": -1,
        "latitude": 13.7363889,
        "longitude": -89.4719444
    },
    {
        "name": "Rosario Tablón",
        "country": "El Salvador",
        "province": "Cuscatlán",
        "population": -1,
        "latitude": 13.816667,
        "longitude": -88.95
    },
    {
        "name": "Quezalapa",
        "country": "El Salvador",
        "province": "Ahuachapán",
        "population": -1,
        "latitude": 13.8486111,
        "longitude": -89.8141667
    },
    {
        "name": "Quelepa",
        "country": "El Salvador",
        "province": "San Miguel",
        "population": -1,
        "latitude": 13.5166667,
        "longitude": -88.2333333
    },
    {
        "name": "Potonico",
        "country": "El Salvador",
        "province": "Chalatenango",
        "population": -1,
        "latitude": 13.9666667,
        "longitude": -88.9
    },
    {
        "name": "Polorós",
        "country": "El Salvador",
        "province": "La Unión",
        "population": -1,
        "latitude": 13.8102778,
        "longitude": -87.8191667
    },
    {
        "name": "Perquín",
        "country": "El Salvador",
        "province": "Morazán",
        "population": -1,
        "latitude": 13.95,
        "longitude": -88.1666667
    },
    {
        "name": "Paraíso de Osorio",
        "country": "El Salvador",
        "province": "La Paz",
        "population": -1,
        "latitude": 13.6333333,
        "longitude": -88.9666667
    },
    {
        "name": "Osicala",
        "country": "El Salvador",
        "province": "Morazán",
        "population": -1,
        "latitude": 13.8,
        "longitude": -88.15
    },
    {
        "name": "Ojos de Agua",
        "country": "El Salvador",
        "province": "Chalatenango",
        "population": -1,
        "latitude": 14.1333333,
        "longitude": -89.0666667
    },
    {
        "name": "Nuevo Edén de San Juan",
        "country": "El Salvador",
        "province": "San Miguel",
        "population": -1,
        "latitude": 13.8166667,
        "longitude": -88.4833333
    },
    {
        "name": "Nueva Trinidad",
        "country": "El Salvador",
        "province": "Chalatenango",
        "population": -1,
        "latitude": 14.0666667,
        "longitude": -88.8
    },
    {
        "name": "Nueva Granada",
        "country": "El Salvador",
        "province": "Usulután",
        "population": -1,
        "latitude": 13.6,
        "longitude": -88.45
    },
    {
        "name": "Nombre de Jesús",
        "country": "El Salvador",
        "province": "Chalatenango",
        "population": -1,
        "latitude": 14,
        "longitude": -88.7333333
    },
    {
        "name": "Nejapa",
        "country": "El Salvador",
        "province": "San Salvador",
        "population": -1,
        "latitude": 13.8147222,
        "longitude": -89.2313889
    },
    {
        "name": "Nahulingo",
        "country": "El Salvador",
        "province": "Sonsonate",
        "population": -1,
        "latitude": 13.7036111,
        "longitude": -89.7127778
    },
    {
        "name": "Monte San Juan",
        "country": "El Salvador",
        "province": "Cuscatlán",
        "population": -1,
        "latitude": 13.7666667,
        "longitude": -88.95
    },
    {
        "name": "Mercedes Umaña",
        "country": "El Salvador",
        "province": "Usulután",
        "population": -1,
        "latitude": 13.566667,
        "longitude": -88.5
    },
    {
        "name": "Mercedes La Ceiba",
        "country": "El Salvador",
        "province": "La Paz",
        "population": -1,
        "latitude": 13.6333333,
        "longitude": -88.9
    },
    {
        "name": "Meanguera del Golfo",
        "country": "El Salvador",
        "province": "La Unión",
        "population": -1,
        "latitude": 13.1797222,
        "longitude": -87.6975
    },
    {
        "name": "Meanguera",
        "country": "El Salvador",
        "province": "Morazán",
        "population": -1,
        "latitude": 13.85,
        "longitude": -88.15
    },
    {
        "name": "Masahuat",
        "country": "El Salvador",
        "province": "Santa Ana",
        "population": -1,
        "latitude": 14.1833333,
        "longitude": -89.4333333
    },
    {
        "name": "Lolotiquillo",
        "country": "El Salvador",
        "province": "Morazán",
        "population": -1,
        "latitude": 13.7333333,
        "longitude": -88.0833333
    },
    {
        "name": "Las Vueltas",
        "country": "El Salvador",
        "province": "Chalatenango",
        "population": -1,
        "latitude": 14.1,
        "longitude": -88.8833333
    },
    {
        "name": "La Shila",
        "country": "El Salvador",
        "province": "La Libertad",
        "population": -1,
        "latitude": 13.5708333,
        "longitude": -89.3463889
    },
    {
        "name": "Las Flores",
        "country": "El Salvador",
        "province": "La Libertad",
        "population": -1,
        "latitude": 13.7166667,
        "longitude": -89.4333333
    },
    {
        "name": "Las Canoas",
        "country": "El Salvador",
        "province": "Ahuachapán",
        "population": -1,
        "latitude": 13.8166667,
        "longitude": -89.8666667
    },
    {
        "name": "Las Ánimas",
        "country": "El Salvador",
        "province": "San Salvador",
        "population": -1,
        "latitude": 13.798889,
        "longitude": -89.082778
    },
    {
        "name": "Las Angosturas",
        "country": "El Salvador",
        "province": "La Libertad",
        "population": -1,
        "latitude": 13.7416667,
        "longitude": -89.3311111
    },
    {
        "name": "Las Acosta",
        "country": "El Salvador",
        "province": "La Libertad",
        "population": -1,
        "latitude": 13.8727778,
        "longitude": -89.4408333
    },
    {
        "name": "La Rinconada",
        "country": "El Salvador",
        "province": "Morazán",
        "population": -1,
        "latitude": 13.7833333,
        "longitude": -88.0166667
    },
    {
        "name": "La Reforma",
        "country": "El Salvador",
        "province": "La Libertad",
        "population": -1,
        "latitude": 13.8277778,
        "longitude": -89.425
    },
    {
        "name": "Quesadilla",
        "country": "El Salvador",
        "province": "La Unión",
        "population": -1,
        "latitude": 13.2716667,
        "longitude": -87.9722222
    },
    {
        "name": "La Puerta de La Laguna",
        "country": "El Salvador",
        "province": "La Libertad",
        "population": -1,
        "latitude": 14.130608,
        "longitude": -89.303445
    },
    {
        "name": "La Presa",
        "country": "El Salvador",
        "province": "Usulután",
        "population": -1,
        "latitude": 13.3333333,
        "longitude": -88.4666667
    },
    {
        "name": "La Peñita",
        "country": "El Salvador",
        "province": "Morazán",
        "population": -1,
        "latitude": 13.7333333,
        "longitude": -88.0333333
    },
    {
        "name": "La Peña",
        "country": "El Salvador",
        "province": "San Miguel",
        "population": -1,
        "latitude": 13.45,
        "longitude": -88.3833333
    },
    {
        "name": "La Manzanilla",
        "country": "El Salvador",
        "province": "Morazán",
        "population": -1,
        "latitude": 13.7333333,
        "longitude": -88.05
    },
    {
        "name": "La Lucha",
        "country": "El Salvador",
        "province": "La Paz",
        "population": -1,
        "latitude": 13.4666667,
        "longitude": -88.85
    },
    {
        "name": "La Libertad",
        "country": "El Salvador",
        "province": "Santa Ana",
        "population": -1,
        "latitude": 13.9716667,
        "longitude": -89.6844444
    },
    {
        "name": "La Laguna",
        "country": "El Salvador",
        "province": "Santa Ana",
        "population": -1,
        "latitude": 13.8666667,
        "longitude": -89.5
    },
    {
        "name": "La Laguna",
        "country": "El Salvador",
        "province": "San Vicente",
        "population": -1,
        "latitude": 13.6,
        "longitude": -88.6833333
    },
    {
        "name": "La Laguna",
        "country": "El Salvador",
        "province": "Usulután",
        "population": -1,
        "latitude": 13.3333333,
        "longitude": -88.4166667
    },
    {
        "name": "La Joya",
        "country": "El Salvador",
        "province": "San Miguel",
        "population": -1,
        "latitude": 13.5166667,
        "longitude": -88.0333333
    },
    {
        "name": "Lajas y Canoas",
        "country": "El Salvador",
        "province": "San Vicente",
        "population": -1,
        "latitude": 13.65,
        "longitude": -88.6
    },
    {
        "name": "Lagunetas",
        "country": "El Salvador",
        "province": "La Unión",
        "population": -1,
        "latitude": 13.35,
        "longitude": -87.9666667
    },
    {
        "name": "Laguna Seca",
        "country": "El Salvador",
        "province": "Chalatenango",
        "population": -1,
        "latitude": 14.1333333,
        "longitude": -89.3333333
    },
    {
        "name": "La Guayabilla",
        "country": "El Salvador",
        "province": "San Vicente",
        "population": -1,
        "latitude": 13.75,
        "longitude": -88.7
    },
    {
        "name": "La Guascota",
        "country": "El Salvador",
        "province": "Ahuachapán",
        "population": -1,
        "latitude": 14.0166667,
        "longitude": -89.8
    },
    {
        "name": "La Guacamaya",
        "country": "El Salvador",
        "province": "Sonsonate",
        "population": -1,
        "latitude": 13.7847222,
        "longitude": -89.7527778
    },
    {
        "name": "La Frutilla",
        "country": "El Salvador",
        "province": "Morazán",
        "population": -1,
        "latitude": 13.7333333,
        "longitude": -88.0333333
    },
    {
        "name": "La Danta",
        "country": "El Salvador",
        "province": "Ahuachapán",
        "population": -1,
        "latitude": 13.75,
        "longitude": -90.0833333
    },
    {
        "name": "Juan Higinio",
        "country": "El Salvador",
        "province": "La Libertad",
        "population": -1,
        "latitude": 13.6613889,
        "longitude": -89.4736111
    },
    {
        "name": "La Coyotera",
        "country": "El Salvador",
        "province": "Ahuachapán",
        "population": -1,
        "latitude": 13.9666667,
        "longitude": -89.8166667
    },
    {
        "name": "La Ceibita",
        "country": "El Salvador",
        "province": "Santa Ana",
        "population": -1,
        "latitude": 14.2666667,
        "longitude": -89.35
    },
    {
        "name": "La Ceiba",
        "country": "El Salvador",
        "province": "Usulután",
        "population": -1,
        "latitude": 13.4666667,
        "longitude": -88.5833333
    },
    {
        "name": "La Calavera",
        "country": "El Salvador",
        "province": "Morazán",
        "population": -1,
        "latitude": 13.6333333,
        "longitude": -87.9833333
    },
    {
        "name": "La Cabaña",
        "country": "El Salvador",
        "province": "San Salvador",
        "population": -1,
        "latitude": 14.0166667,
        "longitude": -89.1833333
    },
    {
        "name": "La Bermuda",
        "country": "El Salvador",
        "province": "Cuscatlán",
        "population": -1,
        "latitude": 13.8713889,
        "longitude": -89.0375
    },
    {
        "name": "Jutillo",
        "country": "El Salvador",
        "province": "San Salvador",
        "population": -1,
        "latitude": 13.5833333,
        "longitude": -89.2166667
    },
    {
        "name": "Joya El Zapote",
        "country": "El Salvador",
        "province": "Ahuachapán",
        "population": -1,
        "latitude": 13.95,
        "longitude": -89.75
    },
    {
        "name": "Joya de Monte Grande",
        "country": "El Salvador",
        "province": "Morazán",
        "population": -1,
        "latitude": 13.65,
        "longitude": -88.15
    },
    {
        "name": "Jocomontique",
        "country": "El Salvador",
        "province": "Usulután",
        "population": -1,
        "latitude": 13.6666667,
        "longitude": -88.5
    },
    {
        "name": "India",
        "country": "El Salvador",
        "province": "San Vicente",
        "population": -1,
        "latitude": 13.55,
        "longitude": -88.8166667
    },
    {
        "name": "Ichanquezo",
        "country": "El Salvador",
        "province": "Cuscatlán",
        "population": -1,
        "latitude": 13.9,
        "longitude": -89.0666667
    },
    {
        "name": "Huisiltepeque",
        "country": "El Salvador",
        "province": "Cuscatlán",
        "population": -1,
        "latitude": 13.8,
        "longitude": -89
    },
    {
        "name": "Huiscoyol",
        "country": "El Salvador",
        "province": "Cabañas",
        "population": -1,
        "latitude": 13.95,
        "longitude": -88.7333333
    },
    {
        "name": "Huiscoyol",
        "country": "El Salvador",
        "province": "Cabañas",
        "population": -1,
        "latitude": 13.9166667,
        "longitude": -88.9333333
    },
    {
        "name": "Horconcillos",
        "country": "El Salvador",
        "province": "Chalatenango",
        "population": -1,
        "latitude": 14.15,
        "longitude": -88.8
    },
    {
        "name": "Hondable",
        "country": "El Salvador",
        "province": "Morazán",
        "population": -1,
        "latitude": 13.8622222,
        "longitude": -87.9875
    },
    {
        "name": "Hoja de Sal",
        "country": "El Salvador",
        "province": "Usulután",
        "population": -1,
        "latitude": 13.2352778,
        "longitude": -88.2108333
    },
    {
        "name": "Hacienda Tongolona",
        "country": "El Salvador",
        "province": "San Miguel",
        "population": -1,
        "latitude": 13.5833333,
        "longitude": -88.25
    },
    {
        "name": "Hacienda Santa Emilia",
        "country": "El Salvador",
        "province": "Sonsonate",
        "population": -1,
        "latitude": 13.6666667,
        "longitude": -89.7666667
    },
    {
        "name": "Hacienda San Román",
        "country": "El Salvador",
        "province": "La Unión",
        "population": -1,
        "latitude": 13.1841667,
        "longitude": -88.0872222
    },
    {
        "name": "Hacienda San José Arrazola",
        "country": "El Salvador",
        "province": "San Salvador",
        "population": -1,
        "latitude": 13.8166667,
        "longitude": -89.1333333
    },
    {
        "name": "Hacienda San Antonio",
        "country": "El Salvador",
        "province": "Usulután",
        "population": -1,
        "latitude": 13.2666667,
        "longitude": -88.3333333
    },
    {
        "name": "Hacienda Obrajuelo",
        "country": "El Salvador",
        "province": "Usulután",
        "population": -1,
        "latitude": 13.3166667,
        "longitude": -88.3833333
    },
    {
        "name": "Hacienda Las Piletas",
        "country": "El Salvador",
        "province": "Santa Ana",
        "population": -1,
        "latitude": 14.4,
        "longitude": -89.45
    },
    {
        "name": "Hacienda Las Palmeras",
        "country": "El Salvador",
        "province": "San Miguel",
        "population": -1,
        "latitude": 13.6166667,
        "longitude": -88.35
    },
    {
        "name": "Hacienda La Palestina",
        "country": "El Salvador",
        "province": "San Miguel",
        "population": -1,
        "latitude": 13.6166667,
        "longitude": -88.3333333
    },
    {
        "name": "Hacienda La Normandía",
        "country": "El Salvador",
        "province": "Usulután",
        "population": -1,
        "latitude": 13.35,
        "longitude": -88.6333333
    },
    {
        "name": "Hacienda La Chepona",
        "country": "El Salvador",
        "province": "Usulután",
        "population": -1,
        "latitude": 13.1833333,
        "longitude": -88.35
    },
    {
        "name": "Hacienda La Alcancía",
        "country": "El Salvador",
        "province": "Usulután",
        "population": -1,
        "latitude": 13.283333,
        "longitude": -88.466667
    },
    {
        "name": "Hacienda El Coyol",
        "country": "El Salvador",
        "province": "Sonsonate",
        "population": -1,
        "latitude": 13.6333333,
        "longitude": -89.7833333
    },
    {
        "name": "Hacienda El Bebedero",
        "country": "El Salvador",
        "province": "Sonsonate",
        "population": -1,
        "latitude": 13.7333333,
        "longitude": -89.5833333
    },
    {
        "name": "Hacienda El Banco",
        "country": "El Salvador",
        "province": "La Libertad",
        "population": -1,
        "latitude": 13.55,
        "longitude": -89.25
    },
    {
        "name": "Hacienda Chamoco",
        "country": "El Salvador",
        "province": "San Vicente",
        "population": -1,
        "latitude": 13.6,
        "longitude": -88.65
    },
    {
        "name": "Hacienda Chaguantique",
        "country": "El Salvador",
        "province": "Usulután",
        "population": -1,
        "latitude": 13.3,
        "longitude": -88.5666667
    },
    {
        "name": "Hacienda América",
        "country": "El Salvador",
        "province": "Cuscatlán",
        "population": -1,
        "latitude": 13.866667,
        "longitude": -89.033333
    },
    {
        "name": "Guayapa Arriba",
        "country": "El Salvador",
        "province": "Ahuachapán",
        "population": -1,
        "latitude": 13.76,
        "longitude": -89.9608333
    },
    {
        "name": "Guatinluca",
        "country": "El Salvador",
        "province": "San Miguel",
        "population": -1,
        "latitude": 13.7166667,
        "longitude": -88.4
    },
    {
        "name": "Gualindo Abajo",
        "country": "El Salvador",
        "province": "Morazán",
        "population": -1,
        "latitude": 13.75,
        "longitude": -88.1
    },
    {
        "name": "Guadalupe",
        "country": "El Salvador",
        "province": "San Salvador",
        "population": -1,
        "latitude": 13.7666667,
        "longitude": -89.2166667
    },
    {
        "name": "Garita Palmera",
        "country": "El Salvador",
        "province": "Ahuachapán",
        "population": -1,
        "latitude": 13.7283333,
        "longitude": -90.0780556
    },
    {
        "name": "Flor Amarilla Abajo",
        "country": "El Salvador",
        "province": "Santa Ana",
        "population": -1,
        "latitude": 13.9316667,
        "longitude": -89.5672222
    },
    {
        "name": "Finca San Antonio",
        "country": "El Salvador",
        "province": "Ahuachapán",
        "population": -1,
        "latitude": 13.85,
        "longitude": -89.8833333
    },
    {
        "name": "Finca Las Victorias",
        "country": "El Salvador",
        "province": "Santa Ana",
        "population": -1,
        "latitude": 13.95,
        "longitude": -89.7
    },
    {
        "name": "El Zarzal",
        "country": "El Salvador",
        "province": "Ahuachapán",
        "population": -1,
        "latitude": 13.7,
        "longitude": -89.8333333
    },
    {
        "name": "El Zapote",
        "country": "El Salvador",
        "province": "Chalatenango",
        "population": -1,
        "latitude": 14.15,
        "longitude": -89.3333333
    },
    {
        "name": "El Zapote",
        "country": "El Salvador",
        "province": "Cabañas",
        "population": -1,
        "latitude": 13.8666667,
        "longitude": -88.9333333
    },
    {
        "name": "El Zacamil",
        "country": "El Salvador",
        "province": "La Libertad",
        "population": -1,
        "latitude": 13.6977778,
        "longitude": -89.4883333
    },
    {
        "name": "El Trilladero",
        "country": "El Salvador",
        "province": "Usulután",
        "population": -1,
        "latitude": 13.55,
        "longitude": -88.5
    },
    {
        "name": "El Trapichón",
        "country": "El Salvador",
        "province": "Cuscatlán",
        "population": -1,
        "latitude": 13.9833333,
        "longitude": -89.1333333
    },
    {
        "name": "El Tigre",
        "country": "El Salvador",
        "province": "Ahuachapán",
        "population": -1,
        "latitude": 13.9833333,
        "longitude": -89.9166667
    },
    {
        "name": "El Tempisque",
        "country": "El Salvador",
        "province": "Cabañas",
        "population": -1,
        "latitude": 13.8666667,
        "longitude": -88.6333333
    },
    {
        "name": "El Tamarindo",
        "country": "El Salvador",
        "province": "San Vicente",
        "population": -1,
        "latitude": 13.5166667,
        "longitude": -88.6833333
    },
    {
        "name": "El Talpetate",
        "country": "El Salvador",
        "province": "Ahuachapán",
        "population": -1,
        "latitude": 13.7361111,
        "longitude": -90.0036111
    },
    {
        "name": "El Sunza",
        "country": "El Salvador",
        "province": "Sonsonate",
        "population": -1,
        "latitude": 13.7547222,
        "longitude": -89.5602778
    },
    {
        "name": "Suncita",
        "country": "El Salvador",
        "province": "Sonsonate",
        "population": -1,
        "latitude": 13.6277778,
        "longitude": -89.8488889
    },
    {
        "name": "El Sicahuital",
        "country": "El Salvador",
        "province": "Chalatenango",
        "population": -1,
        "latitude": 14,
        "longitude": -88.8333333
    },
    {
        "name": "El Shiste",
        "country": "El Salvador",
        "province": "Santa Ana",
        "population": -1,
        "latitude": 14.4,
        "longitude": -89.5833333
    },
    {
        "name": "El Salvador",
        "country": "El Salvador",
        "province": "La Unión",
        "population": -1,
        "latitude": 13.2030556,
        "longitude": -87.7019444
    },
    {
        "name": "El Salitre",
        "country": "El Salvador",
        "province": "Chalatenango",
        "population": -1,
        "latitude": 14.1666667,
        "longitude": -89.1333333
    },
    {
        "name": "El Salitre",
        "country": "El Salvador",
        "province": "Cuscatlán",
        "population": -1,
        "latitude": 13.8702778,
        "longitude": -89.1041667
    },
    {
        "name": "El Sálamo",
        "country": "El Salvador",
        "province": "Usulután",
        "population": -1,
        "latitude": 13.253611,
        "longitude": -88.222222
    },
    {
        "name": "El Rosario",
        "country": "El Salvador",
        "province": "Morazán",
        "population": -1,
        "latitude": 13.8666667,
        "longitude": -88.2166667
    },
    {
        "name": "Rodeo",
        "country": "El Salvador",
        "province": "La Unión",
        "population": -1,
        "latitude": 13.8447222,
        "longitude": -87.8138889
    },
    {
        "name": "El Roblar",
        "country": "El Salvador",
        "province": "Chalatenango",
        "population": -1,
        "latitude": 14.3,
        "longitude": -89.0333333
    },
    {
        "name": "El Quequeishque",
        "country": "El Salvador",
        "province": "La Libertad",
        "population": -1,
        "latitude": 13.7,
        "longitude": -89.3
    },
    {
        "name": "El Pulguero",
        "country": "El Salvador",
        "province": "San Vicente",
        "population": -1,
        "latitude": 13.6333333,
        "longitude": -88.6166667
    },
    {
        "name": "El Presidio",
        "country": "El Salvador",
        "province": "Sonsonate",
        "population": -1,
        "latitude": 13.5722222,
        "longitude": -89.7172222
    },
    {
        "name": "El Potrero",
        "country": "El Salvador",
        "province": "Cabañas",
        "population": -1,
        "latitude": 13.8833333,
        "longitude": -88.7666667
    },
    {
        "name": "El Platanar",
        "country": "El Salvador",
        "province": "Cuscatlán",
        "population": -1,
        "latitude": 13.9452778,
        "longitude": -89.0627778
    },
    {
        "name": "Caserío El Pino",
        "country": "El Salvador",
        "province": "Santa Ana",
        "population": -1,
        "latitude": 14.171944,
        "longitude": -89.650556
    },
    {
        "name": "El Pinito",
        "country": "El Salvador",
        "province": "Santa Ana",
        "population": -1,
        "latitude": 14.3833333,
        "longitude": -89.4833333
    },
    {
        "name": "El Peñón",
        "country": "El Salvador",
        "province": "La Libertad",
        "population": -1,
        "latitude": 13.6,
        "longitude": -89.3833333
    },
    {
        "name": "El Paste",
        "country": "El Salvador",
        "province": "Santa Ana",
        "population": -1,
        "latitude": 14.1333333,
        "longitude": -89.7
    },
    {
        "name": "El Paraíso",
        "country": "El Salvador",
        "province": "Morazán",
        "population": -1,
        "latitude": 14.0333333,
        "longitude": -88.2
    },
    {
        "name": "El Paraíso",
        "country": "El Salvador",
        "province": "Usulután",
        "population": -1,
        "latitude": 13.35,
        "longitude": -88.6166667
    },
    {
        "name": "El Papaturral",
        "country": "El Salvador",
        "province": "La Libertad",
        "population": -1,
        "latitude": 14.05,
        "longitude": -89.3166667
    },
    {
        "name": "El Papalón",
        "country": "El Salvador",
        "province": "Cabañas",
        "population": -1,
        "latitude": 13.966667,
        "longitude": -88.583333
    },
    {
        "name": "El Palón",
        "country": "El Salvador",
        "province": "San Miguel",
        "population": -1,
        "latitude": 13.5666667,
        "longitude": -88.3666667
    },
    {
        "name": "El Palomar",
        "country": "El Salvador",
        "province": "Cabañas",
        "population": -1,
        "latitude": 13.9833333,
        "longitude": -88.5833333
    },
    {
        "name": "El Palomar",
        "country": "El Salvador",
        "province": "San Vicente",
        "population": -1,
        "latitude": 13.5,
        "longitude": -88.75
    },
    {
        "name": "El Pacún",
        "country": "El Salvador",
        "province": "San Vicente",
        "population": -1,
        "latitude": 13.4,
        "longitude": -88.733333
    },
    {
        "name": "El Ojushte",
        "country": "El Salvador",
        "province": "Usulután",
        "population": -1,
        "latitude": 13.6166667,
        "longitude": -88.4833333
    },
    {
        "name": "El Obrajuelo Lempa",
        "country": "El Salvador",
        "province": "San Vicente",
        "population": -1,
        "latitude": 13.5833333,
        "longitude": -88.6666667
    },
    {
        "name": "El Nisperal",
        "country": "El Salvador",
        "province": "Usulután",
        "population": -1,
        "latitude": 13.4166667,
        "longitude": -88.4166667
    },
    {
        "name": "Caserío El Nance Dulce",
        "country": "El Salvador",
        "province": "Santa Ana",
        "population": -1,
        "latitude": 14.175278,
        "longitude": -89.507222
    },
    {
        "name": "El Morro",
        "country": "El Salvador",
        "province": "San Salvador",
        "population": -1,
        "latitude": 13.6166667,
        "longitude": -89.1333333
    },
    {
        "name": "El Molino",
        "country": "El Salvador",
        "province": "Cuscatlán",
        "population": -1,
        "latitude": 13.8536111,
        "longitude": -89.0286111
    },
    {
        "name": "El Matazano",
        "country": "El Salvador",
        "province": "San Salvador",
        "population": -1,
        "latitude": 14.0166667,
        "longitude": -89.2166667
    },
    {
        "name": "El Matazano",
        "country": "El Salvador",
        "province": "Santa Ana",
        "population": -1,
        "latitude": 13.9333333,
        "longitude": -89.6166667
    },
    {
        "name": "El Marquezado",
        "country": "El Salvador",
        "province": "San Vicente",
        "population": -1,
        "latitude": 13.5666667,
        "longitude": -88.7
    },
    {
        "name": "El Marquesado",
        "country": "El Salvador",
        "province": "Usulután",
        "population": -1,
        "latitude": 13.5,
        "longitude": -88.45
    },
    {
        "name": "El Marillo",
        "country": "El Salvador",
        "province": "Usulután",
        "population": -1,
        "latitude": 13.3166667,
        "longitude": -88.7333333
    },
    {
        "name": "El Líbano",
        "country": "El Salvador",
        "province": "Cuscatlán",
        "population": -1,
        "latitude": 13.95,
        "longitude": -89.15
    },
    {
        "name": "El Junquillal",
        "country": "El Salvador",
        "province": "San Vicente",
        "population": -1,
        "latitude": 13.6333333,
        "longitude": -88.6666667
    },
    {
        "name": "El Jocote",
        "country": "El Salvador",
        "province": "La Libertad",
        "population": -1,
        "latitude": 13.9144444,
        "longitude": -89.2811111
    },
    {
        "name": "El Jicarillo",
        "country": "El Salvador",
        "province": "Cabañas",
        "population": -1,
        "latitude": 13.95,
        "longitude": -88.5333333
    },
    {
        "name": "El Izcatal",
        "country": "El Salvador",
        "province": "Cabañas",
        "population": -1,
        "latitude": 13.8333333,
        "longitude": -88.7333333
    },
    {
        "name": "El Guineo",
        "country": "El Salvador",
        "province": "Chalatenango",
        "population": -1,
        "latitude": 14.0333333,
        "longitude": -89.4333333
    },
    {
        "name": "El Guayabo",
        "country": "El Salvador",
        "province": "Ahuachapán",
        "population": -1,
        "latitude": 13.8313889,
        "longitude": -90.1036111
    },
    {
        "name": "El Guajiniquil",
        "country": "El Salvador",
        "province": "La Unión",
        "population": -1,
        "latitude": 13.8863889,
        "longitude": -87.9125
    },
    {
        "name": "El Gavilán",
        "country": "El Salvador",
        "province": "La Unión",
        "population": -1,
        "latitude": 13.343333,
        "longitude": -87.9625
    },
    {
        "name": "El Fraile",
        "country": "El Salvador",
        "province": "La Paz",
        "population": -1,
        "latitude": 13.3666667,
        "longitude": -89.0166667
    },
    {
        "name": "El Espinal",
        "country": "El Salvador",
        "province": "La Libertad",
        "population": -1,
        "latitude": 13.8538889,
        "longitude": -89.4233333
    },
    {
        "name": "El Escondido",
        "country": "El Salvador",
        "province": "San Salvador",
        "population": -1,
        "latitude": 13.9833333,
        "longitude": -89.25
    },
    {
        "name": "El Edén",
        "country": "El Salvador",
        "province": "Sonsonate",
        "population": -1,
        "latitude": 13.65,
        "longitude": -89.7358333
    },
    {
        "name": "El Coyol",
        "country": "El Salvador",
        "province": "Sonsonate",
        "population": -1,
        "latitude": 13.65,
        "longitude": -89.7975
    },
    {
        "name": "El Corozal",
        "country": "El Salvador",
        "province": "Sonsonate",
        "population": -1,
        "latitude": 13.5461111,
        "longitude": -89.63
    },
    {
        "name": "El Corozal",
        "country": "El Salvador",
        "province": "Usulután",
        "population": -1,
        "latitude": 13.5166667,
        "longitude": -88.6333333
    },
    {
        "name": "Conacaste",
        "country": "El Salvador",
        "province": "La Libertad",
        "population": -1,
        "latitude": 13.8333333,
        "longitude": -89.4033333
    },
    {
        "name": "El Coco",
        "country": "El Salvador",
        "province": "Santa Ana",
        "population": -1,
        "latitude": 14.0833333,
        "longitude": -89.7166667
    },
    {
        "name": "El Chino",
        "country": "El Salvador",
        "province": "Ahuachapán",
        "population": -1,
        "latitude": 13.7333333,
        "longitude": -90.05
    },
    {
        "name": "El Chilamate",
        "country": "El Salvador",
        "province": "Chalatenango",
        "population": -1,
        "latitude": 14.1,
        "longitude": -89
    },
    {
        "name": "El Chilamate",
        "country": "El Salvador",
        "province": "La Unión",
        "population": -1,
        "latitude": 13.8166667,
        "longitude": -87.9166667
    },
    {
        "name": "El Chayal",
        "country": "El Salvador",
        "province": "Ahuachapán",
        "population": -1,
        "latitude": 13.9333333,
        "longitude": -89.75
    },
    {
        "name": "El Chaparrón",
        "country": "El Salvador",
        "province": "Sonsonate",
        "population": -1,
        "latitude": 13.8166667,
        "longitude": -89.6833333
    },
    {
        "name": "El Chagüite",
        "country": "El Salvador",
        "province": "Ahuachapán",
        "population": -1,
        "latitude": 13.933333,
        "longitude": -90
    },
    {
        "name": "El Cedro",
        "country": "El Salvador",
        "province": "Morazán",
        "population": -1,
        "latitude": 13.7666667,
        "longitude": -87.8666667
    },
    {
        "name": "El Caulotillo",
        "country": "El Salvador",
        "province": "La Unión",
        "population": -1,
        "latitude": 13.3783333,
        "longitude": -88.0202778
    },
    {
        "name": "El Caulote",
        "country": "El Salvador",
        "province": "Cuscatlán",
        "population": -1,
        "latitude": 13.9333333,
        "longitude": -89.0166667
    },
    {
        "name": "El Caulote",
        "country": "El Salvador",
        "province": "Sonsonate",
        "population": -1,
        "latitude": 13.7422222,
        "longitude": -89.7752778
    },
    {
        "name": "El Carrizo",
        "country": "El Salvador",
        "province": "San Vicente",
        "population": -1,
        "latitude": 13.5833333,
        "longitude": -88.6666667
    },
    {
        "name": "El Carrizal",
        "country": "El Salvador",
        "province": "Sonsonate",
        "population": -1,
        "latitude": 13.7405556,
        "longitude": -89.8025
    },
    {
        "name": "El Carmen",
        "country": "El Salvador",
        "province": "Cuscatlán",
        "population": -1,
        "latitude": 13.75,
        "longitude": -89
    },
    {
        "name": "El Cagalero",
        "country": "El Salvador",
        "province": "Santa Ana",
        "population": -1,
        "latitude": 14.1666667,
        "longitude": -89.4
    },
    {
        "name": "El Bramadero",
        "country": "El Salvador",
        "province": "Morazán",
        "population": -1,
        "latitude": 13.9,
        "longitude": -88.0666667
    },
    {
        "name": "El Bosque",
        "country": "El Salvador",
        "province": "Cabañas",
        "population": -1,
        "latitude": 13.9833333,
        "longitude": -88.6833333
    },
    {
        "name": "El Bonete",
        "country": "El Salvador",
        "province": "San Salvador",
        "population": -1,
        "latitude": 13.8633333,
        "longitude": -89.2013889
    },
    {
        "name": "El Anonal",
        "country": "El Salvador",
        "province": "Ahuachapán",
        "population": -1,
        "latitude": 13.9166667,
        "longitude": -89.7666667
    },
    {
        "name": "El Ángel Talcualuya",
        "country": "El Salvador",
        "province": "La Libertad",
        "population": -1,
        "latitude": 13.941389,
        "longitude": -89.350556
    },
    {
        "name": "Caserío El Amatillo",
        "country": "El Salvador",
        "province": "Santa Ana",
        "population": -1,
        "latitude": 14.190556,
        "longitude": -89.6325
    },
    {
        "name": "El Amatillo",
        "country": "El Salvador",
        "province": "Usulután",
        "population": -1,
        "latitude": 13.6166667,
        "longitude": -88.4666667
    },
    {
        "name": "El Amatillo",
        "country": "El Salvador",
        "province": "La Unión",
        "population": -1,
        "latitude": 13.6,
        "longitude": -87.7666667
    },
    {
        "name": "El Algodón",
        "country": "El Salvador",
        "province": "La Unión",
        "population": -1,
        "latitude": 13.6197222,
        "longitude": -87.8505556
    },
    {
        "name": "El Ahogado",
        "country": "El Salvador",
        "province": "Santa Ana",
        "population": -1,
        "latitude": 14.2333333,
        "longitude": -89.3833333
    },
    {
        "name": "El Aguacate",
        "country": "El Salvador",
        "province": "Cabañas",
        "population": -1,
        "latitude": 13.8666667,
        "longitude": -88.6
    },
    {
        "name": "El Achiotal",
        "country": "El Salvador",
        "province": "Sonsonate",
        "population": -1,
        "latitude": 13.6666667,
        "longitude": -89.5666667
    },
    {
        "name": "Cuyantepeque",
        "country": "El Salvador",
        "province": "Cabañas",
        "population": -1,
        "latitude": 13.8333333,
        "longitude": -88.6166667
    },
    {
        "name": "Cusamaluco",
        "country": "El Salvador",
        "province": "Sonsonate",
        "population": -1,
        "latitude": 13.8136111,
        "longitude": -89.7225
    },
    {
        "name": "Cujucuyo",
        "country": "El Salvador",
        "province": "Santa Ana",
        "population": -1,
        "latitude": 14.0833333,
        "longitude": -89.5
    },
    {
        "name": "Cruzadilla de Vaqueranos",
        "country": "El Salvador",
        "province": "San Vicente",
        "population": -1,
        "latitude": 13.4333333,
        "longitude": -88.7833333
    },
    {
        "name": "Condadillo",
        "country": "El Salvador",
        "province": "La Unión",
        "population": -1,
        "latitude": 13.2,
        "longitude": -87.9333333
    },
    {
        "name": "Concepción de Oriente",
        "country": "El Salvador",
        "province": "La Unión",
        "population": -1,
        "latitude": 13.791389,
        "longitude": -87.716667
    },
    {
        "name": "Concepción de Ataco",
        "country": "El Salvador",
        "province": "Ahuachapán",
        "population": 7797,
        "latitude": 13.870278,
        "longitude": -89.848611
    },
    {
        "name": "Colima",
        "country": "El Salvador",
        "province": "Cuscatlán",
        "population": -1,
        "latitude": 14.05,
        "longitude": -89.1333333
    },
    {
        "name": "Cofradía Nueva",
        "country": "El Salvador",
        "province": "La Unión",
        "population": -1,
        "latitude": 13.3975,
        "longitude": -88.021111
    },
    {
        "name": "Ciricuario",
        "country": "El Salvador",
        "province": "La Unión",
        "population": -1,
        "latitude": 13.5,
        "longitude": -87.9833333
    },
    {
        "name": "Chimalapa",
        "country": "El Salvador",
        "province": "Santa Ana",
        "population": -1,
        "latitude": 14.35,
        "longitude": -89.45
    },
    {
        "name": "Chilín",
        "country": "El Salvador",
        "province": "Santa Ana",
        "population": -1,
        "latitude": 14.166667,
        "longitude": -89.383333
    },
    {
        "name": "Chilagual",
        "country": "El Salvador",
        "province": "La Unión",
        "population": -1,
        "latitude": 13.3166667,
        "longitude": -87.8666667
    },
    {
        "name": "Cerro de Las Flores",
        "country": "El Salvador",
        "province": "Sonsonate",
        "population": -1,
        "latitude": 13.7,
        "longitude": -89.6166667
    },
    {
        "name": "Ceiba de Guadalupe",
        "country": "El Salvador",
        "province": "La Libertad",
        "population": -1,
        "latitude": 13.6833333,
        "longitude": -89.25
    },
    {
        "name": "Casa de Tejas",
        "country": "El Salvador",
        "province": "Santa Ana",
        "population": -1,
        "latitude": 14.35,
        "longitude": -89.4166667
    },
    {
        "name": "Carpintero",
        "country": "El Salvador",
        "province": "La Unión",
        "population": -1,
        "latitude": 13.8666667,
        "longitude": -87.7833333
    },
    {
        "name": "Cara Sucia",
        "country": "El Salvador",
        "province": "Ahuachapán",
        "population": -1,
        "latitude": 13.7791667,
        "longitude": -90.0358333
    },
    {
        "name": "Cangrejera",
        "country": "El Salvador",
        "province": "La Libertad",
        "population": -1,
        "latitude": 13.4658333,
        "longitude": -89.1794444
    },
    {
        "name": "Candelaria",
        "country": "El Salvador",
        "province": "San Miguel",
        "population": -1,
        "latitude": 13.5333333,
        "longitude": -88.0333333
    },
    {
        "name": "Cañaverales",
        "country": "El Salvador",
        "province": "Morazán",
        "population": -1,
        "latitude": 13.95,
        "longitude": -88.1833333
    },
    {
        "name": "Campanero",
        "country": "El Salvador",
        "province": "Usulután",
        "population": -1,
        "latitude": 13.5333333,
        "longitude": -88.4833333
    },
    {
        "name": "Campamento Número Uno",
        "country": "El Salvador",
        "province": "Cabañas",
        "population": -1,
        "latitude": 13.983333,
        "longitude": -88.766667
    },
    {
        "name": "Campamento Número Dos",
        "country": "El Salvador",
        "province": "Cabañas",
        "population": -1,
        "latitude": 13.983333,
        "longitude": -88.75
    },
    {
        "name": "Calle Nueva",
        "country": "El Salvador",
        "province": "San Salvador",
        "population": -1,
        "latitude": 13.8591667,
        "longitude": -89.1669444
    },
    {
        "name": "Buenos Aires",
        "country": "El Salvador",
        "province": "Sonsonate",
        "population": -1,
        "latitude": 13.65,
        "longitude": -89.8833333
    },
    {
        "name": "Buena Vista",
        "country": "El Salvador",
        "province": "La Libertad",
        "population": -1,
        "latitude": 13.9291667,
        "longitude": -89.3894444
    },
    {
        "name": "Buena Vista",
        "country": "El Salvador",
        "province": "La Libertad",
        "population": -1,
        "latitude": 13.7,
        "longitude": -89.2833333
    },
    {
        "name": "Beneficio El Marquesado",
        "country": "El Salvador",
        "province": "Usulután",
        "population": -1,
        "latitude": 13.5,
        "longitude": -88.45
    },
    {
        "name": "Azacualpía de Gualcho",
        "country": "El Salvador",
        "province": "Usulután",
        "population": -1,
        "latitude": 13.633333,
        "longitude": -88.45
    },
    {
        "name": "Azacualpa",
        "country": "El Salvador",
        "province": "Sonsonate",
        "population": -1,
        "latitude": 13.7619444,
        "longitude": -89.5266667
    },
    {
        "name": "Arenales",
        "country": "El Salvador",
        "province": "San Miguel",
        "population": -1,
        "latitude": 13.4333333,
        "longitude": -88.3833333
    },
    {
        "name": "Ánimas",
        "country": "El Salvador",
        "province": "Cuscatlán",
        "population": -1,
        "latitude": 13.81,
        "longitude": -89.093889
    },
    {
        "name": "Anguiatú",
        "country": "El Salvador",
        "province": "Santa Ana",
        "population": -1,
        "latitude": 14.416667,
        "longitude": -89.466667
    },
    {
        "name": "Anal Arriba",
        "country": "El Salvador",
        "province": "Sonsonate",
        "population": -1,
        "latitude": 13.8038889,
        "longitude": -89.7311111
    },
    {
        "name": "Álvarez",
        "country": "El Salvador",
        "province": "La Libertad",
        "population": -1,
        "latitude": 13.733333,
        "longitude": -89.266667
    },
    {
        "name": "Alto El Roble",
        "country": "El Salvador",
        "province": "La Unión",
        "population": -1,
        "latitude": 13.3241667,
        "longitude": -87.9761111
    },
    {
        "name": "Aldea Zapote",
        "country": "El Salvador",
        "province": "Santa Ana",
        "population": -1,
        "latitude": 14.2833333,
        "longitude": -89.3833333
    },
    {
        "name": "Agua Zarca",
        "country": "El Salvador",
        "province": "Cabañas",
        "population": -1,
        "latitude": 13.8,
        "longitude": -88.8666667
    },
    {
        "name": "Agua Helada",
        "country": "El Salvador",
        "province": "San Salvador",
        "population": -1,
        "latitude": 13.9888889,
        "longitude": -89.2880556
    },
    {
        "name": "Zamorán",
        "country": "El Salvador",
        "province": "San Miguel",
        "population": -1,
        "latitude": 13.5,
        "longitude": -88.183333
    },
    {
        "name": "Zambombera",
        "country": "El Salvador",
        "province": "La Paz",
        "population": -1,
        "latitude": 13.45,
        "longitude": -89.1
    },
    {
        "name": "Zacamil",
        "country": "El Salvador",
        "province": "San Salvador",
        "population": -1,
        "latitude": 13.8983333,
        "longitude": -89.1969444
    },
    {
        "name": "El Volcancillo",
        "country": "El Salvador",
        "province": "La Unión",
        "population": -1,
        "latitude": 13.215,
        "longitude": -87.9316667
    },
    {
        "name": "Victoria",
        "country": "El Salvador",
        "province": "La Libertad",
        "population": -1,
        "latitude": 13.7158333,
        "longitude": -89.3011111
    },
    {
        "name": "Veracruz",
        "country": "El Salvador",
        "province": "San Salvador",
        "population": -1,
        "latitude": 13.7333333,
        "longitude": -89.1
    },
    {
        "name": "Finca Venecia",
        "country": "El Salvador",
        "province": "Santa Ana",
        "population": -1,
        "latitude": 13.9555556,
        "longitude": -89.44
    },
    {
        "name": "Valle El Aceituno",
        "country": "El Salvador",
        "province": "San Vicente",
        "population": -1,
        "latitude": 13.4833333,
        "longitude": -88.6833333
    },
    {
        "name": "Valle del Mascarón",
        "country": "El Salvador",
        "province": "Santa Ana",
        "population": -1,
        "latitude": 13.8666667,
        "longitude": -89.5833333
    },
    {
        "name": "Valeriano",
        "country": "El Salvador",
        "province": "Santa Ana",
        "population": -1,
        "latitude": 14.4,
        "longitude": -89.5
    },
    {
        "name": "Tutultepeque",
        "country": "El Salvador",
        "province": "San Salvador",
        "population": -1,
        "latitude": 13.8938889,
        "longitude": -89.2233333
    },
    {
        "name": "Trinchera",
        "country": "El Salvador",
        "province": "La Unión",
        "population": -1,
        "latitude": 13.4,
        "longitude": -87.9333333
    },
    {
        "name": "Tijeretas",
        "country": "El Salvador",
        "province": "Morazán",
        "population": -1,
        "latitude": 13.9166667,
        "longitude": -88.25
    },
    {
        "name": "Texuzín Chirizo",
        "country": "El Salvador",
        "province": "Ahuachapán",
        "population": -1,
        "latitude": 13.8,
        "longitude": -89.833333
    },
    {
        "name": "Terrero Blanco",
        "country": "El Salvador",
        "province": "La Unión",
        "population": -1,
        "latitude": 13.3986111,
        "longitude": -87.9625
    },
    {
        "name": "Terreritos",
        "country": "El Salvador",
        "province": "La Unión",
        "population": -1,
        "latitude": 13.7488889,
        "longitude": -87.8394444
    },
    {
        "name": "Teponaguaste",
        "country": "El Salvador",
        "province": "San Miguel",
        "population": -1,
        "latitude": 13.8,
        "longitude": -88.3166667
    },
    {
        "name": "Tepeagua",
        "country": "El Salvador",
        "province": "Chalatenango",
        "population": -1,
        "latitude": 14.05,
        "longitude": -89.2833333
    },
    {
        "name": "Tempisque",
        "country": "El Salvador",
        "province": "Usulután",
        "population": -1,
        "latitude": 13.6166667,
        "longitude": -88.55
    },
    {
        "name": "Tecoluca",
        "country": "El Salvador",
        "province": "Cuscatlán",
        "population": 2781,
        "latitude": 13.7891667,
        "longitude": -89.0052778
    },
    {
        "name": "Taquillo",
        "country": "El Salvador",
        "province": "La Libertad",
        "population": -1,
        "latitude": 13.5166667,
        "longitude": -89.4833333
    },
    {
        "name": "Taltapanca",
        "country": "El Salvador",
        "province": "Ahuachapán",
        "population": -1,
        "latitude": 13.8333333,
        "longitude": -89.7833333
    },
    {
        "name": "Tacubita",
        "country": "El Salvador",
        "province": "Ahuachapán",
        "population": -1,
        "latitude": 13.9,
        "longitude": -89.7833333
    },
    {
        "name": "Tabloncitos",
        "country": "El Salvador",
        "province": "Santa Ana",
        "population": -1,
        "latitude": 14.1,
        "longitude": -89.5833333
    },
    {
        "name": "Suquiat",
        "country": "El Salvador",
        "province": "Sonsonate",
        "population": -1,
        "latitude": 13.703889,
        "longitude": -89.656944
    },
    {
        "name": "Sumpul de Chacones",
        "country": "El Salvador",
        "province": "Chalatenango",
        "population": -1,
        "latitude": 14.25,
        "longitude": -89.0666667
    },
    {
        "name": "Sumpul de Avelares",
        "country": "El Salvador",
        "province": "Chalatenango",
        "population": -1,
        "latitude": 14.25,
        "longitude": -89.05
    },
    {
        "name": "Suchinango",
        "country": "El Salvador",
        "province": "San Salvador",
        "population": -1,
        "latitude": 13.785,
        "longitude": -89.2375
    },
    {
        "name": "Sitio de Santa Lucía",
        "country": "El Salvador",
        "province": "Usulután",
        "population": -1,
        "latitude": 13.2833333,
        "longitude": -88.55
    },
    {
        "name": "Sitio de San Antonio",
        "country": "El Salvador",
        "province": "Usulután",
        "population": -1,
        "latitude": 13.65,
        "longitude": -88.4833333
    },
    {
        "name": "Sitio de Los Nejapa",
        "country": "El Salvador",
        "province": "La Libertad",
        "population": -1,
        "latitude": 13.8919444,
        "longitude": -89.2727778
    },
    {
        "name": "Sisimitepet",
        "country": "El Salvador",
        "province": "Sonsonate",
        "population": -1,
        "latitude": 13.75,
        "longitude": -89.7166667
    },
    {
        "name": "Sihuapilapa",
        "country": "El Salvador",
        "province": "La Libertad",
        "population": -1,
        "latitude": 13.5666667,
        "longitude": -89.5666667
    },