[
    {
        "name": "Damascus",
        "country": "Syria",
        "province": "Dimashq",
        "population": 1569394,
        "latitude": 33.51019814679501,
        "longitude": 36.29127502441406
    },
    {
        "name": "Homs",
        "country": "Syria",
        "province": "Homs",
        "population": 775404,
        "latitude": 34.726818,
        "longitude": 36.723391
    },
    {
        "name": "Hama",
        "country": "Syria",
        "province": "Hama",
        "population": 460602,
        "latitude": 35.13179,
        "longitude": 36.757834
    },
    {
        "name": "Idlib",
        "country": "Syria",
        "province": "Idlib",
        "population": 128840,
        "latitude": 35.930616,
        "longitude": 36.63393
    },
    {
        "name": "Aleppo",
        "country": "Syria",
        "province": "Aleppo",
        "population": 2098210,
        "latitude": 36.201241,
        "longitude": 37.161173
    },
    {
        "name": "Latakia",
        "country": "Syria",
        "province": "Latakia",
        "population": 709000,
        "latitude": 35.531683,
        "longitude": 35.790106
    },
    {
        "name": "Al Bāb",
        "country": "Syria",
        "province": "Aleppo",
        "population": 130745,
        "latitude": 36.370506,
        "longitude": 37.515703
    },
    {
        "name": "Douma",
        "country": "Syria",
        "province": "Rif-dimashq",
        "population": 111864,
        "latitude": 33.571747,
        "longitude": 36.402701
    },
    {
        "name": "Dayr az Zawr",
        "country": "Syria",
        "province": "Deir ez-Zor",
        "population": 271800,
        "latitude": 35.335876,
        "longitude": 40.140844
    },
    {
        "name": "Rakka",
        "country": "Syria",
        "province": "Ar-Raqqah",
        "population": 531952,
        "latitude": 35.952829,
        "longitude": 39.007879
    },
    {
        "name": "Tartous",
        "country": "Syria",
        "province": "Tartus",
        "population": 458327,
        "latitude": 34.889022,
        "longitude": 35.886586
    },
    {
        "name": "Dar‘ā",
        "country": "Syria",
        "province": "Daraa",
        "population": 97969,
        "latitude": 32.618889,
        "longitude": 36.102134
    },
    {
        "name": "As-Suwayda",
        "country": "Syria",
        "province": "As-Suwayda",
        "population": 59052,
        "latitude": 32.708958,
        "longitude": 36.569513
    },
    {
        "name": "Al Ḩasakah",
        "country": "Syria",
        "province": "Al-Hasakah",
        "population": 422445,
        "latitude": 36.502368,
        "longitude": 40.747716
    },
    {
        "name": "Palmyra",
        "country": "Syria",
        "province": "Homs",
        "population": 51015,
        "latitude": 34.562399,
        "longitude": 38.284023
    },
    {
        "name": "Manbij",
        "country": "Syria",
        "province": "Aleppo",
        "population": 99497,
        "latitude": 36.528153,
        "longitude": 37.954954
    },
    {
        "name": "Ath Thawrah",
        "country": "Syria",
        "province": "Ar-Raqqah",
        "population": 87880,
        "latitude": 35.83758,
        "longitude": 38.54828
    },
    {
        "name": "Al Qunayţirah",
        "country": "Syria",
        "province": "Quneitra",
        "population": 36143,
        "latitude": 33.125945,
        "longitude": 35.824613
    },
    {
        "name": "Ālbū Kamāl",
        "country": "Syria",
        "province": "Deir ez-Zor",
        "population": 57572,
        "latitude": 34.452261,
        "longitude": 40.918544
    },
    {
        "name": "Kafranbel",
        "country": "Syria",
        "province": "Idlib",
        "population": 45652,
        "latitude": 35.613763,
        "longitude": 36.564488
    },
    {
        "name": "Jablah",
        "country": "Syria",
        "province": "Latakia",
        "population": 65915,
        "latitude": 35.362108,
        "longitude": 35.92759
    },
    {
        "name": "Inkhil",
        "country": "Syria",
        "province": "Daraa",
        "population": 29076,
        "latitude": 33.018093,
        "longitude": 36.128285
    },
    {
        "name": "Tallbīsah",
        "country": "Syria",
        "province": "Homs",
        "population": 38491,
        "latitude": 34.84072,
        "longitude": 36.730918
    },
    {
        "name": "Subaykhān",
        "country": "Syria",
        "province": "Deir ez-Zor",
        "population": 25514,
        "latitude": 34.853045,
        "longitude": 40.599873
    },
    {
        "name": "Salamiyah",
        "country": "Syria",
        "province": "Hama",
        "population": 94887,
        "latitude": 35.011273,
        "longitude": 37.053236
    },
    {
        "name": "Qanţarat Bişarī",
        "country": "Syria",
        "province": "Aleppo",
        "population": -1,
        "latitude": 36.750909,
        "longitude": 38.453737
    },
    {
        "name": "Kabbasin",
        "country": "Syria",
        "province": "Aleppo",
        "population": 51230,
        "latitude": 36.432742,
        "longitude": 37.568571
    },
    {
        "name": "Maşyāf",
        "country": "Syria",
        "province": "Hama",
        "population": 32262,
        "latitude": 35.065302,
        "longitude": 36.340603
    },
    {
        "name": "Dārayyā",
        "country": "Syria",
        "province": "Rif-dimashq",
        "population": 71596,
        "latitude": 33.458345,
        "longitude": 36.232559
    },
    {
        "name": "Azaz",
        "country": "Syria",
        "province": "Aleppo",
        "population": 66138,
        "latitude": 36.586624,
        "longitude": 37.046276
    },
    {
        "name": "‘Ayn al ‘Arab",
        "country": "Syria",
        "province": "Aleppo",
        "population": 50000,
        "latitude": 36.890952,
        "longitude": 38.353471
    },
    {
        "name": "At Tall",
        "country": "Syria",
        "province": "Rif-dimashq",
        "population": 55561,
        "latitude": 33.610329,
        "longitude": 36.310695
    },
    {
        "name": "As Safīrah",
        "country": "Syria",
        "province": "Aleppo",
        "population": 63708,
        "latitude": 36.07696,
        "longitude": 37.372512
    },
    {
        "name": "Ar Rastan",
        "country": "Syria",
        "province": "Homs",
        "population": 53152,
        "latitude": 34.926673,
        "longitude": 36.732413
    },
    {
        "name": "Al Quşayr",
        "country": "Syria",
        "province": "Homs",
        "population": 41062,
        "latitude": 34.507796,
        "longitude": 36.580287
    },
    {
        "name": "Al Qaryatayn",
        "country": "Syria",
        "province": "Homs",
        "population": 31748,
        "latitude": 34.229562,
        "longitude": 37.240658
    },
    {
        "name": "Al Mayādīn",
        "country": "Syria",
        "province": "Deir ez-Zor",
        "population": 54534,
        "latitude": 35.019819,
        "longitude": 40.451538
    },
    {
        "name": "Kūbalik",
        "country": "Syria",
        "province": "Aleppo",
        "population": -1,
        "latitude": 36.779964,
        "longitude": 38.170099
    },
    {
        "name": "Afrin",
        "country": "Syria",
        "province": "Aleppo",
        "population": 48693,
        "latitude": 36.511935,
        "longitude": 36.869541
    },
    {
        "name": "Abū al Layl",
        "country": "Syria",
        "province": "Deir ez-Zor",
        "population": -1,
        "latitude": 35.202535,
        "longitude": 40.371259
    },
    {
        "name": "Hajīn",
        "country": "Syria",
        "province": "Deir ez-Zor",
        "population": 29237,
        "latitude": 34.695083,
        "longitude": 40.831383
    },
    {
        "name": "Kūr Binār",
        "country": "Syria",
        "province": "Aleppo",
        "population": -1,
        "latitude": 36.825381,
        "longitude": 38.379196
    },
    {
        "name": "Kūr Mūmān",
        "country": "Syria",
        "province": "Aleppo",
        "population": -1,
        "latitude": 36.866257,
        "longitude": 38.270274
    },
    {
        "name": "Siftik al Ūlá",
        "country": "Syria",
        "province": "Aleppo",
        "population": -1,
        "latitude": 36.899667,
        "longitude": 38.225647
    },
    {
        "name": "Qabbāsīn",
        "country": "Syria",
        "province": "Aleppo",
        "population": 12000,
        "latitude": 36.307738,
        "longitude": 38.155976
    },
    {
        "name": "Khan Shaykhun",
        "country": "Syria",
        "province": "Idlib",
        "population": 48975,
        "latitude": 35.442083,
        "longitude": 36.650948
    },
    {
        "name": "Khabab",
        "country": "Syria",
        "province": "Daraa",
        "population": -1,
        "latitude": 33.012391,
        "longitude": 36.276804
    },
    {
        "name": "Kīkān",
        "country": "Syria",
        "province": "Aleppo",
        "population": -1,
        "latitude": 36.887676,
        "longitude": 38.417576
    },
    {
        "name": "Kayrīd",
        "country": "Syria",
        "province": "Aleppo",
        "population": -1,
        "latitude": 36.746177,
        "longitude": 38.233102
    },
    {
        "name": "Kafr Zaytā",
        "country": "Syria",
        "province": "Hama",
        "population": 21845,
        "latitude": 35.374251,
        "longitude": 36.603302
    },
    {
        "name": "Kafr Takhārīm",
        "country": "Syria",
        "province": "Idlib",
        "population": 22436,
        "latitude": 36.116802,
        "longitude": 36.515219
    },
    {
        "name": "Kafr Lāhā",
        "country": "Syria",
        "province": "Homs",
        "population": 21819,
        "latitude": 34.894686,
        "longitude": 36.495824
    },
    {
        "name": "Kafr Buhum",
        "country": "Syria",
        "province": "Hama",
        "population": -1,
        "latitude": 35.059646,
        "longitude": 36.699052
    },
    {
        "name": "Kafr Şaghīr",
        "country": "Syria",
        "province": "Aleppo",
        "population": 3130,
        "latitude": 36.292637,
        "longitude": 37.255899
    },
    {
        "name": "Jūm ‘Alī",
        "country": "Syria",
        "province": "Aleppo",
        "population": -1,
        "latitude": 36.862424,
        "longitude": 38.466969
    },
    {
        "name": "Jisr ash Shughūr",
        "country": "Syria",
        "province": "Idlib",
        "population": 39311,
        "latitude": 35.814184,
        "longitude": 36.319829
    },
    {
        "name": "Jayrūd",
        "country": "Syria",
        "province": "Rif-dimashq",
        "population": 32352,
        "latitude": 33.807093,
        "longitude": 36.738608
    },
    {
        "name": "Jarābulus",
        "country": "Syria",
        "province": "Aleppo",
        "population": 24997,
        "latitude": 36.8175,
        "longitude": 38.01111
    },
    {
        "name": "Izra‘",
        "country": "Syria",
        "province": "Daraa",
        "population": 13882,
        "latitude": 32.867086,
        "longitude": 36.250717
    },
    {
        "name": "Irbin",
        "country": "Syria",
        "province": "Rif-dimashq",
        "population": 42474,
        "latitude": 33.537192,
        "longitude": 36.36635
    },
    {
        "name": "Al Īzmū",
        "country": "Syria",
        "province": "Aleppo",
        "population": -1,
        "latitude": 36.166869,
        "longitude": 36.865037
    },
    {
        "name": "Khurkhurī",
        "country": "Syria",
        "province": "Aleppo",
        "population": -1,
        "latitude": 36.882558,
        "longitude": 38.17169
    },
    {
        "name": "Ḩarastā",
        "country": "Syria",
        "province": "Rif-dimashq",
        "population": 37348,
        "latitude": 33.558692,
        "longitude": 36.365153
    },
    {
        "name": "Ḩankush",
        "country": "Syria",
        "province": "Aleppo",
        "population": -1,
        "latitude": 36.759811,
        "longitude": 38.139143
    },
    {
        "name": "Ḩalfāyā",
        "country": "Syria",
        "province": "Hama",
        "population": 23403,
        "latitude": 35.260138,
        "longitude": 36.605808
    },
    {
        "name": "Ad Duraykīsh",
        "country": "Syria",
        "province": "Tartus",
        "population": 11918,
        "latitude": 34.895138,
        "longitude": 36.14303
    },
    {
        "name": "Dūnghūz",
        "country": "Syria",
        "province": "Aleppo",
        "population": -1,
        "latitude": 36.763098,
        "longitude": 38.255512
    },
    {
        "name": "Dunghūz Kabīr",
        "country": "Syria",
        "province": "Aleppo",
        "population": -1,
        "latitude": 36.751303,
        "longitude": 38.274359
    },
    {
        "name": "Jalīk",
        "country": "Syria",
        "province": "Aleppo",
        "population": -1,
        "latitude": 36.811447,
        "longitude": 38.467888
    },
    {
        "name": "Dībrak Kītkān",
        "country": "Syria",
        "province": "Aleppo",
        "population": -1,
        "latitude": 36.762827,
        "longitude": 38.412686
    },
    {
        "name": "Dayr Ḩāfir",
        "country": "Syria",
        "province": "Aleppo",
        "population": 28905,
        "latitude": 36.156942,
        "longitude": 37.707778
    },
    {
        "name": "Zawr Maghār",
        "country": "Syria",
        "province": "Aleppo",
        "population": -1,
        "latitude": 36.835437,
        "longitude": 38.033508
    },
    {
        "name": "Zārwīk",
        "country": "Syria",
        "province": "Aleppo",
        "population": -1,
        "latitude": 36.768554,
        "longitude": 38.299592
    },
    {
        "name": "Yadī Qābū",
        "country": "Syria",
        "province": "Aleppo",
        "population": -1,
        "latitude": 36.825744,
        "longitude": 38.321355
    },
    {
        "name": "Yabrūd",
        "country": "Syria",
        "province": "Rif-dimashq",
        "population": 40502,
        "latitude": 33.969208,
        "longitude": 36.657292
    },
    {
        "name": "‘Utaybah",
        "country": "Syria",
        "province": "Rif-dimashq",
        "population": -1,
        "latitude": 33.485064,
        "longitude": 36.608595
    },
    {
        "name": "Ţayyibat al Imām",
        "country": "Syria",
        "province": "Hama",
        "population": 29259,
        "latitude": 35.265919,
        "longitude": 36.712192
    },
    {
        "name": "Tayr Ma‘lah",
        "country": "Syria",
        "province": "Homs",
        "population": -1,
        "latitude": 34.802462,
        "longitude": 36.707602
    },
    {
        "name": "Tayrī",
        "country": "Syria",
        "province": "Aleppo",
        "population": -1,
        "latitude": 36.842195,
        "longitude": 38.469189
    },
    {
        "name": "Tall al Ḩajar Fawqānī",
        "country": "Syria",
        "province": "Aleppo",
        "population": -1,
        "latitude": 36.768836,
        "longitude": 38.490078
    },
    {
        "name": "Tall Rif‘at",
        "country": "Syria",
        "province": "Aleppo",
        "population": 25658,
        "latitude": 36.472293,
        "longitude": 37.094708
    },
    {
        "name": "Tallkalakh",
        "country": "Syria",
        "province": "Homs",
        "population": 29754,
        "latitude": 34.668416,
        "longitude": 36.259949
    },
    {
        "name": "Ta‘lik",
        "country": "Syria",
        "province": "Aleppo",
        "population": -1,
        "latitude": 36.780565,
        "longitude": 38.106901
    },
    {
        "name": "Tall Ghazāl",
        "country": "Syria",
        "province": "Aleppo",
        "population": -1,
        "latitude": 36.79539,
        "longitude": 38.364918
    },
    {
        "name": "Ţafshaw",
        "country": "Syria",
        "province": "Aleppo",
        "population": -1,
        "latitude": 36.774296,
        "longitude": 38.322947
    },
    {
        "name": "Ţafas",
        "country": "Syria",
        "province": "Daraa",
        "population": 31249,
        "latitude": 32.737086,
        "longitude": 36.06654
    },
    {
        "name": "Tādif",
        "country": "Syria",
        "province": "Aleppo",
        "population": 34670,
        "latitude": 36.348138,
        "longitude": 37.5309
    },
    {
        "name": "Al Ghaţţāsah",
        "country": "Syria",
        "province": "Aleppo",
        "population": -1,
        "latitude": 36.543973,
        "longitude": 37.583343
    },
    {
        "name": "Tabah Wayrān",
        "country": "Syria",
        "province": "Aleppo",
        "population": -1,
        "latitude": 36.781411,
        "longitude": 38.29649
    },
    {
        "name": "Şūrān",
        "country": "Syria",
        "province": "Hama",
        "population": 30716,
        "latitude": 35.291934,
        "longitude": 36.748479
    },
    {
        "name": "Sitīyah",
        "country": "Syria",
        "province": "Aleppo",
        "population": -1,
        "latitude": 36.813384,
        "longitude": 38.238719
    },
    {
        "name": "Shīrān",
        "country": "Syria",
        "province": "Aleppo",
        "population": -1,
        "latitude": 36.866768,
        "longitude": 38.426465
    },
    {
        "name": "Shaykh Miskīn",
        "country": "Syria",
        "province": "Daraa",
        "population": 25920,
        "latitude": 32.82666,
        "longitude": 36.160519
    },
    {
        "name": "Jārqilī Kabīr",
        "country": "Syria",
        "province": "Aleppo",
        "population": -1,
        "latitude": 36.85759,
        "longitude": 38.090689
    },
    {
        "name": "Ath Tha‘labīyah Şaghīrah",
        "country": "Syria",
        "province": "Aleppo",
        "population": -1,
        "latitude": 36.507007,
        "longitude": 37.740047
    },
    {
        "name": "Shāhīnjak",
        "country": "Syria",
        "province": "Aleppo",
        "population": -1,
        "latitude": 36.883163,
        "longitude": 38.400246
    },
    {
        "name": "Shahbā",
        "country": "Syria",
        "province": "As-Suwayda",
        "population": 14784,
        "latitude": 32.852369,
        "longitude": 36.628466
    },
    {
        "name": "Siftik al Wasaţī",
        "country": "Syria",
        "province": "Aleppo",
        "population": -1,
        "latitude": 36.909416,
        "longitude": 38.221517
    },
    {
        "name": "Sarāqib",
        "country": "Syria",
        "province": "Idlib",
        "population": 34231,
        "latitude": 35.864469,
        "longitude": 36.805909
    },
    {
        "name": "Salqīn",
        "country": "Syria",
        "province": "Idlib",
        "population": 31608,
        "latitude": 36.138653,
        "longitude": 36.452438
    },
    {
        "name": "Şāfītā",
        "country": "Syria",
        "province": "Tartus",
        "population": 27815,
        "latitude": 34.820993,
        "longitude": 36.117732
    },
    {
        "name": "Qūr Taḩtānī",
        "country": "Syria",
        "province": "Aleppo",
        "population": -1,
        "latitude": 36.78037,
        "longitude": 38.215186
    },
    {
        "name": "Qūrdīn",
        "country": "Syria",
        "province": "Aleppo",
        "population": -1,
        "latitude": 36.810506,
        "longitude": 38.377676
    },
    {
        "name": "Qirān",
        "country": "Syria",
        "province": "Aleppo",
        "population": -1,
        "latitude": 36.86103,
        "longitude": 38.112738
    },
    {
        "name": "Qawlā",
        "country": "Syria",
        "province": "Aleppo",
        "population": -1,
        "latitude": 36.858845,
        "longitude": 38.199495
    },
    {
        "name": "Qawshlī Taḩtānī",
        "country": "Syria",
        "province": "Aleppo",
        "population": -1,
        "latitude": 36.752195,
        "longitude": 38.178986
    },
    {
        "name": "Qawshlī Wasţānī",
        "country": "Syria",
        "province": "Aleppo",
        "population": -1,
        "latitude": 36.76382,
        "longitude": 38.188081
    },
    {
        "name": "Qawjalī Fawqānī",
        "country": "Syria",
        "province": "Aleppo",
        "population": -1,
        "latitude": 36.771609,
        "longitude": 38.199416
    },
    {
        "name": "Jāsim",
        "country": "Syria",
        "province": "Daraa",
        "population": 30283,
        "latitude": 32.991249,
        "longitude": 36.060932
    },
    {
        "name": "Al Khazafīyah",
        "country": "Syria",
        "province": "Aleppo",
        "population": -1,
        "latitude": 36.521692,
        "longitude": 36.573756
    },
    {
        "name": "Qarah Qūrī Taḩtānī",
        "country": "Syria",
        "province": "Aleppo",
        "population": -1,
        "latitude": 36.839004,
        "longitude": 38.166075
    },
    {
        "name": "Qarah Qūrī Fawqānī",
        "country": "Syria",
        "province": "Aleppo",
        "population": -1,
        "latitude": 36.857767,
        "longitude": 38.160868
    },
    {
        "name": "Qarah Mazra‘ah",
        "country": "Syria",
        "province": "Aleppo",
        "population": -1,
        "latitude": 36.802019,
        "longitude": 38.401013
    },
    {
        "name": "Qarah Ḩalinj",
        "country": "Syria",
        "province": "Aleppo",
        "population": -1,
        "latitude": 36.854141,
        "longitude": 38.379899
    },
    {
        "name": "Qarah Burghul",
        "country": "Syria",
        "province": "Aleppo",
        "population": -1,
        "latitude": 36.742763,
        "longitude": 38.335317
    },
    {
        "name": "Qārah",
        "country": "Syria",
        "province": "Rif-dimashq",
        "population": 20656,
        "latitude": 34.155584,
        "longitude": 36.742843
    },
    {
        "name": "Qanţarat Awkhān",
        "country": "Syria",
        "province": "Aleppo",
        "population": -1,
        "latitude": 36.833611,
        "longitude": 38.19503
    },
    {
        "name": "Crac des Chevaliers",
        "country": "Syria",
        "province": "Homs",
        "population": 356,
        "latitude": 34.7857522808754,
        "longitude": 36.2723922729492
    },
    {
        "name": "Qabājiq Şaghīr",
        "country": "Syria",
        "province": "Aleppo",
        "population": -1,
        "latitude": 36.80396,
        "longitude": 38.484223
    },
    {
        "name": "Qabājiq",
        "country": "Syria",
        "province": "Aleppo",
        "population": -1,
        "latitude": 36.82192,
        "longitude": 38.481717
    },
    {
        "name": "Nubl",
        "country": "Syria",
        "province": "Aleppo",
        "population": 25546,
        "latitude": 36.378667,
        "longitude": 36.99294
    },
    {
        "name": "Mirshad Bīnār",
        "country": "Syria",
        "province": "Aleppo",
        "population": -1,
        "latitude": 36.900775,
        "longitude": 38.297384
    },
    {
        "name": "Mūrak",
        "country": "Syria",
        "province": "Hama",
        "population": 14307,
        "latitude": 35.376155,
        "longitude": 36.689705
    },
    {
        "name": "Mūmān ‘Azū",
        "country": "Syria",
        "province": "Aleppo",
        "population": -1,
        "latitude": 36.871246,
        "longitude": 38.291144
    },
    {
        "name": "Mu‘aḑḑamīyat ash Shīḩ",
        "country": "Syria",
        "province": "Rif-dimashq",
        "population": -1,
        "latitude": 33.464656,
        "longitude": 36.201748
    },
    {
        "name": "Salwá",
        "country": "Syria",
        "province": "Aleppo",
        "population": -1,
        "latitude": 36.596401,
        "longitude": 37.714853
    },
    {
        "name": "Mazra‘at ‘Āmūd",
        "country": "Syria",
        "province": "Aleppo",
        "population": -1,
        "latitude": 36.891009,
        "longitude": 38.300605
    },
    {
        "name": "Makintār",
        "country": "Syria",
        "province": "Aleppo",
        "population": -1,
        "latitude": 36.833184,
        "longitude": 38.197888
    },
    {
        "name": "Ma‘arratmişrīn",
        "country": "Syria",
        "province": "Idlib",
        "population": 32163,
        "latitude": 36.01152,
        "longitude": 36.671827
    },
    {
        "name": "Dayr al ‘Aşāfīr",
        "country": "Syria",
        "province": "Rif-dimashq",
        "population": 6209,
        "latitude": 33.465852,
        "longitude": 36.42044
    },
    {
        "name": "Dawlī Dāq",
        "country": "Syria",
        "province": "Aleppo",
        "population": -1,
        "latitude": 36.863974,
        "longitude": 38.244915
    },
    {
        "name": "Bandīr Kabīr",
        "country": "Syria",
        "province": "Aleppo",
        "population": -1,
        "latitude": 36.810521,
        "longitude": 38.155323
    },
    {
        "name": "Darbāzīn Wasţānī",
        "country": "Syria",
        "province": "Aleppo",
        "population": -1,
        "latitude": 36.794363,
        "longitude": 38.124622
    },
    {
        "name": "Darbāzīn Taḩtānī - Hūrī",
        "country": "Syria",
        "province": "Aleppo",
        "population": -1,
        "latitude": 36.79639,
        "longitude": 38.135582
    },
    {
        "name": "Darbāzīn Fawqānī",
        "country": "Syria",
        "province": "Aleppo",
        "population": -1,
        "latitude": 36.803441,
        "longitude": 38.10959
    },
    {
        "name": "Ad Darbāsīyah",
        "country": "Syria",
        "province": "Al-Hasakah",
        "population": 21481,
        "latitude": 37.072792,
        "longitude": 40.651992
    },
    {
        "name": "Murayjāt",
        "country": "Syria",
        "province": "Al-Hasakah",
        "population": -1,
        "latitude": 37.144455,
        "longitude": 41.908901
    },
    {
        "name": "Dahāyik",
        "country": "Syria",
        "province": "Aleppo",
        "population": -1,
        "latitude": 36.872301,
        "longitude": 38.394892
    },
    {
        "name": "Bizāghah",
        "country": "Syria",
        "province": "Aleppo",
        "population": -1,
        "latitude": 36.380833,
        "longitude": 37.565016
    },
    {
        "name": "Būbān Kabīr",
        "country": "Syria",
        "province": "Aleppo",
        "population": -1,
        "latitude": 36.895723,
        "longitude": 38.196262
    },
    {
        "name": "Bosra",
        "country": "Syria",
        "province": "Daraa",
        "population": 1000,
        "latitude": 32.517398,
        "longitude": 36.48163
    },
    {
        "name": "Buşrá al Ḩarīr",
        "country": "Syria",
        "province": "Daraa",
        "population": -1,
        "latitude": 32.840155,
        "longitude": 36.341817
    },
    {
        "name": "Bţirghāmū",
        "country": "Syria",
        "province": "Latakia",
        "population": -1,
        "latitude": 35.426657,
        "longitude": 36.028461
    },
    {
        "name": "Basīqah al Gharbīyah",
        "country": "Syria",
        "province": "Latakia",
        "population": -1,
        "latitude": 35.501642,
        "longitude": 35.975642
    },
    {
        "name": "Binnish",
        "country": "Syria",
        "province": "Idlib",
        "population": 30354,
        "latitude": 35.956642,
        "longitude": 36.713802
    },
    {
        "name": "Batabo",
        "country": "Syria",
        "province": "Aleppo",
        "population": 25560,
        "latitude": 36.134471,
        "longitude": 36.739792
    },
    {
        "name": "Bāniyās",
        "country": "Syria",
        "province": "Tartus",
        "population": 39066,
        "latitude": 35.181881,
        "longitude": 35.948709
    },
    {
        "name": "Az Zabadānī",
        "country": "Syria",
        "province": "Rif-dimashq",
        "population": 29549,
        "latitude": 33.724881,
        "longitude": 36.100502
    },
    {
        "name": "‘Ayn az Zarqā",
        "country": "Syria",
        "province": "Tartus",
        "population": -1,
        "latitude": 34.753101,
        "longitude": 35.937747
    },
    {
        "name": "Awkhān",
        "country": "Syria",
        "province": "Aleppo",
        "population": -1,
        "latitude": 36.828832,
        "longitude": 38.191038
    },
    {
        "name": "Sūsān",
        "country": "Syria",
        "province": "Aleppo",
        "population": -1,
        "latitude": 36.878889,
        "longitude": 38.212492
    },
    {
        "name": "Aş Şanamayn",
        "country": "Syria",
        "province": "Daraa",
        "population": 25702,
        "latitude": 33.071859,
        "longitude": 36.183161
    },
    {
        "name": "Shaykh Jaybān",
        "country": "Syria",
        "province": "Aleppo",
        "population": -1,
        "latitude": 36.780909,
        "longitude": 38.409192
    },
    {
        "name": "Arsalān Ţāsh",
        "country": "Syria",
        "province": "Aleppo",
        "population": -1,
        "latitude": 36.848889,
        "longitude": 38.40808
    },
    {
        "name": "An Nabk",
        "country": "Syria",
        "province": "Rif-dimashq",
        "population": 49372,
        "latitude": 34.024027,
        "longitude": 36.728483
    },
    {
        "name": "Al Ghanţū",
        "country": "Syria",
        "province": "Homs",
        "population": 9412,
        "latitude": 34.822022,
        "longitude": 36.696135
    },
    {
        "name": "Al Quţayfah",
        "country": "Syria",
        "province": "Rif-dimashq",
        "population": 16118,
        "latitude": 33.738485,
        "longitude": 36.600706
    },
    {
        "name": "Al-Qamishli",
        "country": "Syria",
        "province": "Al-Hasakah",
        "population": -1,
        "latitude": 37.052152,
        "longitude": 41.231422
    },
    {
        "name": "Al Kiswah",
        "country": "Syria",
        "province": "Rif-dimashq",
        "population": 23526,
        "latitude": 33.358098,
        "longitude": 36.241898
    },
    {
        "name": "Jurtī Millānah",
        "country": "Syria",
        "province": "Aleppo",
        "population": -1,
        "latitude": 36.736967,
        "longitude": 38.330543
    },
    {
        "name": "Qilinjah Wayrān",
        "country": "Syria",
        "province": "Aleppo",
        "population": -1,
        "latitude": 36.756085,
        "longitude": 38.352193
    },
    {
        "name": "Bāstīk",
        "country": "Syria",
        "province": "Aleppo",
        "population": -1,
        "latitude": 36.794621,
        "longitude": 38.173923
    },
    {
        "name": "Kūrik",
        "country": "Syria",
        "province": "Aleppo",
        "population": -1,
        "latitude": 36.800087,
        "longitude": 38.282355
    },
    {
        "name": "Kul Ābār",
        "country": "Syria",
        "province": "Aleppo",
        "population": -1,
        "latitude": 36.820669,
        "longitude": 38.362612
    },
    {
        "name": "Kharāb Jīl",
        "country": "Syria",
        "province": "Aleppo",
        "population": -1,
        "latitude": 36.828968,
        "longitude": 38.461026
    },
    {
        "name": "Kūrtik Sirūj",
        "country": "Syria",
        "province": "Aleppo",
        "population": -1,
        "latitude": 36.851185,
        "longitude": 38.479666
    },
    {
        "name": "Māmayd",
        "country": "Syria",
        "province": "Aleppo",
        "population": -1,
        "latitude": 36.869613,
        "longitude": 38.326339
    },
    {
        "name": "Tirmīk Bījān",
        "country": "Syria",
        "province": "Aleppo",
        "population": -1,
        "latitude": 36.87097,
        "longitude": 38.34712
    },
    {
        "name": "Dayk Mādāsh",
        "country": "Syria",
        "province": "Aleppo",
        "population": -1,
        "latitude": 36.872236,
        "longitude": 38.141187
    },
    {
        "name": "Kūrānī",
        "country": "Syria",
        "province": "Aleppo",
        "population": -1,
        "latitude": 36.899403,
        "longitude": 38.267009
    },
    {
        "name": "Zawra‘awī",
        "country": "Syria",
        "province": "Aleppo",
        "population": -1,
        "latitude": 36.908268,
        "longitude": 38.260965
    },
    {
        "name": "Tremseh",
        "country": "Syria",
        "province": "Hama",
        "population": 6927,
        "latitude": 35.271808,
        "longitude": 36.503953
    },
    {
        "name": "Mawi Tahtani",
        "country": "Syria",
        "province": "Aleppo",
        "population": -1,
        "latitude": 36.828973,
        "longitude": 38.191254
    },
    {
        "name": "Qilqīlyā",
        "country": "Syria",
        "province": "Al-Hasakah",
        "population": -1,
        "latitude": 37.132435,
        "longitude": 42.003127
    },
    {
        "name": "Tall Aşfar",
        "country": "Syria",
        "province": "Al-Hasakah",
        "population": -1,
        "latitude": 37.07584,
        "longitude": 42.033088
    },
    {
        "name": "Al Ya‘rubīyah",
        "country": "Syria",
        "province": "Al-Hasakah",
        "population": -1,
        "latitude": 36.811384,
        "longitude": 42.062058
    },
    {
        "name": "Kāsān",
        "country": "Syria",
        "province": "Al-Hasakah",
        "population": -1,
        "latitude": 37.240384,
        "longitude": 42.260899
    },
    {
        "name": "Shamsīyah",
        "country": "Syria",
        "province": "Al-Hasakah",
        "population": -1,
        "latitude": 37.214098,
        "longitude": 42.10946
    },
    {
        "name": "Jibāb",
        "country": "Syria",
        "province": "Daraa",
        "population": -1,
        "latitude": 33.110758,
        "longitude": 36.26685
    },
    {
        "name": "Al Judaydah",
        "country": "Syria",
        "province": "Hama",
        "population": -1,
        "latitude": 35.549888,
        "longitude": 36.311558
    },
    {
        "name": "‘Alī Bajlīyah",
        "country": "Syria",
        "province": "Ar-Raqqah",
        "population": -1,
        "latitude": 36.543589,
        "longitude": 38.9848
    },
    {
        "name": "Ḩuwayz",
        "country": "Syria",
        "province": "Hama",
        "population": -1,
        "latitude": 35.49974,
        "longitude": 36.357722
    },
    {
        "name": "Huwayyā",
        "country": "Syria",
        "province": "As-Suwayda",
        "population": -1,
        "latitude": 32.555913,
        "longitude": 36.868296
    },
    {
        "name": "Hījānah",
        "country": "Syria",
        "province": "Rif-dimashq",
        "population": -1,
        "latitude": 33.357849,
        "longitude": 36.545024
    },
    {
        "name": "Al Ḩārah",
        "country": "Syria",
        "province": "Daraa",
        "population": -1,
        "latitude": 33.055934,
        "longitude": 36.004584
    },
    {
        "name": "Al Ḩarīk",
        "country": "Syria",
        "province": "Daraa",
        "population": -1,
        "latitude": 32.747834,
        "longitude": 36.298581
    },
    {
        "name": "Ḩamīdah",
        "country": "Syria",
        "province": "Aleppo",
        "population": -1,
        "latitude": 35.960743,
        "longitude": 37.106102
    },
    {
        "name": "Al Ḩalamūz",
        "country": "Syria",
        "province": "Homs",
        "population": -1,
        "latitude": 34.824099,
        "longitude": 36.675343
    },
    {
        "name": "Ḩafīr al Fawqā",
        "country": "Syria",
        "province": "Rif-dimashq",
        "population": -1,
        "latitude": 33.713273,
        "longitude": 36.475984
    },
    {
        "name": "Ghazzāwīyah",
        "country": "Syria",
        "province": "Aleppo",
        "population": -1,
        "latitude": 36.37604,
        "longitude": 36.841066
    },
    {
        "name": "Al Buwayḑah",
        "country": "Syria",
        "province": "Rif-dimashq",
        "population": -1,
        "latitude": 33.425949,
        "longitude": 36.320497
    },
    {
        "name": "Al Burayj",
        "country": "Syria",
        "province": "Homs",
        "population": -1,
        "latitude": 34.25755,
        "longitude": 36.771302
    },
    {
        "name": "Būr",
        "country": "Syria",
        "province": "Latakia",
        "population": -1,
        "latitude": 35.487152,
        "longitude": 36.130284
    },
    {
        "name": "Bughāz",
        "country": "Syria",
        "province": "Aleppo",
        "population": -1,
        "latitude": 36.472333,
        "longitude": 37.653361
    },
    {
        "name": "Mashrafat al Buwayr",
        "country": "Syria",
        "province": "Aleppo",
        "population": -1,
        "latitude": 36.605156,
        "longitude": 37.876274
    },
    {
        "name": "Baytarūn",
        "country": "Syria",
        "province": "Aleppo",
        "population": -1,
        "latitude": 36.25002,
        "longitude": 36.904178
    },
    {
        "name": "Baţrūnah",
        "country": "Syria",
        "province": "Rif-dimashq",
        "population": -1,
        "latitude": 33.652518,
        "longitude": 36.02214
    },
    {
        "name": "Al Badrūsīyah",
        "country": "Syria",
        "province": "Latakia",
        "population": -1,
        "latitude": 35.892119,
        "longitude": 35.895656
    },
    {
        "name": "Al ‘Aţanah",
        "country": "Syria",
        "province": "Rif-dimashq",
        "population": -1,
        "latitude": 33.847592,
        "longitude": 36.766347
    },
    {
        "name": "‘Amqīyah",
        "country": "Syria",
        "province": "Hama",
        "population": -1,
        "latitude": 35.57299,
        "longitude": 36.382261
    },
    {
        "name": "Al ‘Āmirīyah",
        "country": "Syria",
        "province": "Homs",
        "population": -1,
        "latitude": 34.645086,
        "longitude": 36.503787
    },
    {
        "name": "Qaryat al Manārah",
        "country": "Syria",
        "province": "Latakia",
        "population": -1,
        "latitude": 35.841319,
        "longitude": 35.825543
    },
    {
        "name": "Karād ad Dāsinīyah",
        "country": "Syria",
        "province": "Homs",
        "population": -1,
        "latitude": 34.838492,
        "longitude": 36.619381
    },
    {
        "name": "Al ‘Ajalāt",
        "country": "Syria",
        "province": "As-Suwayda",
        "population": -1,
        "latitude": 32.764881,
        "longitude": 36.781852
    },
    {
        "name": "Bayt Aḩmad Hilāl",
        "country": "Syria",
        "province": "Aleppo",
        "population": -1,
        "latitude": 36.288675,
        "longitude": 37.355168
    },
    {
        "name": "Dandānīyah",
        "country": "Syria",
        "province": "Aleppo",
        "population": -1,
        "latitude": 36.576988,
        "longitude": 37.763389
    },
    {
        "name": "Ad Dānā",
        "country": "Syria",
        "province": "Idlib",
        "population": 21987,
        "latitude": 36.212536,
        "longitude": 36.769982
    },
    {
        "name": "Abū Shaylam",
        "country": "Syria",
        "province": "Aleppo",
        "population": -1,
        "latitude": 36.141092,
        "longitude": 37.029213
    },
    {
        "name": "Tall Abū Rubayş",
        "country": "Syria",
        "province": "Hama",
        "population": -1,
        "latitude": 35.195406,
        "longitude": 36.512575
    },
    {
        "name": "Abū Qubays",
        "country": "Syria",
        "province": "Hama",
        "population": -1,
        "latitude": 35.235447,
        "longitude": 36.31479
    },
    {
        "name": "Abū Khanādiq",
        "country": "Syria",
        "province": "Aleppo",
        "population": -1,
        "latitude": 35.590123,
        "longitude": 37.230373
    },
    {
        "name": "Rubaytā",
        "country": "Syria",
        "province": "Idlib",
        "population": -1,
        "latitude": 36.157447,
        "longitude": 36.642341
    },
    {
        "name": "Abbūlī al ‘Arīḑ",
        "country": "Syria",
        "province": "Tartus",
        "population": -1,
        "latitude": 34.754813,
        "longitude": 36.048609
    },
    {
        "name": "Dābis",
        "country": "Syria",
        "province": "Aleppo",
        "population": -1,
        "latitude": 36.703728,
        "longitude": 37.956832
    },
    {
        "name": "Kūrāmāzā",
        "country": "Syria",
        "province": "Ar-Raqqah",
        "population": -1,
        "latitude": 36.534642,
        "longitude": 38.896767
    },
    {
        "name": "Kūr ‘Alī",
        "country": "Syria",
        "province": "Aleppo",
        "population": -1,
        "latitude": 36.891493,
        "longitude": 38.142315
    },
    {
        "name": "Kul Tabbah",
        "country": "Syria",
        "province": "Ar-Raqqah",
        "population": -1,
        "latitude": 36.753955,
        "longitude": 38.658961
    },
    {
        "name": "Kulmad",
        "country": "Syria",
        "province": "Aleppo",
        "population": -1,
        "latitude": 36.846326,
        "longitude": 38.318565
    },
    {
        "name": "Sinjār",
        "country": "Syria",
        "province": "Al-Hasakah",
        "population": -1,
        "latitude": 37.113649,
        "longitude": 41.924614
    },
    {
        "name": "Kafr Yābūs",
        "country": "Syria",
        "province": "Rif-dimashq",
        "population": -1,
        "latitude": 33.695799,
        "longitude": 36.007287
    },
    {
        "name": "Qubaybāt",
        "country": "Syria",
        "province": "Hama",
        "population": -1,
        "latitude": 35.204892,
        "longitude": 37.159389
    },
    {
        "name": "Kūsik",
        "country": "Syria",
        "province": "Aleppo",
        "population": -1,
        "latitude": 36.866626,
        "longitude": 38.482958
    },
    {
        "name": "Kirsanlah",
        "country": "Syria",
        "province": "Aleppo",
        "population": -1,
        "latitude": 36.660995,
        "longitude": 37.536483
    },
    {
        "name": "Tall az Ziyārāt",
        "country": "Syria",
        "province": "Al-Hasakah",
        "population": -1,
        "latitude": 37.05798,
        "longitude": 42.053473
    },
    {
        "name": "Khirbat ‘Adhbān",
        "country": "Syria",
        "province": "Al-Hasakah",
        "population": -1,
        "latitude": 37.156513,
        "longitude": 42.15473
    },
    {
        "name": "Tall ‘Alī",
        "country": "Syria",
        "province": "Aleppo",
        "population": -1,
        "latitude": 36.59874,
        "longitude": 37.738146
    },
    {
        "name": "Tall al Hawá",
        "country": "Syria",
        "province": "Al-Hasakah",
        "population": -1,
        "latitude": 37.060195,
        "longitude": 42.307907
    },
    {
        "name": "Kir Balāţ",
        "country": "Syria",
        "province": "Al-Hasakah",
        "population": -1,
        "latitude": 37.059573,
        "longitude": 42.309817
    },
    {
        "name": "Tall al Umarā’",
        "country": "Syria",
        "province": "Al-Hasakah",
        "population": -1,
        "latitude": 37.143635,
        "longitude": 42.217733
    },
    {
        "name": "Akmām",
        "country": "Syria",
        "province": "Homs",
        "population": -1,
        "latitude": 34.622658,
        "longitude": 36.614371
    },
    {
        "name": "Kul Kilinjah",
        "country": "Syria",
        "province": "Ar-Raqqah",
        "population": -1,
        "latitude": 36.538104,
        "longitude": 38.701444
    },
    {
        "name": "Kabbat Rabb",
        "country": "Syria",
        "province": "Aleppo",
        "population": -1,
        "latitude": 36.537184,
        "longitude": 38.445718
    },
    {
        "name": "Kushkhār",
        "country": "Syria",
        "province": "Aleppo",
        "population": -1,
        "latitude": 36.641716,
        "longitude": 38.692827
    },
    {
        "name": "Al Khurayţah",
        "country": "Syria",
        "province": "Deir ez-Zor",
        "population": -1,
        "latitude": 34.70014,
        "longitude": 40.793644
    },
    {
        "name": "Khirbat al Ḩayāt",
        "country": "Syria",
        "province": "Aleppo",
        "population": -1,
        "latitude": 36.429646,
        "longitude": 37.0129
    },
    {
        "name": "Khunayfis",
        "country": "Syria",
        "province": "Hama",
        "population": -1,
        "latitude": 34.951259,
        "longitude": 36.999345
    },
    {
        "name": "Bashār",
        "country": "Syria",
        "province": "Aleppo",
        "population": -1,
        "latitude": 36.475471,
        "longitude": 38.206479
    },
    {
        "name": "Khirbat ‘Ayyāsh",
        "country": "Syria",
        "province": "Homs",
        "population": -1,
        "latitude": 34.849544,
        "longitude": 37.18924
    },
    {
        "name": "Khirbat ‘Awwād",
        "country": "Syria",
        "province": "As-Suwayda",
        "population": -1,
        "latitude": 32.323546,
        "longitude": 36.711402
    },
    {
        "name": "Khirbat Dunyā",
        "country": "Syria",
        "province": "Latakia",
        "population": -1,
        "latitude": 35.391235,
        "longitude": 35.970737
    },
    {
        "name": "Khazīnah",
        "country": "Syria",
        "province": "Aleppo",
        "population": -1,
        "latitude": 36.780697,
        "longitude": 38.344413
    },
    {
        "name": "Kharkhar",
        "country": "Syria",
        "province": "Homs",
        "population": -1,
        "latitude": 34.767632,
        "longitude": 36.683974
    },
    {
        "name": "Kharāb Rāshik",
        "country": "Syria",
        "province": "Al-Hasakah",
        "population": -1,
        "latitude": 37.141599,
        "longitude": 42.335969
    },
    {
        "name": "Ḩayfā",
        "country": "Syria",
        "province": "Al-Hasakah",
        "population": -1,
        "latitude": 37.155942,
        "longitude": 42.292348
    },
    {
        "name": "Kharāb Mūs",
        "country": "Syria",
        "province": "Aleppo",
        "population": -1,
        "latitude": 36.778024,
        "longitude": 38.463353
    },
    {
        "name": "Khirbat ‘Askar",
        "country": "Syria",
        "province": "Aleppo",
        "population": -1,
        "latitude": 36.682166,
        "longitude": 37.615616
    },
    {
        "name": "Kharāb Kūrd",
        "country": "Syria",
        "province": "Aleppo",
        "population": -1,
        "latitude": 36.814647,
        "longitude": 38.448586
    },
    {
        "name": "Khālid",
        "country": "Syria",
        "province": "Al-Hasakah",
        "population": -1,
        "latitude": 37.074,
        "longitude": 42.371
    },
    {
        "name": "Khandaq al Gharbī",
        "country": "Syria",
        "province": "Hama",
        "population": -1,
        "latitude": 35.409909,
        "longitude": 36.307363
    },
    {
        "name": "Khan al-Assal",
        "country": "Syria",
        "province": "Aleppo",
        "population": -1,
        "latitude": 36.171345,
        "longitude": 37.039068
    },
    {
        "name": "Khān al Jabal",
        "country": "Syria",
        "province": "Al-Hasakah",
        "population": -1,
        "latitude": 37.083418,
        "longitude": 42.077586
    },
    {
        "name": "Khalţān Gharbī",
        "country": "Syria",
        "province": "Aleppo",
        "population": -1,
        "latitude": 36.481237,
        "longitude": 36.707474
    },
    {
        "name": "Khiḑr",
        "country": "Syria",
        "province": "Aleppo",
        "population": -1,
        "latitude": 36.746508,
        "longitude": 36.794974
    },
    {
        "name": "Kafrayn",
        "country": "Syria",
        "province": "Homs",
        "population": -1,
        "latitude": 34.714223,
        "longitude": 36.222123
    },
    {
        "name": "Kāzik",
        "country": "Syria",
        "province": "Aleppo",
        "population": -1,
        "latitude": 36.893712,
        "longitude": 38.401737
    },
    {
        "name": "Kaslajūk Turkumān",
        "country": "Syria",
        "province": "Latakia",
        "population": -1,
        "latitude": 35.930341,
        "longitude": 36.001772
    },
    {
        "name": "Al Kashmah",
        "country": "Syria",
        "province": "Deir ez-Zor",
        "population": -1,
        "latitude": 34.811322,
        "longitude": 40.601027
    },
    {
        "name": "Al Kashmah",
        "country": "Syria",
        "province": "Deir ez-Zor",
        "population": -1,
        "latitude": 34.621114,
        "longitude": 40.937538
    },
    {
        "name": "Al Kashf",
        "country": "Syria",
        "province": "Homs",
        "population": -1,
        "latitude": 34.399457,
        "longitude": 36.838857
    },
    {
        "name": "Ash Shāmīyah",
        "country": "Syria",
        "province": "Al-Hasakah",
        "population": -1,
        "latitude": 37.121475,
        "longitude": 42.134545
    },
    {
        "name": "Kafr Nāhā",
        "country": "Syria",
        "province": "Aleppo",
        "population": -1,
        "latitude": 36.168152,
        "longitude": 36.984577
    },
    {
        "name": "Kafr Lātah",
        "country": "Syria",
        "province": "Idlib",
        "population": -1,
        "latitude": 35.794775,
        "longitude": 36.628049
    },
    {
        "name": "Kafrayā",
        "country": "Syria",
        "province": "Idlib",
        "population": -1,
        "latitude": 35.990294,
        "longitude": 36.678159
    },
    {
        "name": "Kafr Dā‘il",
        "country": "Syria",
        "province": "Aleppo",
        "population": -1,
        "latitude": 36.216228,
        "longitude": 37.02075
    },
    {
        "name": "Kafr Tūn",
        "country": "Syria",
        "province": "Hama",
        "population": -1,
        "latitude": 35.158684,
        "longitude": 36.632019
    },
    {
        "name": "Kafr Ḩamrā",
        "country": "Syria",
        "province": "Aleppo",
        "population": -1,
        "latitude": 36.25279,
        "longitude": 37.079176
    },
    {
        "name": "Kabīr",
        "country": "Syria",
        "province": "Latakia",
        "population": -1,
        "latitude": 35.830477,
        "longitude": 36.009354
    },
    {
        "name": "Al Jumaymah",
        "country": "Syria",
        "province": "Aleppo",
        "population": -1,
        "latitude": 35.998923,
        "longitude": 37.102481
    },
    {
        "name": "Judaytī",
        "country": "Syria",
        "province": "Tartus",
        "population": -1,
        "latitude": 34.903872,
        "longitude": 35.925944
    },
    {
        "name": "Judaydat Yābūs",
        "country": "Syria",
        "province": "Rif-dimashq",
        "population": -1,
        "latitude": 33.654534,
        "longitude": 35.973372
    },
    {
        "name": "Judaydah",
        "country": "Syria",
        "province": "Homs",
        "population": -1,
        "latitude": 34.635065,
        "longitude": 36.800068
    },
    {
        "name": "Jubb Ghabshah",
        "country": "Syria",
        "province": "Aleppo",
        "population": -1,
        "latitude": 36.209556,
        "longitude": 37.404278
    },
    {
        "name": "Jubb al Ḩammām al Mustaḩī",
        "country": "Syria",
        "province": "Aleppo",
        "population": -1,
        "latitude": 36.305205,
        "longitude": 38.091613
    },
    {
        "name": "Al Jurdī al Gharbī",
        "country": "Syria",
        "province": "Deir ez-Zor",
        "population": -1,
        "latitude": 34.883603,
        "longitude": 40.602726
    },
    {
        "name": "Jābirīyah",
        "country": "Syria",
        "province": "Al-Hasakah",
        "population": -1,
        "latitude": 37.119615,
        "longitude": 41.959856
    },
    {
        "name": "Kuljibrīn",
        "country": "Syria",
        "province": "Aleppo",
        "population": -1,
        "latitude": 36.536758,
        "longitude": 37.117076
    },
    {
        "name": "Juwwānīyah",
        "country": "Syria",
        "province": "Idlib",
        "population": -1,
        "latitude": 36.085721,
        "longitude": 36.56888
    },
    {
        "name": "Jatāl Qābū",
        "country": "Syria",
        "province": "Aleppo",
        "population": -1,
        "latitude": 36.683858,
        "longitude": 36.749549
    },
    {
        "name": "Faţīm al ‘Arnūq",
        "country": "Syria",
        "province": "Homs",
        "population": -1,
        "latitude": 34.648552,
        "longitude": 36.971723
    },
    {
        "name": "Jalmidūn",
        "country": "Syria",
        "province": "Hama",
        "population": -1,
        "latitude": 35.161497,
        "longitude": 36.340328
    },
    {
        "name": "Jūbbāllī",
        "country": "Syria",
        "province": "Aleppo",
        "population": -1,
        "latitude": 36.477815,
        "longitude": 36.931854
    },
    {
        "name": "Ja‘farīyāt Fawqānī",
        "country": "Syria",
        "province": "Homs",
        "population": -1,
        "latitude": 34.685464,
        "longitude": 36.146478
    },
    {
        "name": "Tall Maḑīq",
        "country": "Syria",
        "province": "Aleppo",
        "population": -1,
        "latitude": 36.415022,
        "longitude": 37.290229
    },
    {
        "name": "Al ‘Īsawīyah",
        "country": "Syria",
        "province": "Latakia",
        "population": -1,
        "latitude": 35.803144,
        "longitude": 35.858825
    },
    {
        "name": "Imtān",
        "country": "Syria",
        "province": "As-Suwayda",
        "population": -1,
        "latitude": 32.419052,
        "longitude": 36.817292
    },
    {
        "name": "Al Lījāk",
        "country": "Syria",
        "province": "Aleppo",
        "population": -1,
        "latitude": 36.743817,
        "longitude": 38.096182
    },
    {
        "name": "Al Ḩajar",
        "country": "Syria",
        "province": "Tartus",
        "population": -1,
        "latitude": 34.722654,
        "longitude": 35.99979
    },
    {
        "name": "Iḩtaymilāt",
        "country": "Syria",
        "province": "Aleppo",
        "population": -1,
        "latitude": 36.565564,
        "longitude": 37.250673
    },
    {
        "name": "Ḩuraybil",
        "country": "Syria",
        "province": "Aleppo",
        "population": -1,
        "latitude": 36.132907,
        "longitude": 37.173449
    },
    {
        "name": "Hūlīlū",
        "country": "Syria",
        "province": "Aleppo",
        "population": -1,
        "latitude": 36.69058,
        "longitude": 36.694558
    },
    {
        "name": "Xelnêrê",
        "country": "Syria",
        "province": "Aleppo",
        "population": -1,
        "latitude": 36.523205,
        "longitude": 36.80374
    },
    {
        "name": "Ḩisyā’",
        "country": "Syria",
        "province": "Homs",
        "population": -1,
        "latitude": 34.411968,
        "longitude": 36.758671
    },
    {
        "name": "Al Amlas",
        "country": "Syria",
        "province": "Tartus",
        "population": -1,
        "latitude": 34.749791,
        "longitude": 36.143079
    },
    {
        "name": "Al ‘Īdīyah",
        "country": "Syria",
        "province": "Latakia",
        "population": -1,
        "latitude": 35.308777,
        "longitude": 35.958332
    },
    {
        "name": "Ḩayr Jāmūs Kabīr",
        "country": "Syria",
        "province": "Idlib",
        "population": -1,
        "latitude": 36.189381,
        "longitude": 36.420113
    },
    {
        "name": "Ḩayr Bzafah",
        "country": "Syria",
        "province": "Tartus",
        "population": -1,
        "latitude": 34.932389,
        "longitude": 36.146619
    },
    {
        "name": "Ḩawsh ar Rayḩān",
        "country": "Syria",
        "province": "Rif-dimashq",
        "population": -1,
        "latitude": 33.447622,
        "longitude": 36.300977
    },
    {
        "name": "‘Awsharīyah",
        "country": "Syria",
        "province": "Aleppo",
        "population": -1,
        "latitude": 36.655073,
        "longitude": 38.067382
    },
    {
        "name": "Ḩawsh al Baḩdalīyah",
        "country": "Syria",
        "province": "Rif-dimashq",
        "population": -1,
        "latitude": 33.436142,
        "longitude": 36.356707
    },
    {
        "name": "Ḩawsh al ‘Abbāsīyah",
        "country": "Syria",
        "province": "Rif-dimashq",
        "population": -1,
        "latitude": 33.340029,
        "longitude": 36.13344
    },
    {
        "name": "Hawā Huyūk",
        "country": "Syria",
        "province": "Aleppo",
        "population": -1,
        "latitude": 36.599003,
        "longitude": 37.669027
    },
    {
        "name": "Ḩawā",
        "country": "Syria",
        "province": "Idlib",
        "population": -1,
        "latitude": 35.526692,
        "longitude": 37.040745
    },
    {
        "name": "Al Ḩasrāt",
        "country": "Syria",
        "province": "Deir ez-Zor",
        "population": -1,
        "latitude": 34.61959,
        "longitude": 40.89883
    },
    {
        "name": "Ḩuraytān",
        "country": "Syria",
        "province": "Aleppo",
        "population": -1,
        "latitude": 36.288608,
        "longitude": 37.085269
    },
    {
        "name": "Ḩarbinafsah",
        "country": "Syria",
        "province": "Hama",
        "population": -1,
        "latitude": 34.937447,
        "longitude": 36.622431
    },
    {
        "name": "Ḩaklā",
        "country": "Syria",
        "province": "Aleppo",
        "population": -1,
        "latitude": 35.997357,
        "longitude": 37.541115
    },
    {
        "name": "Ḩammūrah",
        "country": "Syria",
        "province": "Rif-dimashq",
        "population": -1,
        "latitude": 33.527773,
        "longitude": 36.385824
    },
    {
        "name": "Al Ḩammām",
        "country": "Syria",
        "province": "Al-Hasakah",
        "population": -1,
        "latitude": 37.040991,
        "longitude": 42.169977
    },
    {
        "name": "Ḩammām Qarāḩilah",
        "country": "Syria",
        "province": "Latakia",
        "population": -1,
        "latitude": 35.291722,
        "longitude": 36.081639
    },
    {
        "name": "Mazra‘at Ḩalīsah",
        "country": "Syria",
        "province": "Aleppo",
        "population": -1,
        "latitude": 36.556875,
        "longitude": 37.652735
    },
    {
        "name": "Ḩalīşah",
        "country": "Syria",
        "province": "Aleppo",
        "population": -1,
        "latitude": 36.557342,
        "longitude": 37.662255
    },
    {
        "name": "Ḩajj Wālī",
        "country": "Syria",
        "province": "Aleppo",
        "population": -1,
        "latitude": 36.713728,
        "longitude": 37.599038
    },
    {
        "name": "Ḩājjī Maţar",
        "country": "Syria",
        "province": "Al-Hasakah",
        "population": -1,
        "latitude": 37.2,
        "longitude": 42.083333
    },
    {
        "name": "Ḩājj Qāsim",
        "country": "Syria",
        "province": "Aleppo",
        "population": -1,
        "latitude": 36.518569,
        "longitude": 36.671823
    },
    {
        "name": "Ḩafsarjah",
        "country": "Syria",
        "province": "Idlib",
        "population": -1,
        "latitude": 36.01863,
        "longitude": 36.52859
    },
    {
        "name": "Ghanţūr",
        "country": "Syria",
        "province": "Homs",
        "population": -1,
        "latitude": 34.395952,
        "longitude": 37.150586
    },
    {
        "name": "Al Ghārīyah ash Sharqīyah",
        "country": "Syria",
        "province": "Daraa",
        "population": -1,
        "latitude": 32.677446,
        "longitude": 36.25872
    },
    {
        "name": "Ghajar Amīr",
        "country": "Syria",
        "province": "Homs",
        "population": -1,
        "latitude": 34.893669,
        "longitude": 36.67894
    },
    {
        "name": "Ghabrah",
        "country": "Syria",
        "province": "Deir ez-Zor",
        "population": -1,
        "latitude": 34.537052,
        "longitude": 40.91114
    },
    {
        "name": "Al Fū‘ah",
        "country": "Syria",
        "province": "Idlib",
        "population": -1,
        "latitude": 35.982619,
        "longitude": 36.70351
    },
    {
        "name": "Tall Fayḑāt Kursī",
        "country": "Syria",
        "province": "Al-Hasakah",
        "population": -1,
        "latitude": 36.613582,
        "longitude": 41.734706
    },
    {
        "name": "Duwayr Ţāhā",
        "country": "Syria",
        "province": "Tartus",
        "population": -1,
        "latitude": 34.97109,
        "longitude": 35.916594
    },
    {
        "name": "Ad Duwayrinīyah",
        "country": "Syria",
        "province": "Aleppo",
        "population": -1,
        "latitude": 36.189428,
        "longitude": 37.281965
    },
    {
        "name": "Duwayr al Hawā",
        "country": "Syria",
        "province": "Aleppo",
        "population": -1,
        "latitude": 36.448671,
        "longitude": 37.365663
    },
    {
        "name": "Dūnīq",
        "country": "Syria",
        "province": "Aleppo",
        "population": -1,
        "latitude": 36.563912,
        "longitude": 37.274817
    },
    {
        "name": "Dunghūz Maghārah",
        "country": "Syria",
        "province": "Aleppo",
        "population": -1,
        "latitude": 36.536358,
        "longitude": 38.024837
    },
    {
        "name": "Dulq Maghārah",
        "country": "Syria",
        "province": "Ar-Raqqah",
        "population": -1,
        "latitude": 36.392828,
        "longitude": 38.657979
    },
    {
        "name": "Dirghāmū",
        "country": "Syria",
        "province": "Latakia",
        "population": -1,
        "latitude": 35.337886,
        "longitude": 35.998522
    },
    {
        "name": "Dīrwānā Āghā",
        "country": "Syria",
        "province": "Al-Hasakah",
        "population": -1,
        "latitude": 37.104745,
        "longitude": 41.803593
    },
    {
        "name": "Dayr Shumayl at Taḩtānī",
        "country": "Syria",
        "province": "Hama",
        "population": -1,
        "latitude": 35.211253,
        "longitude": 36.345381
    },
    {
        "name": "Dayr Salūnah",
        "country": "Syria",
        "province": "Idlib",
        "population": -1,
        "latitude": 36.162168,
        "longitude": 36.52967
    },
    {
        "name": "Dayr Khabīyah",
        "country": "Syria",
        "province": "Rif-dimashq",
        "population": -1,
        "latitude": 33.364027,
        "longitude": 36.159747
    },
    {
        "name": "Dayr ad Dijlah",
        "country": "Syria",
        "province": "Al-Hasakah",
        "population": -1,
        "latitude": 37.269178,
        "longitude": 42.285525
    },
    {
        "name": "Az Zurayqīyah",
        "country": "Syria",
        "province": "Rif-dimashq",
        "population": -1,
        "latitude": 33.231913,
        "longitude": 36.201725
    },
    {
        "name": "Zirā‘ah",
        "country": "Syria",
        "province": "Homs",
        "population": -1,
        "latitude": 34.456674,
        "longitude": 36.576602
    },
    {
        "name": "Zindī Kiyān",
        "country": "Syria",
        "province": "Aleppo",
        "population": -1,
        "latitude": 36.418655,
        "longitude": 36.694698
    },
    {
        "name": "Al Yanbū‘",
        "country": "Syria",
        "province": "Al-Hasakah",
        "population": -1,
        "latitude": 37.17681,
        "longitude": 42.269316
    },
    {
        "name": "Zarīk",
        "country": "Syria",
        "province": "Aleppo",
        "population": -1,
        "latitude": 36.770561,
        "longitude": 38.116676
    },
    {
        "name": "Zaytūnah",
        "country": "Syria",
        "province": "Latakia",
        "population": -1,
        "latitude": 35.786553,
        "longitude": 35.895192
    },
    {
        "name": "Ḩulaybīyah",
        "country": "Syria",
        "province": "Homs",
        "population": -1,
        "latitude": 34.657912,
        "longitude": 36.561573
    },
    {
        "name": "Az Zārah",
        "country": "Syria",
        "province": "Hama",
        "population": -1,
        "latitude": 34.919942,
        "longitude": 36.659811
    },
    {
        "name": "Zardanā",
        "country": "Syria",
        "province": "Idlib",
        "population": -1,
        "latitude": 36.045905,
        "longitude": 36.754289
    },
    {
        "name": "Zuhayrīyāt",
        "country": "Syria",
        "province": "Latakia",
        "population": -1,
        "latitude": 35.31368,
        "longitude": 35.930238
    },
    {
        "name": "Īlān",
        "country": "Syria",
        "province": "Aleppo",
        "population": -1,
        "latitude": 36.524618,
        "longitude": 37.721971
    },
    {
        "name": "Yarallī",
        "country": "Syria",
        "province": "Aleppo",
        "population": -1,
        "latitude": 36.684692,
        "longitude": 38.534501
    },
    {
        "name": "Wardak",
        "country": "Syria",
        "province": "Aleppo",
        "population": -1,
        "latitude": 36.908355,
        "longitude": 38.283177
    },
    {
        "name": "Waḑḩah al Jadīdah",
        "country": "Syria",
        "province": "Aleppo",
        "population": -1,
        "latitude": 36.032857,
        "longitude": 38.023806
    },
    {
        "name": "‘Uwayjīl",
        "country": "Syria",
        "province": "Aleppo",
        "population": -1,
        "latitude": 36.17975,
        "longitude": 36.953494
    },
    {
        "name": "Ūj Qanā al Qiblīyah",
        "country": "Syria",
        "province": "Aleppo",
        "population": -1,
        "latitude": 36.420478,
        "longitude": 38.07578
    },
    {
        "name": "Umm Ḑubayb",
        "country": "Syria",
        "province": "As-Suwayda",
        "population": -1,
        "latitude": 32.828005,
        "longitude": 36.74119
    },
    {
        "name": "Umm Ruwāq",
        "country": "Syria",
        "province": "As-Suwayda",
        "population": -1,
        "latitude": 32.787532,
        "longitude": 36.785111
    },
    {
        "name": "Umm Miyāl",
        "country": "Syria",
        "province": "Aleppo",
        "population": -1,
        "latitude": 36.464658,
        "longitude": 37.831958
    },
    {
        "name": "Umm al Mayādin",
        "country": "Syria",
        "province": "Daraa",
        "population": -1,
        "latitude": 32.585012,
        "longitude": 36.189745
    },
    {
        "name": "Umm al ‘Amad",
        "country": "Syria",
        "province": "Aleppo",
        "population": -1,
        "latitude": 36.352675,
        "longitude": 37.363669
    },
    {
        "name": "Umm al ‘Amad",
        "country": "Syria",
        "province": "Aleppo",
        "population": -1,
        "latitude": 36.182191,
        "longitude": 37.419017
    },
    {
        "name": "Umm ‘Adasat al Fārāt",
        "country": "Syria",
        "province": "Aleppo",
        "population": -1,
        "latitude": 36.601375,
        "longitude": 37.795241
    },
    {
        "name": "‘Amār al Ḩişn",
        "country": "Syria",
        "province": "Homs",
        "population": -1,
        "latitude": 34.753314,
        "longitude": 36.262544
    },
    {
        "name": "Tūtānik",
        "country": "Syria",
        "province": "Aleppo",
        "population": -1,
        "latitude": 36.677124,
        "longitude": 38.469701
    },
    {
        "name": "Umm aţ Ţuyūr",
        "country": "Syria",
        "province": "Latakia",
        "population": -1,
        "latitude": 35.759625,
        "longitude": 35.854097
    },
    {
        "name": "Turandah",
        "country": "Syria",
        "province": "Aleppo",
        "population": -1,
        "latitude": 36.495962,
        "longitude": 36.881508
    },
    {
        "name": "Ar Rābi‘ah",
        "country": "Syria",
        "province": "Al-Hasakah",
        "population": -1,
        "latitude": 37.070561,
        "longitude": 42.329276
    },
    {
        "name": "Aţ Ţunbur",
        "country": "Syria",
        "province": "Aleppo",
        "population": -1,
        "latitude": 36.274235,
        "longitude": 37.380139
    },
    {
        "name": "Tilāl al Ḩuşayn",
        "country": "Syria",
        "province": "Aleppo",
        "population": -1,
        "latitude": 36.615597,
        "longitude": 37.161019
    },
    {
        "name": "Thalthānah",
        "country": "Syria",
        "province": "Aleppo",
        "population": -1,
        "latitude": 36.445319,
        "longitude": 37.34367
    },
    {
        "name": "Ţāţḩummuş",
        "country": "Syria",
        "province": "Aleppo",
        "population": -1,
        "latitude": 36.61798,
        "longitude": 37.377221
    },
    {
        "name": "Tall al Ḩajar Taḩtānī",
        "country": "Syria",
        "province": "Aleppo",
        "population": -1,
        "latitude": 36.76497,
        "longitude": 38.520046
    },
    {
        "name": "Tall Ḩajar",
        "country": "Syria",
        "province": "Aleppo",
        "population": -1,
        "latitude": 36.611697,
        "longitude": 37.710687
    },
    {
        "name": "Tall Samn Missak",
        "country": "Syria",
        "province": "Ar-Raqqah",
        "population": -1,
        "latitude": 36.227857,
        "longitude": 38.97364
    },
    {
        "name": "Tall an Nahr",
        "country": "Syria",
        "province": "Hama",
        "population": -1,
        "latitude": 35.159722,
        "longitude": 36.58207
    },
    {
        "name": "Tall al Ghassālāt",
        "country": "Syria",
        "province": "Hama",
        "population": -1,
        "latitude": 35.012564,
        "longitude": 36.88328
    },
    {
        "name": "Tall Qarāḩ",
        "country": "Syria",
        "province": "Aleppo",
        "population": -1,
        "latitude": 36.374697,
        "longitude": 37.177914
    },
    {
        "name": "Tall Maksūr",
        "country": "Syria",
        "province": "Aleppo",
        "population": -1,
        "latitude": 36.239279,
        "longitude": 37.457111
    },
    {
        "name": "Tall Ḩājib",
        "country": "Syria",
        "province": "Aleppo",
        "population": -1,
        "latitude": 36.849977,
        "longitude": 38.439153
    },
    {
        "name": "Tall Ḩadīyah",
        "country": "Syria",
        "province": "Aleppo",
        "population": -1,
        "latitude": 35.99595,
        "longitude": 36.939075
    },
    {
        "name": "Tall Bījān",
        "country": "Syria",
        "province": "Aleppo",
        "population": -1,
        "latitude": 36.237151,
        "longitude": 37.624767
    },
    {
        "name": "Mamdūḩah",
        "country": "Syria",
        "province": "Al-Hasakah",
        "population": -1,
        "latitude": 37.180047,
        "longitude": 42.06046
    },
    {
        "name": "Ţuwayyil",
        "country": "Syria",
        "province": "Al-Hasakah",
        "population": -1,
        "latitude": 36.865939,
        "longitude": 41.574539
    },
    {
        "name": "‘Ayn ‘Assān",
        "country": "Syria",
        "province": "Aleppo",
        "population": -1,
        "latitude": 36.049825,
        "longitude": 37.223656
    },
    {
        "name": "Tall ‘Aran",
        "country": "Syria",
        "province": "Aleppo",
        "population": -1,
        "latitude": 36.123125,
        "longitude": 37.339986
    },
    {
        "name": "Tall ‘Ār Gharbī",
        "country": "Syria",
        "province": "Aleppo",
        "population": -1,
        "latitude": 36.579942,
        "longitude": 37.391378
    },
    {
        "name": "Tall an Nabī Mandū",
        "country": "Syria",
        "province": "Homs",
        "population": -1,
        "latitude": 34.556768,
        "longitude": 36.519195
    },
    {
        "name": "Al Khālidīyah",
        "country": "Syria",
        "province": "As-Suwayda",
        "population": -1,
        "latitude": 33.004049,
        "longitude": 36.643623
    },
    {
        "name": "Tall Jadīd",
        "country": "Syria",
        "province": "Hama",
        "population": -1,
        "latitude": 34.928357,
        "longitude": 37.246883
    },
    {
        "name": "Tall Ḩūdān",
        "country": "Syria",
        "province": "Aleppo",
        "population": -1,
        "latitude": 36.298855,
        "longitude": 38.048496
    },
    {
        "name": "Al ‘Uwayjā",
        "country": "Syria",
        "province": "Idlib",
        "population": -1,
        "latitude": 35.634329,
        "longitude": 37.021569
    },
    {
        "name": "Tall ‘Uwayjā",
        "country": "Syria",
        "province": "Idlib",
        "population": -1,
        "latitude": 35.650662,
        "longitude": 37.056624
    },
    {
        "name": "Thallājīn",
        "country": "Syria",
        "province": "Idlib",
        "population": -1,
        "latitude": 35.818222,
        "longitude": 37.058353
    },
    {
        "name": "Tabb ‘Īs",
        "country": "Syria",
        "province": "Idlib",
        "population": -1,
        "latitude": 35.914048,
        "longitude": 36.551513
    },
    {
        "name": "Suwayyaḩ",
        "country": "Syria",
        "province": "Deir ez-Zor",
        "population": -1,
        "latitude": 34.434152,
        "longitude": 40.934731
    },
    {
        "name": "Yāfā",
        "country": "Syria",
        "province": "Al-Hasakah",
        "population": -1,
        "latitude": 37.113183,
        "longitude": 42.167165
    },
    {
        "name": "As Suqaylibīyah",
        "country": "Syria",
        "province": "Hama",
        "population": -1,
        "latitude": 35.366741,
        "longitude": 36.393588
    },
    {
        "name": "Sunbul",
        "country": "Syria",
        "province": "Aleppo",
        "population": -1,
        "latitude": 36.48367,
        "longitude": 37.246228
    },
    {
        "name": "Şulayb at Turkumān",
        "country": "Syria",
        "province": "Latakia",
        "population": -1,
        "latitude": 35.687752,
        "longitude": 35.812727
    },
    {
        "name": "Şufayyān Aswad",
        "country": "Syria",
        "province": "Ar-Raqqah",
        "population": -1,
        "latitude": 36.552895,
        "longitude": 38.828876
    },
    {
        "name": "Asbaynah aş Şughrá",
        "country": "Syria",
        "province": "Rif-dimashq",
        "population": -1,
        "latitude": 33.439349,
        "longitude": 36.29009
    },
    {
        "name": "Asbaynah al Kubrá",
        "country": "Syria",
        "province": "Rif-dimashq",
        "population": -1,
        "latitude": 33.439216,
        "longitude": 36.281016
    },
    {
        "name": "Sqūbīn",
        "country": "Syria",
        "province": "Latakia",
        "population": -1,
        "latitude": 35.559324,
        "longitude": 35.830431
    },
    {
        "name": "Al Buşaylah",
        "country": "Syria",
        "province": "Aleppo",
        "population": -1,
        "latitude": 36.436601,
        "longitude": 36.926846
    },
    {
        "name": "Sitt Markhū",
        "country": "Syria",
        "province": "Latakia",
        "population": -1,
        "latitude": 35.584816,
        "longitude": 35.851072
    },
    {
        "name": "Sitt Khīris",
        "country": "Syria",
        "province": "Latakia",
        "population": -1,
        "latitude": 35.544023,
        "longitude": 35.876034
    },
    {
        "name": "As Sitt Ghāliyah",
        "country": "Syria",
        "province": "Latakia",
        "population": -1,
        "latitude": 35.649447,
        "longitude": 35.989516
    },
    {
        "name": "Ash Shuwayḩah",
        "country": "Syria",
        "province": "Aleppo",
        "population": -1,
        "latitude": 36.542807,
        "longitude": 37.610073
    },
    {
        "name": "Chūlāmah Tahtānī",
        "country": "Syria",
        "province": "Al-Hasakah",
        "population": -1,
        "latitude": 36.823139,
        "longitude": 40.788157
    },
    {
        "name": "Chulbārāt Taḩtānī",
        "country": "Syria",
        "province": "Al-Hasakah",
        "population": -1,
        "latitude": 36.865812,
        "longitude": 41.216985
    },
    {
        "name": "Shayzar",
        "country": "Syria",
        "province": "Hama",
        "population": -1,
        "latitude": 35.263008,
        "longitude": 36.561996
    },
    {
        "name": "Jatāl Ziyārah",
        "country": "Syria",
        "province": "Aleppo",
        "population": -1,
        "latitude": 36.422601,
        "longitude": 37.002667
    },
    {
        "name": "Sharakrak",
        "country": "Syria",
        "province": "Ar-Raqqah",
        "population": -1,
        "latitude": 36.432424,
        "longitude": 38.977654
    },
    {
        "name": "Shaqrā",
        "country": "Syria",
        "province": "Daraa",
        "population": -1,
        "latitude": 32.906085,
        "longitude": 36.238482
    },
    {
        "name": "Jāmūslīyah",
        "country": "Syria",
        "province": "Latakia",
        "population": -1,
        "latitude": 35.780361,
        "longitude": 35.958564
    },
    {
        "name": "Mazra‘at ash Shāţi’",
        "country": "Syria",
        "province": "Al-Hasakah",
        "population": -1,
        "latitude": 37.232538,
        "longitude": 42.337083
    },
    {
        "name": "Shāmīyat al Muhaylibah",
        "country": "Syria",
        "province": "Latakia",
        "population": -1,
        "latitude": 35.474276,
        "longitude": 35.903836
    },
    {
        "name": "Ḩajjān",
        "country": "Syria",
        "province": "Aleppo",
        "population": -1,
        "latitude": 36.647182,
        "longitude": 36.939353
    },
    {
        "name": "Shazār",
        "country": "Syria",
        "province": "Aleppo",
        "population": -1,
        "latitude": 36.563812,
        "longitude": 37.606557
    },
    {
        "name": "Şayyādīyah",
        "country": "Syria",
        "province": "Homs",
        "population": -1,
        "latitude": 34.677887,
        "longitude": 36.498896
    },
    {
        "name": "Sayf ‘Alī Fawqānī",
        "country": "Syria",
        "province": "Aleppo",
        "population": -1,
        "latitude": 36.770554,
        "longitude": 38.145706
    },
    {
        "name": "Aş Şayyādah al Kabīrah",
        "country": "Syria",
        "province": "Aleppo",
        "population": -1,
        "latitude": 36.554776,
        "longitude": 37.751403
    },
    {
        "name": "Al Bayyā‘ah",
        "country": "Syria",
        "province": "Aleppo",
        "population": -1,
        "latitude": 36.502586,
        "longitude": 36.745875
    },
    {
        "name": "Al Bustān",
        "country": "Syria",
        "province": "Al-Hasakah",
        "population": -1,
        "latitude": 37.140077,
        "longitude": 41.977337
    },
    {
        "name": "Şuḩār Ūshāghī",
        "country": "Syria",
        "province": "Aleppo",
        "population": -1,
        "latitude": 36.592138,
        "longitude": 36.676558
    },
    {
        "name": "As Sarāyā",
        "country": "Syria",
        "province": "Latakia",
        "population": -1,
        "latitude": 35.7823,
        "longitude": 35.963986
    },
    {
        "name": "Siqbā",
        "country": "Syria",
        "province": "Rif-dimashq",
        "population": -1,
        "latitude": 33.518927,
        "longitude": 36.383099
    },
    {
        "name": "As Sa‘nā",
        "country": "Syria",
        "province": "As-Suwayda",
        "population": -1,
        "latitude": 32.690339,
        "longitude": 36.841495
    },
    {
        "name": "Saylim",
        "country": "Syria",
        "province": "Aleppo",
        "population": -1,
        "latitude": 36.899346,
        "longitude": 38.16575
    },
    {
        "name": "Khayala",
        "country": "Syria",
        "province": "Ar-Raqqah",
        "population": -1,
        "latitude": 35.955406,
        "longitude": 38.789996
    },
    {
        "name": "Şalākhid",
        "country": "Syria",
        "province": "As-Suwayda",
        "population": 12842,
        "latitude": 32.871486,
        "longitude": 36.572841
    },
    {
        "name": "Bayt Ḩannūn",
        "country": "Syria",
        "province": "Al-Hasakah",
        "population": -1,
        "latitude": 37.027411,
        "longitude": 41.918573
    },
    {
        "name": "Şāghir",
        "country": "Syria",
        "province": "Aleppo",
        "population": -1,
        "latitude": 36.702867,
        "longitude": 36.780803
    },
    {
        "name": "Aş Şafşāfah",
        "country": "Syria",
        "province": "Hama",
        "population": -1,
        "latitude": 35.686568,
        "longitude": 36.261004
    },
    {
        "name": "Şafīrah Fawqānī",
        "country": "Syria",
        "province": "Deir ez-Zor",
        "population": -1,
        "latitude": 35.410938,
        "longitude": 40.120488
    },
    {
        "name": "Safarīyah",
        "country": "Syria",
        "province": "Aleppo",
        "population": -1,
        "latitude": 36.33897,
        "longitude": 36.618484
    },
    {
        "name": "Sābwayrān as Sunbulah",
        "country": "Syria",
        "province": "Aleppo",
        "population": -1,
        "latitude": 36.51741,
        "longitude": 37.655377
    },
    {
        "name": "Sab‘ Shukūr",
        "country": "Syria",
        "province": "Al-Hasakah",
        "population": -1,
        "latitude": 36.420254,
        "longitude": 40.856139
    },
    {
        "name": "Aş Şabbūrah",
        "country": "Syria",
        "province": "Rif-dimashq",
        "population": -1,
        "latitude": 33.514905,
        "longitude": 36.124989
    },
    {
        "name": "Ruwayḩīnah",
        "country": "Syria",
        "province": "Quneitra",
        "population": -1,
        "latitude": 33.082941,
        "longitude": 35.871732
    },
    {
        "name": "Ar Ruḩaybah",
        "country": "Syria",
        "province": "Al-Hasakah",
        "population": -1,
        "latitude": 37.115217,
        "longitude": 42.057094
    },
    {
        "name": "Ruwaysat al Qissīs",
        "country": "Syria",
        "province": "Latakia",
        "population": -1,
        "latitude": 35.627974,
        "longitude": 35.981222
    },
    {
        "name": "Al Ḩamī",
        "country": "Syria",
        "province": "Latakia",
        "population": -1,
        "latitude": 35.426822,
        "longitude": 35.987517
    },
    {
        "name": "Rityān",
        "country": "Syria",
        "province": "Aleppo",
        "population": -1,
        "latitude": 36.346805,
        "longitude": 37.092197
    },
    {
        "name": "Rablah",
        "country": "Syria",
        "province": "Homs",
        "population": -1,
        "latitude": 34.452334,
        "longitude": 36.559115
    },
    {
        "name": "Rasm as Sayālah",
        "country": "Syria",
        "province": "Aleppo",
        "population": -1,
        "latitude": 35.756348,
        "longitude": 37.415904
    },
    {
        "name": "Rasm al Mustaḩī al Ḩūdān",
        "country": "Syria",
        "province": "Aleppo",
        "population": -1,
        "latitude": 36.300352,
        "longitude": 38.123839
    },
    {
        "name": "Rasm al ‘Alam",
        "country": "Syria",
        "province": "Aleppo",
        "population": -1,
        "latitude": 36.252971,
        "longitude": 37.437935
    },
    {
        "name": "Qushlah",
        "country": "Syria",
        "province": "Aleppo",
        "population": -1,
        "latitude": 36.367538,
        "longitude": 36.60666
    },
    {
        "name": "Al Quşaybah",
        "country": "Syria",
        "province": "Quneitra",
        "population": -1,
        "latitude": 32.979235,
        "longitude": 35.958483
    },
    {
        "name": "Al Qurţ",
        "country": "Syria",
        "province": "Aleppo",
        "population": -1,
        "latitude": 36.506903,
        "longitude": 37.702392
    },
    {
        "name": "Ad Dīb al Kabīr",
        "country": "Syria",
        "province": "Aleppo",
        "population": -1,
        "latitude": 36.581419,
        "longitude": 36.886425
    },
    {
        "name": "Al Quraymānīyah",
        "country": "Syria",
        "province": "Latakia",
        "population": -1,
        "latitude": 35.551376,
        "longitude": 35.967952
    },
    {
        "name": "Qur‘ah Şaghīrah",
        "country": "Syria",
        "province": "Aleppo",
        "population": -1,
        "latitude": 36.431473,
        "longitude": 37.98291
    },
    {
        "name": "Al Qunayţirah",
        "country": "Syria",
        "province": "Al-Hasakah",
        "population": -1,
        "latitude": 37.028496,
        "longitude": 41.885161
    },
    {
        "name": "Qūljiq",
        "country": "Syria",
        "province": "Latakia",
        "population": -1,
        "latitude": 35.814231,
        "longitude": 36.049274
    },
    {
        "name": "Al Qādirīyah",
        "country": "Syria",
        "province": "Al-Hasakah",
        "population": -1,
        "latitude": 37.234436,
        "longitude": 42.231927
    },
    {
        "name": "Qurūşū al Fawqā",
        "country": "Syria",
        "province": "Latakia",
        "population": -1,
        "latitude": 35.448387,
        "longitude": 36.002823
    },
    {
        "name": "Qizil Jūrat ‘Abbūd",
        "country": "Syria",
        "province": "Latakia",
        "population": -1,
        "latitude": 35.729593,
        "longitude": 35.985709
    },
    {
        "name": "Qumḩānah",
        "country": "Syria",
        "province": "Hama",
        "population": -1,
        "latitude": 35.197507,
        "longitude": 36.733674
    },
    {
        "name": "Qumaydiyānī",
        "country": "Syria",
        "province": "Tartus",
        "population": -1,
        "latitude": 35.253039,
        "longitude": 35.961485
    },
    {
        "name": "Al Kāwuklī",
        "country": "Syria",
        "province": "Aleppo",
        "population": -1,
        "latitude": 36.49029,
        "longitude": 37.683631
    },
    {
        "name": "Qūlsurūj",
        "country": "Syria",
        "province": "Aleppo",
        "population": -1,
        "latitude": 36.417461,
        "longitude": 37.261167
    },
    {
        "name": "Qawāl",
        "country": "Syria",
        "province": "Aleppo",
        "population": -1,
        "latitude": 36.856969,
        "longitude": 38.343332
    },
    {
        "name": "Qaţanā",
        "country": "Syria",
        "province": "Rif-dimashq",
        "population": 18511,
        "latitude": 33.437569,
        "longitude": 36.078879
    },
    {
        "name": "Qazam Qişşah Jik",
        "country": "Syria",
        "province": "Aleppo",
        "population": -1,
        "latitude": 36.634124,
        "longitude": 37.349253
    },
    {
        "name": "Qaşr ad Dīb",
        "country": "Syria",
        "province": "Al-Hasakah",
        "population": -1,
        "latitude": 37.229073,
        "longitude": 42.139744
    },
    {
        "name": "Qasmīn",
        "country": "Syria",
        "province": "Latakia",
        "population": -1,
        "latitude": 35.634023,
        "longitude": 35.904595
    },
    {
        "name": "Ad Daflah",
        "country": "Syria",
        "province": "Latakia",
        "population": -1,
        "latitude": 35.834384,
        "longitude": 35.869274
    },
    {
        "name": "As Suwaydah",
        "country": "Syria",
        "province": "Aleppo",
        "population": -1,
        "latitude": 36.672775,
        "longitude": 37.784919
    },
    {
        "name": "Al Ḩarājīyah",
        "country": "Syria",
        "province": "Latakia",
        "population": -1,
        "latitude": 35.744959,
        "longitude": 35.875139
    },
    {
        "name": "Fallāḩah",
        "country": "Syria",
        "province": "Latakia",
        "population": -1,
        "latitude": 35.801056,
        "longitude": 35.900029
    },
    {
        "name": "Al Qāqi‘īyah",
        "country": "Syria",
        "province": "Latakia",
        "population": -1,
        "latitude": 35.536522,
        "longitude": 35.955156
    },
    {
        "name": "Jubb ad Dam - Qānlī Qūy",
        "country": "Syria",
        "province": "Aleppo",
        "population": -1,
        "latitude": 36.506677,
        "longitude": 37.618352
    },
    {
        "name": "Qanjarah",
        "country": "Syria",
        "province": "Latakia",
        "population": -1,
        "latitude": 35.579902,
        "longitude": 35.817365
    },
    {
        "name": "Al Fanīyah",
        "country": "Syria",
        "province": "Idlib",
        "population": -1,
        "latitude": 35.92194974,
        "longitude": 36.31958601
    },
    {
        "name": "Al Qanayyah",
        "country": "Syria",
        "province": "Homs",
        "population": -1,
        "latitude": 34.849345,
        "longitude": 36.658852
    },
    {
        "name": "Al Qunayyah",
        "country": "Syria",
        "province": "Daraa",
        "population": -1,
        "latitude": 33.011747,
        "longitude": 36.184491
    },
    {
        "name": "Qanawāt",
        "country": "Syria",
        "province": "As-Suwayda",
        "population": -1,
        "latitude": 32.754031,
        "longitude": 36.614487
    },
    {
        "name": "Qanāt ash Shaykh Ţabsh",
        "country": "Syria",
        "province": "Aleppo",
        "population": -1,
        "latitude": 36.503569,
        "longitude": 37.917857
    },
    {
        "name": "An Nahḑah",
        "country": "Syria",
        "province": "Aleppo",
        "population": -1,
        "latitude": 36.612455,
        "longitude": 37.56018
    },
    {
        "name": "Qalb Lawzah",
        "country": "Syria",
        "province": "Idlib",
        "population": -1,
        "latitude": 36.169552,
        "longitude": 36.58065
    },
    {
        "name": "Qal‘at al ‘Ulayqah",
        "country": "Syria",
        "province": "Tartus",
        "population": -1,
        "latitude": 35.176758,
        "longitude": 36.126007
    },
    {
        "name": "Qabw al ‘Awwāmīyah",
        "country": "Syria",
        "province": "Latakia",
        "population": -1,
        "latitude": 35.441759,
        "longitude": 35.917226
    },
    {
        "name": "Qabr as Sitt",
        "country": "Syria",
        "province": "Rif-dimashq",
        "population": -1,
        "latitude": 33.4466,
        "longitude": 36.336413
    },
    {
        "name": "Al Maḩabbīyah",
        "country": "Syria",
        "province": "Aleppo",
        "population": -1,
        "latitude": 36.660738,
        "longitude": 36.872061
    },
    {
        "name": "An Nayrab",
        "country": "Syria",
        "province": "Aleppo",
        "population": -1,
        "latitude": 36.175648,
        "longitude": 37.227956
    },
    {
        "name": "Mashrafat al Khanāzīr",
        "country": "Syria",
        "province": "Idlib",
        "population": -1,
        "latitude": 35.481297,
        "longitude": 36.948773
    },
    {
        "name": "Mushayrifat as Sāmūk",
        "country": "Syria",
        "province": "Latakia",
        "population": -1,
        "latitude": 35.601546,
        "longitude": 35.857769
    },
    {
        "name": "Al Mushayrifah",
        "country": "Syria",
        "province": "Homs",
        "population": -1,
        "latitude": 34.65646,
        "longitude": 36.361839
    },
    {
        "name": "Mazra‘at ash Shaykh Ya‘qūb",
        "country": "Syria",
        "province": "Aleppo",
        "population": -1,
        "latitude": 36.664174,
        "longitude": 37.502983
    },
    {
        "name": "Mukharram at Taḩtānī",
        "country": "Syria",
        "province": "Homs",
        "population": -1,
        "latitude": 34.852055,
        "longitude": 37.049241
    },
    {
        "name": "Mukharram al Fawqānī",
        "country": "Syria",
        "province": "Homs",
        "population": 9112,
        "latitude": 34.815213,
        "longitude": 37.086766
    },
    {
        "name": "Mishkaw",
        "country": "Syria",
        "province": "Aleppo",
        "population": -1,
        "latitude": 36.830319,
        "longitude": 38.115874
    },
    {
        "name": "Aş Şiḩḩīyah",
        "country": "Syria",
        "province": "Al-Hasakah",
        "population": -1,
        "latitude": 37.122059,
        "longitude": 42.093525
    },
    {
        "name": "Mīnās",
        "country": "Syria",
        "province": "Aleppo",
        "population": -1,
        "latitude": 36.875372,
        "longitude": 38.302066
    },
    {
        "name": "Mazūghlī",
        "country": "Syria",
        "province": "Latakia",
        "population": -1,
        "latitude": 35.764778,
        "longitude": 36.172181
    },
    {
        "name": "Mazra‘at aṣ Şūfī",
        "country": "Syria",
        "province": "Aleppo",
        "population": -1,
        "latitude": 36.802685,
        "longitude": 38.350027
    },
    {
        "name": "Mazra‘at Muslim",
        "country": "Syria",
        "province": "Al-Hasakah",
        "population": -1,
        "latitude": 37.276983,
        "longitude": 42.243102
    },
    {
        "name": "Mazra‘at Şaghīr",
        "country": "Syria",
        "province": "Aleppo",
        "population": -1,
        "latitude": 36.882391,
        "longitude": 38.296128
    },
    {
        "name": "Mazra‘at al Ward",
        "country": "Syria",
        "province": "Aleppo",
        "population": -1,
        "latitude": 36.460212,
        "longitude": 37.248338
    },
    {
        "name": "Al ‘Alā",
        "country": "Syria",
        "province": "Aleppo",
        "population": -1,
        "latitude": 36.523453,
        "longitude": 37.397913
    },
    {
        "name": "Al ‘Āmirīyah",
        "country": "Syria",
        "province": "Aleppo",
        "population": -1,
        "latitude": 36.565938,
        "longitude": 37.521194
    },
    {
        "name": "Al Maydān",
        "country": "Syria",
        "province": "Aleppo",
        "population": -1,
        "latitude": 36.641971,
        "longitude": 36.88346
    },
    {
        "name": "Al Hāmah",
        "country": "Syria",
        "province": "Al-Hasakah",
        "population": -1,
        "latitude": 37.128093,
        "longitude": 42.251196
    },
    {
        "name": "Masakānlī",
        "country": "Syria",
        "province": "Aleppo",
        "population": -1,
        "latitude": 36.690617,
        "longitude": 36.656088
    },
    {
        "name": "Mushayrifat al Tūtūn",
        "country": "Syria",
        "province": "Aleppo",
        "population": -1,
        "latitude": 36.124916,
        "longitude": 37.946351
    },
    {
        "name": "Mashqītā",
        "country": "Syria",
        "province": "Latakia",
        "population": -1,
        "latitude": 35.668228,
        "longitude": 35.90297
    },
    {
        "name": "Mi‘şarat Juqq",
        "country": "Syria",
        "province": "Aleppo",
        "population": -1,
        "latitude": 36.548139,
        "longitude": 36.665648
    },
    {
        "name": "‘Abbūdān",
        "country": "Syria",
        "province": "Aleppo",
        "population": -1,
        "latitude": 36.753801,
        "longitude": 36.913748
    },
    {
        "name": "Marj az Zawīyah",
        "country": "Syria",
        "province": "Latakia",
        "population": -1,
        "latitude": 35.753459,
        "longitude": 36.128865
    },
    {
        "name": "Marj Sulţān",
        "country": "Syria",
        "province": "Rif-dimashq",
        "population": -1,
        "latitude": 33.493264,
        "longitude": 36.469322
    },
    {
        "name": "Qayşarīyah al Taḩtānī",
        "country": "Syria",
        "province": "Al-Hasakah",
        "population": -1,
        "latitude": 37.147217,
        "longitude": 42.189768
    },
    {
        "name": "Umm ash Shahrāyā",
        "country": "Syria",
        "province": "Aleppo",
        "population": -1,
        "latitude": 36.67327,
        "longitude": 37.632815
    },
    {
        "name": "Ma‘lūlā",
        "country": "Syria",
        "province": "Rif-dimashq",
        "population": 5000,
        "latitude": 33.845287,
        "longitude": 36.545138
    },
    {
        "name": "Mazra‘at Jāmūs al Gharbīyah",
        "country": "Syria",
        "province": "Al-Hasakah",
        "population": -1,
        "latitude": 37.07829,
        "longitude": 42.261836
    },
    {
        "name": "Al Maḩmūdīyah",
        "country": "Syria",
        "province": "Aleppo",
        "population": -1,
        "latitude": 36.766822,
        "longitude": 36.866754
    },
    {
        "name": "Maḩajjah",
        "country": "Syria",
        "province": "Daraa",
        "population": -1,
        "latitude": 32.956281,
        "longitude": 36.220576
    },
    {
        "name": "Ma‘arrzāf",
        "country": "Syria",
        "province": "Hama",
        "population": -1,
        "latitude": 35.204046,
        "longitude": 36.55536
    },
    {
        "name": "Ma‘arrīn",
        "country": "Syria",
        "province": "Aleppo",
        "population": -1,
        "latitude": 36.621645,
        "longitude": 37.032443
    },
    {
        "name": "Umm Ḩawsh",
        "country": "Syria",
        "province": "Aleppo",
        "population": -1,
        "latitude": 36.411675,
        "longitude": 37.212522
    },
    {
        "name": "Ma‘arr Dibsah",
        "country": "Syria",
        "province": "Idlib",
        "population": -1,
        "latitude": 35.778877,
        "longitude": 36.769819
    },
    {
        "name": "Ma‘arrat an Nu‘mān",
        "country": "Syria",
        "province": "Idlib",
        "population": -1,
        "latitude": 35.648298,
        "longitude": 36.676932
    },
    {
        "name": "Maqarrat al Ikhwān",
        "country": "Syria",
        "province": "Idlib",
        "population": -1,
        "latitude": 36.064424,
        "longitude": 36.670806
    },
    {
        "name": "Ra’s al Ma‘arrah",
        "country": "Syria",
        "province": "Rif-dimashq",
        "population": -1,
        "latitude": 33.999622,
        "longitude": 36.558148
    },
    {
        "name": "Maghārat al Artīq",
        "country": "Syria",
        "province": "Aleppo",
        "population": -1,
        "latitude": 36.252181,
        "longitude": 37.053976
    },
    {
        "name": "Ma‘arrbūnah",
        "country": "Syria",
        "province": "Idlib",
        "population": -1,
        "latitude": 36.058036,
        "longitude": 36.622506
    },
    {
        "name": "Ma‘rānat al Muslimīyah",
        "country": "Syria",
        "province": "Aleppo",
        "population": -1,
        "latitude": 36.339278,
        "longitude": 37.198709
    },
    {
        "name": "Mughārat al Khāsikī",
        "country": "Syria",
        "province": "Idlib",
        "population": -1,
        "latitude": 36.035178,
        "longitude": 36.837279
    },
    {
        "name": "Līlawah",
        "country": "Syria",
        "province": "Aleppo",
        "population": -1,
        "latitude": 36.699594,
        "longitude": 37.735855
    },