[
    {
        "name": "Dushanbe",
        "country": "Tajikistan",
        "province": "Dushanbe",
        "population": 679400,
        "latitude": 38.5357458822238,
        "longitude": 68.77904891967773
    },
    {
        "name": "Vahdat",
        "country": "Tajikistan",
        "province": "Republican Subordination",
        "population": 45693,
        "latitude": 38.556319,
        "longitude": 69.013545
    },
    {
        "name": "Khujand",
        "country": "Tajikistan",
        "province": "Sughd",
        "population": 191000,
        "latitude": 40.28256,
        "longitude": 69.622155
    },
    {
        "name": "Qayroqqum",
        "country": "Tajikistan",
        "province": "Sughd",
        "population": 49200,
        "latitude": 40.265982,
        "longitude": 69.795851
    },
    {
        "name": "Tursunzoda",
        "country": "Tajikistan",
        "province": "Republican Subordination",
        "population": 37000,
        "latitude": 38.512707,
        "longitude": 68.231632
    },
    {
        "name": "Kurgan-Tyube",
        "country": "Tajikistan",
        "province": "Khatlon",
        "population": 110800,
        "latitude": 37.836667,
        "longitude": 68.7775
    },
    {
        "name": "Istaravshan",
        "country": "Tajikistan",
        "province": "Sughd",
        "population": 273500,
        "latitude": 39.914204,
        "longitude": 69.003275
    },
    {
        "name": "Kŭlob",
        "country": "Tajikistan",
        "province": "Khatlon",
        "population": 214700,
        "latitude": 37.914585,
        "longitude": 69.784544
    },
    {
        "name": "Konibodom",
        "country": "Tajikistan",
        "province": "Sughd",
        "population": 211100,
        "latitude": 40.294144,
        "longitude": 70.431224
    },
    {
        "name": "Isfara",
        "country": "Tajikistan",
        "province": "Sughd",
        "population": 274000,
        "latitude": 40.126485,
        "longitude": 70.625257
    },
    {
        "name": "Panjakent",
        "country": "Tajikistan",
        "province": "Sughd",
        "population": 35085,
        "latitude": 39.495245,
        "longitude": 67.609313
    },
    {
        "name": "Khorugh",
        "country": "Tajikistan",
        "province": "Gorno-Badakhshan",
        "population": 30500,
        "latitude": 37.489744,
        "longitude": 71.553045
    },
    {
        "name": "Buston",
        "country": "Tajikistan",
        "province": "Sughd",
        "population": 36900,
        "latitude": 40.234166,
        "longitude": 69.694812
    },
    {
        "name": "Shahritus",
        "country": "Tajikistan",
        "province": "Khatlon",
        "population": 13042,
        "latitude": 37.262065,
        "longitude": 68.138492
    },
    {
        "name": "Panj",
        "country": "Tajikistan",
        "province": "Khatlon",
        "population": 8019,
        "latitude": 37.236341,
        "longitude": 69.09911
    },
    {
        "name": "Novobod",
        "country": "Tajikistan",
        "province": "Republican Subordination",
        "population": 5352,
        "latitude": 39.010837,
        "longitude": 70.150825
    },
    {
        "name": "Murghab",
        "country": "Tajikistan",
        "province": "Gorno-Badakhshan",
        "population": 10815,
        "latitude": 38.170228,
        "longitude": 73.966736
    },
    {
        "name": "Mŭ’minobod",
        "country": "Tajikistan",
        "province": "Khatlon",
        "population": 11955,
        "latitude": 38.107144,
        "longitude": 70.03213
    },
    {
        "name": "Bokhtariyon",
        "country": "Tajikistan",
        "province": "Khatlon",
        "population": 7900,
        "latitude": 37.881758,
        "longitude": 68.729701
    },
    {
        "name": "Abdurahmoni Jomí",
        "country": "Tajikistan",
        "province": "Khatlon",
        "population": 9943,
        "latitude": 37.946359,
        "longitude": 68.80878
    },
    {
        "name": "Kolkhozobod",
        "country": "Tajikistan",
        "province": "Khatlon",
        "population": 18476,
        "latitude": 37.588232,
        "longitude": 68.658864
    },
    {
        "name": "Ishqoshim",
        "country": "Tajikistan",
        "province": "Gorno-Badakhshan",
        "population": 26000,
        "latitude": 36.724836,
        "longitude": 71.613311
    },
    {
        "name": "Hulbuk",
        "country": "Tajikistan",
        "province": "Khatlon",
        "population": 21736,
        "latitude": 37.805421,
        "longitude": 69.645163
    },
    {
        "name": "Vorukh",
        "country": "Tajikistan",
        "province": "Sughd",
        "population": 3836,
        "latitude": 39.851254,
        "longitude": 70.58012
    },
    {
        "name": "Taboshar",
        "country": "Tajikistan",
        "province": "Sughd",
        "population": 17600,
        "latitude": 40.570175,
        "longitude": 69.641753
    },
    {
        "name": "Proletar",
        "country": "Tajikistan",
        "province": "Sughd",
        "population": 16441,
        "latitude": 40.167126,
        "longitude": 69.501631
    },
    {
        "name": "Konsoy",
        "country": "Tajikistan",
        "province": "Sughd",
        "population": 6000,
        "latitude": 40.491549,
        "longitude": 69.702446
    },
    {
        "name": "Adrasmon",
        "country": "Tajikistan",
        "province": "Sughd",
        "population": 13372,
        "latitude": 40.649278,
        "longitude": 69.984718
    },
    {
        "name": "Avzikent",
        "country": "Tajikistan",
        "province": "Khatlon",
        "population": 10373,
        "latitude": 37.8033333,
        "longitude": 69.2772222
    },
    {
        "name": "Mazori Hazrati Sulmon",
        "country": "Tajikistan",
        "province": "Khatlon",
        "population": -1,
        "latitude": 38.474224,
        "longitude": 70.073455
    },
    {
        "name": "Sovet",
        "country": "Tajikistan",
        "province": "Khatlon",
        "population": 8695,
        "latitude": 38.046702,
        "longitude": 69.588216
    },
    {
        "name": "Shahrinav",
        "country": "Tajikistan",
        "province": "Republican Subordination",
        "population": 5385,
        "latitude": 38.570848,
        "longitude": 68.334978
    },
    {
        "name": "Sarikhosor",
        "country": "Tajikistan",
        "province": "Khatlon",
        "population": 5894,
        "latitude": 38.538521,
        "longitude": 69.830766
    },
    {
        "name": "Pinyon",
        "country": "Tajikistan",
        "province": "Sughd",
        "population": -1,
        "latitude": 39.219366,
        "longitude": 68.500316
    },
    {
        "name": "Yak May Qit’a",
        "country": "Tajikistan",
        "province": "Khatlon",
        "population": -1,
        "latitude": 37.498654,
        "longitude": 68.144069
    },
    {
        "name": "Farkhor",
        "country": "Tajikistan",
        "province": "Khatlon",
        "population": 21736,
        "latitude": 37.492188,
        "longitude": 69.403557
    },
    {
        "name": "Obigarm",
        "country": "Tajikistan",
        "province": "Republican Subordination",
        "population": 7400,
        "latitude": 38.71731,
        "longitude": 69.708854
    },
    {
        "name": "Norak",
        "country": "Tajikistan",
        "province": "Khatlon",
        "population": 18122,
        "latitude": 38.389166,
        "longitude": 69.322716
    },
    {
        "name": "Panji Poyon",
        "country": "Tajikistan",
        "province": "Khatlon",
        "population": -1,
        "latitude": 37.194435,
        "longitude": 68.577211
    },
    {
        "name": "Nijoní",
        "country": "Tajikistan",
        "province": "Sughd",
        "population": -1,
        "latitude": 39.959431,
        "longitude": 68.924212
    },
    {
        "name": "Muchun",
        "country": "Tajikistan",
        "province": "Sughd",
        "population": -1,
        "latitude": 39.881484,
        "longitude": 69.182185
    },
    {
        "name": "Langar",
        "country": "Tajikistan",
        "province": "Gorno-Badakhshan",
        "population": -1,
        "latitude": 37.052376,
        "longitude": 72.671689
    },
    {
        "name": "Qizilrabot",
        "country": "Tajikistan",
        "province": "Gorno-Badakhshan",
        "population": -1,
        "latitude": 37.472179,
        "longitude": 74.805329
    },
    {
        "name": "Kirov",
        "country": "Tajikistan",
        "province": "Khatlon",
        "population": 7696,
        "latitude": 37.819081,
        "longitude": 68.85905
    },
    {
        "name": "Kholdorqiggchoq",
        "country": "Tajikistan",
        "province": "Sughd",
        "population": -1,
        "latitude": 39.836572,
        "longitude": 68.835006
    },
    {
        "name": "Karakenja",
        "country": "Tajikistan",
        "province": "Republican Subordination",
        "population": 2899,
        "latitude": 39.235846,
        "longitude": 71.524116
    },
    {
        "name": "Hisor",
        "country": "Tajikistan",
        "province": "Republican Subordination",
        "population": 23978,
        "latitude": 38.525045,
        "longitude": 68.551236
    },
    {
        "name": "Rasht",
        "country": "Tajikistan",
        "province": "Republican Subordination",
        "population": 10771,
        "latitude": 39.028715,
        "longitude": 70.374459
    },
    {
        "name": "Jelondi",
        "country": "Tajikistan",
        "province": "Gorno-Badakhshan",
        "population": -1,
        "latitude": 37.574813,
        "longitude": 72.5916
    },
    {
        "name": "Jilikŭl",
        "country": "Tajikistan",
        "province": "Khatlon",
        "population": 5434,
        "latitude": 37.491667,
        "longitude": 68.531056
    },
    {
        "name": "Dŭstí",
        "country": "Tajikistan",
        "province": "Khatlon",
        "population": 8700,
        "latitude": 37.348122,
        "longitude": 68.663983
    },
    {
        "name": "Danghara",
        "country": "Tajikistan",
        "province": "Khatlon",
        "population": 22824,
        "latitude": 38.095778,
        "longitude": 69.339978
    },
    {
        "name": "Dalyoni Bolo",
        "country": "Tajikistan",
        "province": "Sughd",
        "population": -1,
        "latitude": 39.748971,
        "longitude": 68.995659
    },
    {
        "name": "Chubek",
        "country": "Tajikistan",
        "province": "Khatlon",
        "population": 19563,
        "latitude": 37.614532,
        "longitude": 69.705246
    },
    {
        "name": "Chorbogh",
        "country": "Tajikistan",
        "province": "Sughd",
        "population": -1,
        "latitude": 39.42621,
        "longitude": 67.760249
    },
    {
        "name": "Boshchorbogh",
        "country": "Tajikistan",
        "province": "Khatlon",
        "population": 4237,
        "latitude": 37.52027,
        "longitude": 68.128245
    },
    {
        "name": "Bŭstonqal’a",
        "country": "Tajikistan",
        "province": "Khatlon",
        "population": 4900,
        "latitude": 37.847829,
        "longitude": 68.831252
    },
    {
        "name": "Boshkengash",
        "country": "Tajikistan",
        "province": "Dushanbe",
        "population": 23696,
        "latitude": 38.466128,
        "longitude": 68.805329
    },
    {
        "name": "Bichrav",
        "country": "Tajikistan",
        "province": "Gorno-Badakhshan",
        "population": -1,
        "latitude": 38.18799,
        "longitude": 71.990948
    },
    {
        "name": "Boshqal’a",
        "country": "Tajikistan",
        "province": "Khatlon",
        "population": -1,
        "latitude": 37.464708,
        "longitude": 68.169465
    },
    {
        "name": "Ayní",
        "country": "Tajikistan",
        "province": "Sughd",
        "population": 2128,
        "latitude": 39.394064,
        "longitude": 68.537658
    },
    {
        "name": "Andarbog",
        "country": "Tajikistan",
        "province": "Gorno-Badakhshan",
        "population": -1,
        "latitude": 38.232324,
        "longitude": 71.544203
    },
    {
        "name": "Yorí",
        "country": "Tajikistan",
        "province": "Sughd",
        "population": -1,
        "latitude": 39.504814,
        "longitude": 67.869814
    },
    {
        "name": "Yovon",
        "country": "Tajikistan",
        "province": "Khatlon",
        "population": 17471,
        "latitude": 38.314083,
        "longitude": 69.037841
    },
    {
        "name": "Varzob",
        "country": "Tajikistan",
        "province": "Republican Subordination",
        "population": 2154,
        "latitude": 38.77369230006019,
        "longitude": 68.81775856018066
    },
    {
        "name": "Vakhsh",
        "country": "Tajikistan",
        "province": "Khatlon",
        "population": 15215,
        "latitude": 37.714852,
        "longitude": 68.834563
    },
    {
        "name": "Toktamush",
        "country": "Tajikistan",
        "province": "Gorno-Badakhshan",
        "population": -1,
        "latitude": 37.829864,
        "longitude": 74.648894
    },
    {
        "name": "Shŭrob",
        "country": "Tajikistan",
        "province": "Sughd",
        "population": 2900,
        "latitude": 40.04605,
        "longitude": 70.541168
    },
    {
        "name": "Neftobod",
        "country": "Tajikistan",
        "province": "Sughd",
        "population": 4603,
        "latitude": 40.215244,
        "longitude": 70.571931
    },
    {
        "name": "Nov",
        "country": "Tajikistan",
        "province": "Sughd",
        "population": 13833,
        "latitude": 40.152199,
        "longitude": 69.370764
    },
    {
        "name": "Quruqsoy",
        "country": "Tajikistan",
        "province": "Sughd",
        "population": 3400,
        "latitude": 40.576478,
        "longitude": 69.379619
    },
    {
        "name": "Kulkent",
        "country": "Tajikistan",
        "province": "Sughd",
        "population": -1,
        "latitude": 40.143429,
        "longitude": 70.70202
    },
    {
        "name": "Kim",
        "country": "Tajikistan",
        "province": "Sughd",
        "population": 1600,
        "latitude": 40.207981,
        "longitude": 70.468824
    },
    {
        "name": "Khushtoirijar",
        "country": "Tajikistan",
        "province": "Sughd",
        "population": -1,
        "latitude": 40.020906,
        "longitude": 69.149892
    },
    {
        "name": "Qistaqŭz",
        "country": "Tajikistan",
        "province": "Sughd",
        "population": -1,
        "latitude": 40.199189,
        "longitude": 69.813738
    },
    {
        "name": "Bŭston",
        "country": "Tajikistan",
        "province": "Sughd",
        "population": 13043,
        "latitude": 40.522859,
        "longitude": 69.333075
    },
    {
        "name": "Shaydon",
        "country": "Tajikistan",
        "province": "Sughd",
        "population": 11705,
        "latitude": 40.669915,
        "longitude": 70.3502
    },
    {
        "name": "Ispechak Du",
        "country": "Tajikistan",
        "province": "Dushanbe",
        "population": -1,
        "latitude": 38.587447,
        "longitude": 68.726866
    },
    {
        "name": "Lolazor",
        "country": "Tajikistan",
        "province": "Republican Subordination",
        "population": -1,
        "latitude": 38.571906,
        "longitude": 68.989767
    },
    {
        "name": "Jorbogh",
        "country": "Tajikistan",
        "province": "Khatlon",
        "population": -1,
        "latitude": 38.018078,
        "longitude": 69.84046
    },
    {
        "name": "Navdí",
        "country": "Tajikistan",
        "province": "Khatlon",
        "population": -1,
        "latitude": 38.01094,
        "longitude": 68.807053
    },
    {
        "name": "Sargah",
        "country": "Tajikistan",
        "province": "Khatlon",
        "population": -1,
        "latitude": 38.049475,
        "longitude": 68.919799
    },
    {
        "name": "Mehnatobod",
        "country": "Tajikistan",
        "province": "Khatlon",
        "population": -1,
        "latitude": 38.168585,
        "longitude": 68.95608
    },
    {
        "name": "Panjoriyon",
        "country": "Tajikistan",
        "province": "Khatlon",
        "population": -1,
        "latitude": 38.36282,
        "longitude": 70.088268
    },
    {
        "name": "Navbahor",
        "country": "Tajikistan",
        "province": "Dushanbe",
        "population": -1,
        "latitude": 38.521378,
        "longitude": 68.729455
    },
    {
        "name": "Gumbuloq",
        "country": "Tajikistan",
        "province": "Republican Subordination",
        "population": -1,
        "latitude": 38.525592,
        "longitude": 69.204066
    },
    {
        "name": "Simiganj",
        "country": "Tajikistan",
        "province": "Republican Subordination",
        "population": -1,
        "latitude": 38.653441,
        "longitude": 69.010268
    },
    {
        "name": "Kalon",
        "country": "Tajikistan",
        "province": "Republican Subordination",
        "population": -1,
        "latitude": 39.042652,
        "longitude": 68.830035
    },
    {
        "name": "Kanchoch",
        "country": "Tajikistan",
        "province": "Sughd",
        "population": -1,
        "latitude": 39.045647,
        "longitude": 68.337192
    },
    {
        "name": "Hayronbed",
        "country": "Tajikistan",
        "province": "Sughd",
        "population": -1,
        "latitude": 39.143086,
        "longitude": 68.464865
    },
    {
        "name": "Khumorigung",
        "country": "Tajikistan",
        "province": "Sughd",
        "population": -1,
        "latitude": 39.180207,
        "longitude": 68.001647
    },
    {
        "name": "Takhtapalif",
        "country": "Tajikistan",
        "province": "Republican Subordination",
        "population": -1,
        "latitude": 38.620701,
        "longitude": 69.481636
    },
    {
        "name": "Yakkakhona",
        "country": "Tajikistan",
        "province": "Sughd",
        "population": -1,
        "latitude": 39.31914,
        "longitude": 68.110432
    },
    {
        "name": "Husanobod",
        "country": "Tajikistan",
        "province": "Sughd",
        "population": -1,
        "latitude": 39.365092,
        "longitude": 68.040884
    },
    {
        "name": "Dargh",
        "country": "Tajikistan",
        "province": "Sughd",
        "population": -1,
        "latitude": 39.347363,
        "longitude": 68.981673
    },
    {
        "name": "Jarkutan",
        "country": "Tajikistan",
        "province": "Sughd",
        "population": -1,
        "latitude": 39.752288,
        "longitude": 68.780552
    },
    {
        "name": "Bogi Kalon",
        "country": "Tajikistan",
        "province": "Sughd",
        "population": -1,
        "latitude": 39.889235,
        "longitude": 68.988638
    },
    {
        "name": "Bobotago",
        "country": "Tajikistan",
        "province": "Sughd",
        "population": -1,
        "latitude": 39.907231,
        "longitude": 68.981533
    },
    {
        "name": "Vogat",
        "country": "Tajikistan",
        "province": "Sughd",
        "population": -1,
        "latitude": 39.947276,
        "longitude": 68.990882
    },
    {
        "name": "Zerobod",
        "country": "Tajikistan",
        "province": "Sughd",
        "population": -1,
        "latitude": 39.430083,
        "longitude": 68.451569
    },
    {
        "name": "Tartiki",
        "country": "Tajikistan",
        "province": "Khatlon",
        "population": 2342,
        "latitude": 37.582208,
        "longitude": 68.13347
    },
    {
        "name": "Tanobchí",
        "country": "Tajikistan",
        "province": "Khatlon",
        "population": -1,
        "latitude": 37.983736,
        "longitude": 69.578789
    },
    {
        "name": "Tagob",
        "country": "Tajikistan",
        "province": "Republican Subordination",
        "population": 2565,
        "latitude": 38.838268,
        "longitude": 68.898468
    },
    {
        "name": "Sujina",
        "country": "Tajikistan",
        "province": "Sughd",
        "population": -1,
        "latitude": 39.48788,
        "longitude": 67.725993
    },
    {
        "name": "Sicharog",
        "country": "Tajikistan",
        "province": "Republican Subordination",
        "population": -1,
        "latitude": 38.730138,
        "longitude": 69.802347
    },
    {
        "name": "Shuryonbosh",
        "country": "Tajikistan",
        "province": "Republican Subordination",
        "population": -1,
        "latitude": 38.104879,
        "longitude": 68.466335
    },
    {
        "name": "Shughnon",
        "country": "Tajikistan",
        "province": "Gorno-Badakhshan",
        "population": -1,
        "latitude": 37.5,
        "longitude": 71.583333
    },
    {
        "name": "Shoshbuvad",
        "country": "Tajikistan",
        "province": "Gorno-Badakhshan",
        "population": -1,
        "latitude": 37.347088,
        "longitude": 72.275716
    },
    {
        "name": "Shirkent",
        "country": "Tajikistan",
        "province": "Republican Subordination",
        "population": -1,
        "latitude": 38.635316,
        "longitude": 68.22214
    },
    {
        "name": "Shahrak",
        "country": "Tajikistan",
        "province": "Khatlon",
        "population": -1,
        "latitude": 38.275159,
        "longitude": 70.064597
    },
    {
        "name": "Shodaki Bolo",
        "country": "Tajikistan",
        "province": "Gorno-Badakhshan",
        "population": -1,
        "latitude": 38.465703,
        "longitude": 71.02849
    },
    {
        "name": "Sebdarai Kalon",
        "country": "Tajikistan",
        "province": "Khatlon",
        "population": -1,
        "latitude": 37.817806,
        "longitude": 70.053354
    },
    {
        "name": "Sayod",
        "country": "Tajikistan",
        "province": "Khatlon",
        "population": -1,
        "latitude": 38.776335,
        "longitude": 70.64424
    },
    {
        "name": "Savnob",
        "country": "Tajikistan",
        "province": "Gorno-Badakhshan",
        "population": -1,
        "latitude": 38.316952,
        "longitude": 72.408472
    },
    {
        "name": "Satalmush",
        "country": "Tajikistan",
        "province": "Khatlon",
        "population": -1,
        "latitude": 38.323473,
        "longitude": 69.746424
    },
    {
        "name": "Sasiqkul",
        "country": "Tajikistan",
        "province": "Gorno-Badakhshan",
        "population": -1,
        "latitude": 37.684124,
        "longitude": 73.19595
    },
    {
        "name": "Sarkokul",
        "country": "Tajikistan",
        "province": "Khatlon",
        "population": -1,
        "latitude": 37.653414,
        "longitude": 70.20237
    },
    {
        "name": "Sangvor",
        "country": "Tajikistan",
        "province": "Republican Subordination",
        "population": -1,
        "latitude": 38.778844,
        "longitude": 71.215214
    },
    {
        "name": "Soltik",
        "country": "Tajikistan",
        "province": "Khatlon",
        "population": -1,
        "latitude": 37.557197,
        "longitude": 68.124923
    },
    {
        "name": "Roharv",
        "country": "Tajikistan",
        "province": "Gorno-Badakhshan",
        "population": -1,
        "latitude": 38.025171,
        "longitude": 71.332302
    },
    {
        "name": "Roghun",
        "country": "Tajikistan",
        "province": "Republican Subordination",
        "population": 7731,
        "latitude": 38.782566,
        "longitude": 69.870808
    },
    {
        "name": "Ruddevlokh",
        "country": "Tajikistan",
        "province": "Gorno-Badakhshan",
        "population": -1,
        "latitude": 37.921895,
        "longitude": 71.734938
    },
    {
        "name": "Rosrovut",
        "country": "Tajikistan",
        "province": "Sughd",
        "population": -1,
        "latitude": 39.628103,
        "longitude": 69.284344
    },
    {
        "name": "Rarz",
        "country": "Tajikistan",
        "province": "Sughd",
        "population": -1,
        "latitude": 39.381908,
        "longitude": 68.747273
    },
    {
        "name": "Romit",
        "country": "Tajikistan",
        "province": "Republican Subordination",
        "population": -1,
        "latitude": 38.723821,
        "longitude": 69.320197
    },
    {
        "name": "Pushiyon",
        "country": "Tajikistan",
        "province": "Khatlon",
        "population": -1,
        "latitude": 38.038544,
        "longitude": 69.793614
    },
    {
        "name": "Poimazor",
        "country": "Tajikistan",
        "province": "Gorno-Badakhshan",
        "population": -1,
        "latitude": 38.653765,
        "longitude": 71.971677
    },
    {
        "name": "Poimazor",
        "country": "Tajikistan",
        "province": "Sughd",
        "population": -1,
        "latitude": 39.318139,
        "longitude": 68.457898
    },
    {
        "name": "Pskan",
        "country": "Tajikistan",
        "province": "Sughd",
        "population": 71,
        "latitude": 39.166667,
        "longitude": 69.183333
    },
    {
        "name": "Pastigav",
        "country": "Tajikistan",
        "province": "Sughd",
        "population": -1,
        "latitude": 39.42128,
        "longitude": 69.168173
    },
    {
        "name": "Pasariq",
        "country": "Tajikistan",
        "province": "Khatlon",
        "population": -1,
        "latitude": 37.455302,
        "longitude": 68.496582
    },
    {
        "name": "Oktabrsk",
        "country": "Tajikistan",
        "province": "Republican Subordination",
        "population": -1,
        "latitude": 38.527595,
        "longitude": 68.325038
    },
    {
        "name": "Ismoili Somoní",
        "country": "Tajikistan",
        "province": "Khatlon",
        "population": -1,
        "latitude": 37.766267,
        "longitude": 68.801259
    },
    {
        "name": "Oqkŭtal",
        "country": "Tajikistan",
        "province": "Sughd",
        "population": -1,
        "latitude": 39.383279,
        "longitude": 67.672827
    },
    {
        "name": "Navobod",
        "country": "Tajikistan",
        "province": "Sughd",
        "population": -1,
        "latitude": 39.718226,
        "longitude": 68.949233
    },
    {
        "name": "Nomitkon",
        "country": "Tajikistan",
        "province": "Sughd",
        "population": 21,
        "latitude": 39.2,
        "longitude": 69.0833333
    },
    {
        "name": "Mikrorayoni Yaksadu Duvozdah",
        "country": "Tajikistan",
        "province": "Dushanbe",
        "population": -1,
        "latitude": 38.589474,
        "longitude": 68.737093
    },
    {
        "name": "Namadguti Bolo",
        "country": "Tajikistan",
        "province": "Gorno-Badakhshan",
        "population": -1,
        "latitude": 36.679556,
        "longitude": 71.777191
    },
    {
        "name": "Miyonshahr",
        "country": "Tajikistan",
        "province": "Gorno-Badakhshan",
        "population": -1,
        "latitude": 37.722542,
        "longitude": 72.251056
    },
    {
        "name": "Mazor",
        "country": "Tajikistan",
        "province": "Sughd",
        "population": -1,
        "latitude": 39.390543,
        "longitude": 67.851005
    },
    {
        "name": "Moykatta",
        "country": "Tajikistan",
        "province": "Sughd",
        "population": -1,
        "latitude": 39.520265,
        "longitude": 67.767716
    },
    {
        "name": "Motravn",
        "country": "Tajikistan",
        "province": "Gorno-Badakhshan",
        "population": -1,
        "latitude": 38.187109,
        "longitude": 71.441785
    },
    {
        "name": "Mogiyon",
        "country": "Tajikistan",
        "province": "Sughd",
        "population": -1,
        "latitude": 39.24957,
        "longitude": 67.660841
    },
    {
        "name": "Laklakuya",
        "country": "Tajikistan",
        "province": "Khatlon",
        "population": -1,
        "latitude": 37.29326,
        "longitude": 68.185326
    },
    {
        "name": "Lakhsh",
        "country": "Tajikistan",
        "province": "Gorno-Badakhshan",
        "population": -1,
        "latitude": 38.323366,
        "longitude": 71.2715
    },
    {
        "name": "Luchob",
        "country": "Tajikistan",
        "province": "Republican Subordination",
        "population": -1,
        "latitude": 38.7048,
        "longitude": 68.681385
    },
    {
        "name": "Somoniyon",
        "country": "Tajikistan",
        "province": "Republican Subordination",
        "population": -1,
        "latitude": 38.441728,
        "longitude": 68.774582
    },
    {
        "name": "Ghishtmazor",
        "country": "Tajikistan",
        "province": "Khatlon",
        "population": -1,
        "latitude": 37.638744,
        "longitude": 68.624771
    },
    {
        "name": "Qizilqal’a",
        "country": "Tajikistan",
        "province": "Khatlon",
        "population": -1,
        "latitude": 37.894172,
        "longitude": 68.660303
    },
    {
        "name": "Kisht",
        "country": "Tajikistan",
        "province": "Khatlon",
        "population": -1,
        "latitude": 37.931612,
        "longitude": 70.169095
    },
    {
        "name": "Kŭynatemez",
        "country": "Tajikistan",
        "province": "Khatlon",
        "population": -1,
        "latitude": 37.311622,
        "longitude": 69.059673
    },
    {
        "name": "Qŭshachinor",
        "country": "Tajikistan",
        "province": "Khatlon",
        "population": -1,
        "latitude": 37.347813,
        "longitude": 68.187545
    },
    {
        "name": "Kurgovad",
        "country": "Tajikistan",
        "province": "Gorno-Badakhshan",
        "population": -1,
        "latitude": 38.421293,
        "longitude": 71.11126
    },
    {
        "name": "Mehrobod",
        "country": "Tajikistan",
        "province": "Khatlon",
        "population": -1,
        "latitude": 37.778802,
        "longitude": 69.554884
    },
    {
        "name": "Kumsoí",
        "country": "Tajikistan",
        "province": "Khatlon",
        "population": -1,
        "latitude": 37.339089,
        "longitude": 69.011243
    },
    {
        "name": "Kumarg",
        "country": "Tajikistan",
        "province": "Sughd",
        "population": -1,
        "latitude": 39.366635,
        "longitude": 68.585191
    },
    {
        "name": "Kŭlisŭfiyon",
        "country": "Tajikistan",
        "province": "Khatlon",
        "population": -1,
        "latitude": 38.29197,
        "longitude": 69.403113
    },
    {
        "name": "Kŭhila’l",
        "country": "Tajikistan",
        "province": "Gorno-Badakhshan",
        "population": -1,
        "latitude": 37.187004,
        "longitude": 71.466307
    },
    {
        "name": "Bulyoni Poyon",
        "country": "Tajikistan",
        "province": "Khatlon",
        "population": -1,
        "latitude": 37.913649,
        "longitude": 69.34961
    },
    {
        "name": "Qŭshteppa",
        "country": "Tajikistan",
        "province": "Sughd",
        "population": -1,
        "latitude": 39.464348,
        "longitude": 67.630391
    },
    {
        "name": "Darband",
        "country": "Tajikistan",
        "province": "Republican Subordination",
        "population": 1115,
        "latitude": 38.867761,
        "longitude": 69.96642
    },
    {
        "name": "Kofarnihon",
        "country": "Tajikistan",
        "province": "Republican Subordination",
        "population": -1,
        "latitude": 38.599604,
        "longitude": 69.108628
    },
    {
        "name": "Khirskhona",
        "country": "Tajikistan",
        "province": "Sughd",
        "population": -1,
        "latitude": 39.369322,
        "longitude": 67.703463
    },
    {
        "name": "Qiblaí",
        "country": "Tajikistan",
        "province": "Republican Subordination",
        "population": -1,
        "latitude": 38.623803,
        "longitude": 68.836243
    },
    {
        "name": "Khuzya",
        "country": "Tajikistan",
        "province": "Sughd",
        "population": -1,
        "latitude": 39.966667,
        "longitude": 68.983333
    },
    {
        "name": "Khudgif",
        "country": "Tajikistan",
        "province": "Sughd",
        "population": -1,
        "latitude": 39.44951,
        "longitude": 70.023333
    },
    {
        "name": "Khostav",
        "country": "Tajikistan",
        "province": "Gorno-Badakhshan",
        "population": -1,
        "latitude": 38.185906,
        "longitude": 70.51303
    },
    {
        "name": "Khojaghalton",
        "country": "Tajikistan",
        "province": "Khatlon",
        "population": -1,
        "latitude": 37.83716,
        "longitude": 70.066704
    },
    {
        "name": "Sebiston",
        "country": "Tajikistan",
        "province": "Khatlon",
        "population": -1,
        "latitude": 38.248194,
        "longitude": 69.280814
    },
    {
        "name": "Khodzha-Isaf",
        "country": "Tajikistan",
        "province": "Sughd",
        "population": -1,
        "latitude": 39.716667,
        "longitude": 68.966667
    },
    {
        "name": "Khojabulbulon",
        "country": "Tajikistan",
        "province": "Republican Subordination",
        "population": -1,
        "latitude": 38.022293,
        "longitude": 68.318977
    },
    {
        "name": "Khodishar",
        "country": "Tajikistan",
        "province": "Sughd",
        "population": -1,
        "latitude": 39.418586,
        "longitude": 69.23206
    },
    {
        "name": "Khirmanjo",
        "country": "Tajikistan",
        "province": "Khatlon",
        "population": -1,
        "latitude": 37.891079,
        "longitude": 70.1674
    },
    {
        "name": "Khayrabad",
        "country": "Tajikistan",
        "province": "Sughd",
        "population": -1,
        "latitude": 39.416667,
        "longitude": 69.516667
    },
    {
        "name": "Khonobod",
        "country": "Tajikistan",
        "province": "Khatlon",
        "population": -1,
        "latitude": 38.118895,
        "longitude": 69.875777
    },
    {
        "name": "Hakimi",
        "country": "Tajikistan",
        "province": "Republican Subordination",
        "population": -1,
        "latitude": 38.796355,
        "longitude": 68.35717
    },
    {
        "name": "Khait",
        "country": "Tajikistan",
        "province": "Republican Subordination",
        "population": -1,
        "latitude": 39.179356,
        "longitude": 70.881516
    },
    {
        "name": "Khairavat",
        "country": "Tajikistan",
        "province": "Sughd",
        "population": -1,
        "latitude": 39.446322,
        "longitude": 68.393708
    },
    {
        "name": "Kevron",
        "country": "Tajikistan",
        "province": "Gorno-Badakhshan",
        "population": -1,
        "latitude": 38.468984,
        "longitude": 70.890543
    },
    {
        "name": "Kengkul",
        "country": "Tajikistan",
        "province": "Sughd",
        "population": -1,
        "latitude": 39.71989,
        "longitude": 68.880414
    },
    {
        "name": "Kaznok",
        "country": "Tajikistan",
        "province": "Republican Subordination",
        "population": -1,
        "latitude": 39.010794,
        "longitude": 70.262734
    },
    {
        "name": "Kavraklí",
        "country": "Tajikistan",
        "province": "Khatlon",
        "population": -1,
        "latitude": 37.987843,
        "longitude": 69.316467
    },
    {
        "name": "Katta-Kishlak",
        "country": "Tajikistan",
        "province": "Sughd",
        "population": -1,
        "latitude": 39.514125,
        "longitude": 67.55827
    },
    {
        "name": "Kosabuloq",
        "country": "Tajikistan",
        "province": "Republican Subordination",
        "population": -1,
        "latitude": 38.150029,
        "longitude": 68.515082
    },
    {
        "name": "Karmysh",
        "country": "Tajikistan",
        "province": "Sughd",
        "population": -1,
        "latitude": 39.716667,
        "longitude": 68.916667
    },
    {
        "name": "Qayragoch",
        "country": "Tajikistan",
        "province": "Republican Subordination",
        "population": -1,
        "latitude": 38.452265,
        "longitude": 68.428337
    },
    {
        "name": "Qaratog",
        "country": "Tajikistan",
        "province": "Republican Subordination",
        "population": -1,
        "latitude": 38.615862,
        "longitude": 68.330859
    },
    {
        "name": "Karasakol",
        "country": "Tajikistan",
        "province": "Sughd",
        "population": -1,
        "latitude": 39.823986,
        "longitude": 68.966119
    },
    {
        "name": "Karapchí",
        "country": "Tajikistan",
        "province": "Sughd",
        "population": -1,
        "latitude": 39.791206,
        "longitude": 68.784972
    },
    {
        "name": "Qaromandí",
        "country": "Tajikistan",
        "province": "Khatlon",
        "population": -1,
        "latitude": 38.29783,
        "longitude": 68.700745
    },
    {
        "name": "Kante",
        "country": "Tajikistan",
        "province": "Sughd",
        "population": -1,
        "latitude": 39.232246,
        "longitude": 68.500592
    },
    {
        "name": "Gozho Berdibaev",
        "country": "Tajikistan",
        "province": "Gorno-Badakhshan",
        "population": -1,
        "latitude": 38.177186,
        "longitude": 74.055746
    },
    {
        "name": "Kamar-Tash",
        "country": "Tajikistan",
        "province": "Sughd",
        "population": -1,
        "latitude": 39.386287,
        "longitude": 67.500889
    },
    {
        "name": "Kamar",
        "country": "Tajikistan",
        "province": "Sughd",
        "population": -1,
        "latitude": 39.484998,
        "longitude": 67.502216
    },
    {
        "name": "Qal’ai Mirzoboy",
        "country": "Tajikistan",
        "province": "Sughd",
        "population": -1,
        "latitude": 39.745091,
        "longitude": 69.157066
    },
    {
        "name": "Qal’ai Husayn",
        "country": "Tajikistan",
        "province": "Gorno-Badakhshan",
        "population": -1,
        "latitude": 38.722478,
        "longitude": 70.648059
    },
    {
        "name": "Puchqoq",
        "country": "Tajikistan",
        "province": "Khatlon",
        "population": -1,
        "latitude": 37.533139,
        "longitude": 69.465286
    },
    {
        "name": "Qalaikhumb",
        "country": "Tajikistan",
        "province": "Gorno-Badakhshan",
        "population": -1,
        "latitude": 38.453729,
        "longitude": 70.789015
    },
    {
        "name": "Qairma",
        "country": "Tajikistan",
        "province": "Sughd",
        "population": -1,
        "latitude": 39.788318,
        "longitude": 68.849299
    },
    {
        "name": "Kaduchí",
        "country": "Tajikistan",
        "province": "Khatlon",
        "population": -1,
        "latitude": 37.893263,
        "longitude": 69.630159
    },
    {
        "name": "Lagmon",
        "country": "Tajikistan",
        "province": "Khatlon",
        "population": -1,
        "latitude": 37.898125,
        "longitude": 69.749418
    },
    {
        "name": "Qubodiyon",
        "country": "Tajikistan",
        "province": "Khatlon",
        "population": -1,
        "latitude": 37.409731,
        "longitude": 68.186439
    },
    {
        "name": "Itorchí",
        "country": "Tajikistan",
        "province": "Sughd",
        "population": -1,
        "latitude": 39.869645,
        "longitude": 69.145815
    },
    {
        "name": "Iski-Darkh",
        "country": "Tajikistan",
        "province": "Sughd",
        "population": -1,
        "latitude": 39.316667,
        "longitude": 69.016667
    },
    {
        "name": "Dahyak",
        "country": "Tajikistan",
        "province": "Sughd",
        "population": -1,
        "latitude": 39.824634,
        "longitude": 68.979112
    },
    {
        "name": "Ėsiz",
        "country": "Tajikistan",
        "province": "Sughd",
        "population": -1,
        "latitude": 39.428723,
        "longitude": 69.459726
    },
    {
        "name": "Ishkli",
        "country": "Tajikistan",
        "province": "Sughd",
        "population": -1,
        "latitude": 39.701566,
        "longitude": 68.800679
    },
    {
        "name": "Ėsanboy",
        "country": "Tajikistan",
        "province": "Republican Subordination",
        "population": -1,
        "latitude": 38.081667,
        "longitude": 68.377413
    },
    {
        "name": "Halqajar",
        "country": "Tajikistan",
        "province": "Khatlon",
        "population": -1,
        "latitude": 37.957789,
        "longitude": 68.671099
    },
    {
        "name": "Imeni Rudaki",
        "country": "Tajikistan",
        "province": "Sughd",
        "population": -1,
        "latitude": 39.483333,
        "longitude": 67.616667
    },
    {
        "name": "Imomalí",
        "country": "Tajikistan",
        "province": "Khatlon",
        "population": -1,
        "latitude": 37.858003,
        "longitude": 69.619041
    },
    {
        "name": "Guzaribad",
        "country": "Tajikistan",
        "province": "Sughd",
        "population": -1,
        "latitude": 39.389504,
        "longitude": 68.701836
    },
    {
        "name": "Ghŭsar",
        "country": "Tajikistan",
        "province": "Sughd",
        "population": -1,
        "latitude": 39.461448,
        "longitude": 67.848129
    },
    {
        "name": "Guytan",
        "country": "Tajikistan",
        "province": "Sughd",
        "population": -1,
        "latitude": 39.290663,
        "longitude": 68.066826
    },
    {
        "name": "Ghizhdarva",
        "country": "Tajikistan",
        "province": "Sughd",
        "population": -1,
        "latitude": 39.29982,
        "longitude": 67.846595
    },
    {
        "name": "Ghezani Bolo",
        "country": "Tajikistan",
        "province": "Sughd",
        "population": -1,
        "latitude": 39.284723,
        "longitude": 67.72355
    },
    {
        "name": "Ghezani-Poyon",
        "country": "Tajikistan",
        "province": "Sughd",
        "population": -1,
        "latitude": 39.277219,
        "longitude": 67.712487
    },
    {
        "name": "Hazara",
        "country": "Tajikistan",
        "province": "Republican Subordination",
        "population": -1,
        "latitude": 39.045506,
        "longitude": 68.872742
    },
    {
        "name": "Ghaznich",
        "country": "Tajikistan",
        "province": "Sughd",
        "population": -1,
        "latitude": 39.226349,
        "longitude": 68.043824
    },
    {
        "name": "Ghazza",
        "country": "Tajikistan",
        "province": "Sughd",
        "population": -1,
        "latitude": 39.251297,
        "longitude": 68.040182
    },
    {
        "name": "Gharibak",
        "country": "Tajikistan",
        "province": "Sughd",
        "population": -1,
        "latitude": 39.52169,
        "longitude": 67.601201
    },
    {
        "name": "Gharghara",
        "country": "Tajikistan",
        "province": "Khatlon",
        "population": -1,
        "latitude": 38.137909,
        "longitude": 69.44179
    },
    {
        "name": "Ghorbuloq",
        "country": "Tajikistan",
        "province": "Tajikistan",
        "population": -1,
        "latitude": 38.387406,
        "longitude": 68.945786
    },
    {
        "name": "Gharavŭtí",
        "country": "Tajikistan",
        "province": "Khatlon",
        "population": 8474,
        "latitude": 37.567025,
        "longitude": 68.446683
    },
    {
        "name": "Filmandor",
        "country": "Tajikistan",
        "province": "Sughd",
        "population": -1,
        "latitude": 39.382139,
        "longitude": 67.760257
    },
    {
        "name": "Fatmev",
        "country": "Tajikistan",
        "province": "Sughd",
        "population": -1,
        "latitude": 39.390767,
        "longitude": 68.687418
    },
    {
        "name": "Farob",
        "country": "Tajikistan",
        "province": "Sughd",
        "population": -1,
        "latitude": 39.240462,
        "longitude": 67.472385
    },
    {
        "name": "Fatmovut",
        "country": "Tajikistan",
        "province": "Sughd",
        "population": -1,
        "latitude": 39.370008,
        "longitude": 68.834282
    },
    {
        "name": "Zhovid",
        "country": "Tajikistan",
        "province": "Gorno-Badakhshan",
        "population": -1,
        "latitude": 38.470082,
        "longitude": 71.627713
    },
    {
        "name": "Dijik",
        "country": "Tajikistan",
        "province": "Sughd",
        "population": -1,
        "latitude": 39.130631,
        "longitude": 68.428261
    },
    {
        "name": "Jirghatol",
        "country": "Tajikistan",
        "province": "Republican Subordination",
        "population": -1,
        "latitude": 39.219662,
        "longitude": 71.191553
    },
    {
        "name": "Dzhilas",
        "country": "Tajikistan",
        "province": "Sughd",
        "population": -1,
        "latitude": 39.366667,
        "longitude": 67.716667
    },
    {
        "name": "Jayralí",
        "country": "Tajikistan",
        "province": "Khatlon",
        "population": -1,
        "latitude": 37.964579,
        "longitude": 69.587602
    },
    {
        "name": "Dzhavshangoz",
        "country": "Tajikistan",
        "province": "Gorno-Badakhshan",
        "population": -1,
        "latitude": 37.358773,
        "longitude": 72.444269
    },
    {
        "name": "Jarteppa",
        "country": "Tajikistan",
        "province": "Khatlon",
        "population": -1,
        "latitude": 38.015194,
        "longitude": 69.360066
    },
    {
        "name": "Jorf",
        "country": "Tajikistan",
        "province": "Gorno-Badakhshan",
        "population": -1,
        "latitude": 38.478481,
        "longitude": 70.961738
    },
    {
        "name": "Dzhanbulak",
        "country": "Tajikistan",
        "province": "Sughd",
        "population": -1,
        "latitude": 39.369015,
        "longitude": 67.689454
    },
    {
        "name": "Jayilgan",
        "country": "Tajikistan",
        "province": "Republican Subordination",
        "population": -1,
        "latitude": 39.304167,
        "longitude": 71.525556
    },
    {
        "name": "Durbat",
        "country": "Tajikistan",
        "province": "Republican Subordination",
        "population": -1,
        "latitude": 38.528355,
        "longitude": 68.635464
    },
    {
        "name": "Durman",
        "country": "Tajikistan",
        "province": "Sughd",
        "population": -1,
        "latitude": 39.5094444,
        "longitude": 67.4505556
    },
    {
        "name": "Dehisor",
        "country": "Tajikistan",
        "province": "Sughd",
        "population": -1,
        "latitude": 39.442823,
        "longitude": 70.222604
    },
    {
        "name": "Dimnora",
        "country": "Tajikistan",
        "province": "Sughd",
        "population": -1,
        "latitude": 39.436034,
        "longitude": 69.886795
    },
    {
        "name": "Dehqonobod",
        "country": "Tajikistan",
        "province": "Khatlon",
        "population": -1,
        "latitude": 37.595296,
        "longitude": 69.370777
    },
    {
        "name": "Dektur",
        "country": "Tajikistan",
        "province": "Khatlon",
        "population": -1,
        "latitude": 38.222032,
        "longitude": 69.790622
    },
    {
        "name": "Vibist",
        "country": "Tajikistan",
        "province": "Gorno-Badakhshan",
        "population": -1,
        "latitude": 37.682773,
        "longitude": 71.848641
    },
    {
        "name": "Dehbaland",
        "country": "Tajikistan",
        "province": "Sughd",
        "population": 4,
        "latitude": 39.2,
        "longitude": 69.1666667
    },
    {
        "name": "Dekhamalik",
        "country": "Tajikistan",
        "province": "Republican Subordination",
        "population": -1,
        "latitude": 38.850028,
        "longitude": 68.912995
    },
    {
        "name": "Dahyak",
        "country": "Tajikistan",
        "province": "Sughd",
        "population": -1,
        "latitude": 39.818439,
        "longitude": 68.990755
    },
    {
        "name": "Dashty-Bet",
        "country": "Tajikistan",
        "province": "Sughd",
        "population": -1,
        "latitude": 39.45,
        "longitude": 68.25
    },
    {
        "name": "Dashtiqozy",
        "country": "Tajikistan",
        "province": "Sughd",
        "population": -1,
        "latitude": 39.459811,
        "longitude": 68.056489
    },
    {
        "name": "Dashtijum",
        "country": "Tajikistan",
        "province": "Khatlon",
        "population": -1,
        "latitude": 38.01566,
        "longitude": 70.21406
    },
    {
        "name": "Dokki",
        "country": "Tajikistan",
        "province": "Khatlon",
        "population": -1,
        "latitude": 37.326052,
        "longitude": 68.188404
    },
    {
        "name": "Dahkat",
        "country": "Tajikistan",
        "province": "Sughd",
        "population": -1,
        "latitude": 39.708108,
        "longitude": 69.254179
    },
    {
        "name": "Dahanakiik",
        "country": "Tajikistan",
        "province": "Khatlon",
        "population": -1,
        "latitude": 38.196838,
        "longitude": 68.648557
    },
    {
        "name": "Dahana",
        "country": "Tajikistan",
        "province": "Khatlon",
        "population": -1,
        "latitude": 38.058853,
        "longitude": 69.867354
    },
    {
        "name": "Chorroha",
        "country": "Tajikistan",
        "province": "Sughd",
        "population": -1,
        "latitude": 39.134498,
        "longitude": 67.832673
    },
    {
        "name": "Chore",
        "country": "Tajikistan",
        "province": "Sughd",
        "population": -1,
        "latitude": 39.304455,
        "longitude": 68.508884
    },
    {
        "name": "Chiray",
        "country": "Tajikistan",
        "province": "Sughd",
        "population": -1,
        "latitude": 39.706645,
        "longitude": 68.894552
    },
    {
        "name": "Chimkurgan",
        "country": "Tajikistan",
        "province": "Sughd",
        "population": -1,
        "latitude": 39.49698,
        "longitude": 67.513684
    },
    {
        "name": "Childara",
        "country": "Tajikistan",
        "province": "Republican Subordination",
        "population": -1,
        "latitude": 38.783142,
        "longitude": 70.304169
    },
    {
        "name": "Charsem",
        "country": "Tajikistan",
        "province": "Gorno-Badakhshan",
        "population": -1,
        "latitude": 37.716367,
        "longitude": 72.16323
    },
    {
        "name": "Jangal",
        "country": "Tajikistan",
        "province": "Sughd",
        "population": -1,
        "latitude": 39.521193,
        "longitude": 67.514847
    },
    {
        "name": "Choltov",
        "country": "Tajikistan",
        "province": "Khatlon",
        "population": -1,
        "latitude": 37.925983,
        "longitude": 69.152902
    },
    {
        "name": "Chagami Bolo",
        "country": "Tajikistan",
        "province": "Khatlon",
        "population": -1,
        "latitude": 37.831593,
        "longitude": 69.87938
    },
    {
        "name": "Chadud",
        "country": "Tajikistan",
        "province": "Gorno-Badakhshan",
        "population": -1,
        "latitude": 38.124301,
        "longitude": 72.201443
    },
    {
        "name": "Buragen",
        "country": "Tajikistan",
        "province": "Sughd",
        "population": -1,
        "latitude": 39.702304,
        "longitude": 68.725213
    },
    {
        "name": "Baravni Tor",
        "country": "Tajikistan",
        "province": "Gorno-Badakhshan",
        "population": -1,
        "latitude": 38.311402,
        "longitude": 71.307944
    },
    {
        "name": "Bolgali",
        "country": "Tajikistan",
        "province": "Sughd",
        "population": -1,
        "latitude": 39.833333,
        "longitude": 68.866667
    },
    {
        "name": "Beshkappa",
        "country": "Tajikistan",
        "province": "Khatlon",
        "population": -1,
        "latitude": 37.232881,
        "longitude": 68.021179
    },
    {
        "name": "Bedak",
        "country": "Tajikistan",
        "province": "Sughd",
        "population": -1,
        "latitude": 39.408636,
        "longitude": 67.713568
    },
    {
        "name": "Basmanda",
        "country": "Tajikistan",
        "province": "Sughd",
        "population": -1,
        "latitude": 39.691285,
        "longitude": 69.153873
    },
    {
        "name": "Boshqaynar",
        "country": "Tajikistan",
        "province": "Khatlon",
        "population": -1,
        "latitude": 38.206798,
        "longitude": 68.846649
    },
    {
        "name": "Boshgumbez",
        "country": "Tajikistan",
        "province": "Gorno-Badakhshan",
        "population": -1,
        "latitude": 37.772939,
        "longitude": 73.542921
    },
    {
        "name": "Bakhrushon",
        "country": "Tajikistan",
        "province": "Gorno-Badakhshan",
        "population": -1,
        "latitude": 37.936655,
        "longitude": 71.455049
    },
    {
        "name": "Baljuvon",
        "country": "Tajikistan",
        "province": "Khatlon",
        "population": -1,
        "latitude": 38.308382,
        "longitude": 69.676718
    },
    {
        "name": "Barchuv",
        "country": "Tajikistan",
        "province": "Gorno-Badakhshan",
        "population": -1,
        "latitude": 37.749435,
        "longitude": 71.636827
    },
    {
        "name": "Bodomdara",
        "country": "Tajikistan",
        "province": "Gorno-Badakhshan",
        "population": -1,
        "latitude": 37.127269,
        "longitude": 71.839613
    },
    {
        "name": "Ayvaj",
        "country": "Tajikistan",
        "province": "Khatlon",
        "population": -1,
        "latitude": 36.985112,
        "longitude": 68.037377
    },
    {
        "name": "Ovchí",
        "country": "Tajikistan",
        "province": "Sughd",
        "population": -1,
        "latitude": 39.590426,
        "longitude": 69.080566
    },
    {
        "name": "Artuch",
        "country": "Tajikistan",
        "province": "Sughd",
        "population": -1,
        "latitude": 39.3325,
        "longitude": 68.108262
    },
    {
        "name": "Arpatuguldí",
        "country": "Tajikistan",
        "province": "Khatlon",
        "population": -1,
        "latitude": 37.774898,
        "longitude": 69.588227
    },
    {
        "name": "Anzob",
        "country": "Tajikistan",
        "province": "Sughd",
        "population": -1,
        "latitude": 39.160736,
        "longitude": 68.816759
    },
    {
        "name": "Amondara",
        "country": "Tajikistan",
        "province": "Sughd",
        "population": -1,
        "latitude": 39.514348,
        "longitude": 67.810803
    },
    {
        "name": "Alichur",
        "country": "Tajikistan",
        "province": "Gorno-Badakhshan",
        "population": -1,
        "latitude": 37.751391,
        "longitude": 73.265999
    },
    {
        "name": "Alakdzhar",
        "country": "Tajikistan",
        "province": "Sughd",
        "population": -1,
        "latitude": 39.45,
        "longitude": 67.516667
    },
    {
        "name": "Oqsu",
        "country": "Tajikistan",
        "province": "Khatlon",
        "population": -1,
        "latitude": 38.155323,
        "longitude": 69.29745
    },
    {
        "name": "Oqmazor",
        "country": "Tajikistan",
        "province": "Khatlon",
        "population": -1,
        "latitude": 37.668079,
        "longitude": 69.653417
    },
    {
        "name": "Ak-Guaz-Kaaz",
        "country": "Tajikistan",
        "province": "Sughd",
        "population": -1,
        "latitude": 39.866667,
        "longitude": 68.95
    },
    {
        "name": "Abdusamat",
        "country": "Tajikistan",
        "province": "Sughd",
        "population": -1,
        "latitude": 39.428521,
        "longitude": 67.506167
    },
    {
        "name": "Chorkŭh",
        "country": "Tajikistan",
        "province": "Sughd",
        "population": -1,
        "latitude": 39.97538,
        "longitude": 70.569582
    },
    {
        "name": "Boghi Zoghon",
        "country": "Tajikistan",
        "province": "Khatlon",
        "population": -1,
        "latitude": 38.496177,
        "longitude": 69.810475
    },
    {
        "name": "Zigar",
        "country": "Tajikistan",
        "province": "Gorno-Badakhshan",
        "population": -1,
        "latitude": 38.105417,
        "longitude": 70.445491
    },
    {
        "name": "Zul’fan",
        "country": "Tajikistan",
        "province": "Sughd",
        "population": -1,
        "latitude": 39.5,
        "longitude": 67.816667
    },
    {
        "name": "Zindikan",
        "country": "Tajikistan",
        "province": "Sughd",
        "population": -1,
        "latitude": 39.433688,
        "longitude": 68.586042
    },
    {
        "name": "Zimput",
        "country": "Tajikistan",
        "province": "Sughd",
        "population": -1,
        "latitude": 39.290157,
        "longitude": 68.050958
    },
    {
        "name": "Zarafshon",
        "country": "Tajikistan",
        "province": "Sughd",
        "population": -1,
        "latitude": 39.172531,
        "longitude": 68.628274
    },
    {
        "name": "Zebon",
        "country": "Tajikistan",
        "province": "Sughd",
        "population": -1,
        "latitude": 39.383333,
        "longitude": 67.566667
    },
    {
        "name": "Zavron",
        "country": "Tajikistan",
        "province": "Sughd",
        "population": -1,
        "latitude": 39.378396,
        "longitude": 67.918989
    },
    {
        "name": "Zosun",
        "country": "Tajikistan",
        "province": "Sughd",
        "population": -1,
        "latitude": 39.39015,
        "longitude": 68.618926
    },
    {
        "name": "Ezgand",
        "country": "Tajikistan",
        "province": "Republican Subordination",
        "population": -1,
        "latitude": 38.725165,
        "longitude": 70.422359
    },
    {
        "name": "Ems",
        "country": "Tajikistan",
        "province": "Gorno-Badakhshan",
        "population": -1,
        "latitude": 38.006222,
        "longitude": 71.668478
    },
    {
        "name": "Yangiqŭrghon",
        "country": "Tajikistan",
        "province": "Sughd",
        "population": -1,
        "latitude": 39.803333,
        "longitude": 68.802445
    },
    {
        "name": "Yovon",
        "country": "Tajikistan",
        "province": "Sughd",
        "population": -1,
        "latitude": 39.447685,
        "longitude": 68.144381
    },
    {
        "name": "Bichkharv",
        "country": "Tajikistan",
        "province": "Gorno-Badakhshan",
        "population": -1,
        "latitude": 38.335007,
        "longitude": 71.408268
    },
    {
        "name": "Vrang",
        "country": "Tajikistan",
        "province": "Gorno-Badakhshan",
        "population": -1,
        "latitude": 37.004375,
        "longitude": 72.372998
    },
    {
        "name": "Voznavd",
        "country": "Tajikistan",
        "province": "Gorno-Badakhshan",
        "population": -1,
        "latitude": 37.961165,
        "longitude": 71.275007
    },
    {
        "name": "Vozg",
        "country": "Tajikistan",
        "province": "Gorno-Badakhshan",
        "population": -1,
        "latitude": 37.118507,
        "longitude": 71.444287
    },
    {
        "name": "Viskharv",
        "country": "Tajikistan",
        "province": "Gorno-Badakhshan",
        "population": -1,
        "latitude": 38.550228,
        "longitude": 71.096142
    },
    {
        "name": "Veshkand",
        "country": "Tajikistan",
        "province": "Sughd",
        "population": -1,
        "latitude": 39.446549,
        "longitude": 68.337365
    },
    {
        "name": "Veshist",
        "country": "Tajikistan",
        "province": "Sughd",
        "population": -1,
        "latitude": 39.474527,
        "longitude": 67.992116
    },
    {
        "name": "Ven",
        "country": "Tajikistan",
        "province": "Sughd",
        "population": -1,
        "latitude": 39.300125,
        "longitude": 68.026551
    },
    {
        "name": "Vashan",
        "country": "Tajikistan",
        "province": "Sughd",
        "population": -1,
        "latitude": 39.406239,
        "longitude": 68.273081
    },
    {
        "name": "Vagashton",
        "country": "Tajikistan",
        "province": "Sughd",
        "population": -1,
        "latitude": 39.300799,
        "longitude": 67.791838
    },
    {
        "name": "Vodif",
        "country": "Tajikistan",
        "province": "Sughd",
        "population": -1,
        "latitude": 39.46246,
        "longitude": 70.155486
    },
    {
        "name": "Uzbay",
        "country": "Tajikistan",
        "province": "Gorno-Badakhshan",
        "population": -1,
        "latitude": 38.328264,
        "longitude": 71.257116
    },
    {
        "name": "Uvoq",
        "country": "Tajikistan",
        "province": "Sughd",
        "population": -1,
        "latitude": 39.842871,
        "longitude": 68.715564
    },
    {
        "name": "Ustung",
        "country": "Tajikistan",
        "province": "Sughd",
        "population": -1,
        "latitude": 39.302124,
        "longitude": 69.220354
    },
    {
        "name": "Ustanak",
        "country": "Tajikistan",
        "province": "Sughd",
        "population": -1,
        "latitude": 39.402659,
        "longitude": 68.996606
    },
    {
        "name": "Urtaqishloq",
        "country": "Tajikistan",
        "province": "Sughd",
        "population": -1,
        "latitude": 39.486179,
        "longitude": 67.528482
    },
    {
        "name": "Ubagn",
        "country": "Tajikistan",
        "province": "Gorno-Badakhshan",
        "population": -1,
        "latitude": 38.3843,
        "longitude": 71.864427
    },
    {
        "name": "Uata",
        "country": "Tajikistan",
        "province": "Sughd",
        "population": -1,
        "latitude": 39.416667,
        "longitude": 68.133333
    },
    {
        "name": "Tuz-Bulak",
        "country": "Tajikistan",
        "province": "Khatlon",
        "population": -1,
        "latitude": 37.685975,
        "longitude": 69.782128
    },
    {
        "name": "Tusen",
        "country": "Tajikistan",
        "province": "Gorno-Badakhshan",
        "population": -1,
        "latitude": 37.370314,
        "longitude": 71.662321
    },
    {
        "name": "Turkoni",
        "country": "Tajikistan",
        "province": "Khatlon",
        "population": -1,
        "latitude": 37.885607,
        "longitude": 69.943902
    },
    {
        "name": "Tŭgalang",
        "country": "Tajikistan",
        "province": "Khatlon",
        "population": -1,
        "latitude": 37.207631,
        "longitude": 69.128031
    },
    {
        "name": "Tosqal’a",
        "country": "Tajikistan",
        "province": "Khatlon",
        "population": -1,
        "latitude": 37.925525,
        "longitude": 69.586912
    },
    {
        "name": "Yangikishlak",
        "country": "Tajikistan",
        "province": "Sughd",
        "population": -1,
        "latitude": 40.337245,
        "longitude": 69.85007
    },
    {
        "name": "Takelí",
        "country": "Tajikistan",
        "province": "Sughd",
        "population": -1,
        "latitude": 40.488252,
        "longitude": 69.430437
    },
    {
        "name": "Zyurunly",
        "country": "Tajikistan",
        "province": "Sughd",
        "population": -1,
        "latitude": 40.533333,
        "longitude": 69.533333
    },
    {
        "name": "Pongoz",
        "country": "Tajikistan",
        "province": "Sughd",
        "population": -1,
        "latitude": 40.75782,
        "longitude": 70.261373
    },
    {
        "name": "Yertula",
        "country": "Tajikistan",
        "province": "Sughd",
        "population": -1,
        "latitude": 40.530895,
        "longitude": 70.376857
    },
    {
        "name": "Yava",
        "country": "Tajikistan",
        "province": "Sughd",
        "population": -1,
        "latitude": 40.265128,
        "longitude": 69.595287
    },
    {
        "name": "Yakhtan",
        "country": "Tajikistan",
        "province": "Sughd",
        "population": -1,
        "latitude": 40.034231,
        "longitude": 69.112408
    },
    {
        "name": "Ŭzbekqishloq",
        "country": "Tajikistan",
        "province": "Sughd",
        "population": -1,
        "latitude": 40.142285,
        "longitude": 69.549611
    },
    {
        "name": "Uyuly",
        "country": "Tajikistan",
        "province": "Sughd",
        "population": -1,
        "latitude": 40.042416,
        "longitude": 69.064405
    },
    {
        "name": "Uyas",
        "country": "Tajikistan",
        "province": "Sughd",
        "population": -1,
        "latitude": 40.094006,
        "longitude": 69.035185
    },
    {
        "name": "Utkansu",
        "country": "Tajikistan",
        "province": "Sughd",
        "population": -1,
        "latitude": 40.559667,
        "longitude": 69.694609
    },
    {
        "name": "Unjí",
        "country": "Tajikistan",
        "province": "Sughd",
        "population": -1,
        "latitude": 40.283052,
        "longitude": 69.700221
    },
    {
        "name": "Ravot",
        "country": "Tajikistan",
        "province": "Sughd",
        "population": -1,
        "latitude": 40.537489,
        "longitude": 70.364842
    },
    {
        "name": "Ravot",
        "country": "Tajikistan",
        "province": "Sughd",
        "population": -1,
        "latitude": 40.322825,
        "longitude": 70.556384
    },
    {
        "name": "Pungan",
        "country": "Tajikistan",
        "province": "Sughd",
        "population": -1,
        "latitude": 40.868392,
        "longitude": 70.625906
    },
    {
        "name": "Paldorak",
        "country": "Tajikistan",
        "province": "Sughd",
        "population": -1,
        "latitude": 40.484444,
        "longitude": 69.301667
    },
    {
        "name": "Patar",
        "country": "Tajikistan",
        "province": "Sughd",
        "population": -1,
        "latitude": 40.349902,
        "longitude": 70.450541
    },
    {
        "name": "Palos",
        "country": "Tajikistan",
        "province": "Sughd",
        "population": 3288,
        "latitude": 40.316281,
        "longitude": 69.73743
    },
    {
        "name": "Pakhtakoron",
        "country": "Tajikistan",
        "province": "Sughd",
        "population": 8220,
        "latitude": 40.157094,
        "longitude": 68.746594
    },
    {
        "name": "Oshoba",
        "country": "Tajikistan",
        "province": "Sughd",
        "population": -1,
        "latitude": 40.735994,
        "longitude": 70.441252
    },
    {
        "name": "Obburdon",
        "country": "Tajikistan",
        "province": "Sughd",
        "population": -1,
        "latitude": 40.427778,
        "longitude": 69.304722
    },
    {
        "name": "Mullomir",
        "country": "Tajikistan",
        "province": "Sughd",
        "population": -1,
        "latitude": 40.73034,
        "longitude": 70.156879
    },
    {
        "name": "Mehnatobod",
        "country": "Tajikistan",
        "province": "Sughd",
        "population": -1,
        "latitude": 40.198542,
        "longitude": 68.954825
    },
    {
        "name": "Mastchoh",
        "country": "Tajikistan",
        "province": "Sughd",
        "population": -1,
        "latitude": 40.368056,
        "longitude": 69.325278
    },
    {
        "name": "Lakkon",
        "country": "Tajikistan",
        "province": "Sughd",
        "population": -1,
        "latitude": 40.173288,
        "longitude": 70.858456
    },
    {
        "name": "Kizilí",
        "country": "Tajikistan",
        "province": "Sughd",
        "population": -1,
        "latitude": 40.060632,
        "longitude": 69.216152
    },
    {
        "name": "Kŭprukboshí",
        "country": "Tajikistan",
        "province": "Sughd",
        "population": -1,
        "latitude": 40.90024,
        "longitude": 70.58064
    },
    {
        "name": "Kŭchkak",
        "country": "Tajikistan",
        "province": "Sughd",
        "population": -1,
        "latitude": 40.247548,
        "longitude": 70.342374
    },
    {
        "name": "Pakhtakor",
        "country": "Tajikistan",
        "province": "Sughd",
        "population": -1,
        "latitude": 40.073015,
        "longitude": 69.453275
    },
    {
        "name": "Katta-Sarikamysh",
        "country": "Tajikistan",
        "province": "Sughd",
        "population": -1,
        "latitude": 40.758944,
        "longitude": 70.563672
    },
    {
        "name": "Qaramazor",
        "country": "Tajikistan",
        "province": "Sughd",
        "population": -1,
        "latitude": 40.670898,
        "longitude": 69.961165
    },
    {
        "name": "Karakon",
        "country": "Tajikistan",
        "province": "Sughd",
        "population": -1,
        "latitude": 40.55,
        "longitude": 70.3
    },
    {
        "name": "Frunze",
        "country": "Tajikistan",
        "province": "Sughd",
        "population": -1,
        "latitude": 40.247642,
        "longitude": 70.066525
    },
    {
        "name": "Qamishqŭrgon",
        "country": "Tajikistan",
        "province": "Sughd",
        "population": -1,
        "latitude": 40.575295,
        "longitude": 70.410772
    },
    {
        "name": "Qal’acha",
        "country": "Tajikistan",
        "province": "Sughd",
        "population": -1,
        "latitude": 40.126848,
        "longitude": 69.673977
    },
    {
        "name": "Ghŭlakandoz",
        "country": "Tajikistan",
        "province": "Sughd",
        "population": -1,
        "latitude": 40.156625,
        "longitude": 69.467182
    },
    {
        "name": "Gudos",
        "country": "Tajikistan",
        "province": "Sughd",
        "population": -1,
        "latitude": 40.817179,
        "longitude": 70.493906
    },
    {
        "name": "Ghafurov",
        "country": "Tajikistan",
        "province": "Sughd",
        "population": -1,
        "latitude": 40.215706,
        "longitude": 69.728668
    },
    {
        "name": "Dzhumabazar",
        "country": "Tajikistan",
        "province": "Sughd",
        "population": -1,
        "latitude": 40.316667,
        "longitude": 69.35
    },
    {
        "name": "Dolona",
        "country": "Tajikistan",
        "province": "Sughd",
        "population": -1,
        "latitude": 40.627879,
        "longitude": 70.043628
    },
    {
        "name": "Dashtiamin",
        "country": "Tajikistan",
        "province": "Sughd",
        "population": -1,
        "latitude": 40.204414,
        "longitude": 69.673134
    },
    {
        "name": "Dahana",
        "country": "Tajikistan",
        "province": "Sughd",
        "population": -1,
        "latitude": 40.646094,
        "longitude": 70.278258
    },
    {
        "name": "Chorukhdarron",
        "country": "Tajikistan",
        "province": "Sughd",
        "population": -1,
        "latitude": 40.395772,
        "longitude": 69.669348
    },
    {
        "name": "Chorqishloq",
        "country": "Tajikistan",
        "province": "Sughd",
        "population": -1,
        "latitude": 40.061981,
        "longitude": 70.623043
    },
    {
        "name": "Cholota",
        "country": "Tajikistan",
        "province": "Sughd",
        "population": -1,
        "latitude": 40.65039,
        "longitude": 69.500437
    },
    {
        "name": "Chakadam-Bulak",
        "country": "Tajikistan",
        "province": "Sughd",
        "population": -1,
        "latitude": 40.483333,
        "longitude": 69.85
    },
    {
        "name": "Buloq",
        "country": "Tajikistan",
        "province": "Sughd",
        "population": -1,
        "latitude": 40.59819,
        "longitude": 70.454108
    },
    {
        "name": "Boshtal’",
        "country": "Tajikistan",
        "province": "Sughd",
        "population": -1,
        "latitude": 40.583333,
        "longitude": 70.45
    },
    {
        "name": "Bobodarkhon",
        "country": "Tajikistan",
        "province": "Sughd",
        "population": -1,
        "latitude": 40.72156,
        "longitude": 70.259043
    },
    {
        "name": "Ashti Poyon",
        "country": "Tajikistan",
        "province": "Sughd",
        "population": -1,
        "latitude": 40.805306,
        "longitude": 70.615272
    },
    {
        "name": "Oftobrŭy",
        "country": "Tajikistan",
        "province": "Sughd",
        "population": -1,
        "latitude": 40.171936,
        "longitude": 70.67217
    },
    {
        "name": "Andarsoy",
        "country": "Tajikistan",
        "province": "Sughd",
        "population": -1,
        "latitude": 40.071422,
        "longitude": 69.440791
    },
    {
        "name": "Oltintopkan",
        "country": "Tajikistan",
        "province": "Sughd",
        "population": 4823,
        "latitude": 40.654252,
        "longitude": 69.598113
    },
    {
        "name": "Ak-Tyube",
        "country": "Tajikistan",
        "province": "Sughd",
        "population": -1,
        "latitude": 40.016667,
        "longitude": 69.466667
    },
    {
        "name": "Chilgazí",
        "country": "Tajikistan",
        "province": "Sughd",
        "population": -1,
        "latitude": 40.156889,
        "longitude": 70.731687
    },
    {
        "name": "Yulduz",
        "country": "Tajikistan",
        "province": "Khatlon",
        "population": -1,
        "latitude": 37.486823,
        "longitude": 69.376009
    },
    {
        "name": "Taginamak",
        "country": "Tajikistan",
        "province": "Khatlon",
        "population": -1,
        "latitude": 37.693819,
        "longitude": 69.602594
    },
    {
        "name": "Beshariq",
        "country": "Tajikistan",
        "province": "Khatlon",
        "population": -1,
        "latitude": 37.835023,
        "longitude": 69.634785
    },
    {
        "name": "Lŭlikŭtal",
        "country": "Tajikistan",
        "province": "Khatlon",
        "population": -1,
        "latitude": 37.866178,
        "longitude": 69.75351
    },
    {
        "name": "Qizilbuloq",
        "country": "Tajikistan",
        "province": "Khatlon",
        "population": -1,
        "latitude": 37.772002,
        "longitude": 69.160175
    },
    {
        "name": "Bulyon",
        "country": "Tajikistan",
        "province": "Khatlon",
        "population": -1,
        "latitude": 37.9674,
        "longitude": 69.390833
    },
    {
        "name": "Shaftobuloq",
        "country": "Tajikistan",
        "province": "Khatlon",
        "population": -1,
        "latitude": 37.519992,
        "longitude": 69.367353
    },
    {
        "name": "Maydapatta",
        "country": "Tajikistan",
        "province": "Khatlon",
        "population": -1,
        "latitude": 37.528992,
        "longitude": 69.321469
    },
    {
        "name": "Bobosafoli Poyon",
        "country": "Tajikistan",
        "province": "Khatlon",
        "population": -1,
        "latitude": 37.61526,
        "longitude": 69.402828
    },
    {
        "name": "Qůl",
        "country": "Tajikistan",
        "province": "Sughd",
        "population": 55,
        "latitude": 39.154872016547415,
        "longitude": 69.09946620466144
    },
    {
        "name": "Qahramon",
        "country": "Tajikistan",
        "province": "Khatlon",
        "population": -1,
        "latitude": 37.857954,
        "longitude": 68.742324
    },
    {
        "name": "Surkhi",
        "country": "Tajikistan",
        "province": "Sughd",
        "population": -1,
        "latitude": 39.996375,
        "longitude": 70.599367
    },
    {
        "name": "Khonobod",
        "country": "Tajikistan",
        "province": "Sughd",
        "population": -1,
        "latitude": 40.193471,
        "longitude": 70.591676
    },
    {
        "name": "Navgilem",
        "country": "Tajikistan",
        "province": "Sughd",
        "population": -1,
        "latitude": 40.130053,
        "longitude": 70.651654
    },
    {
        "name": "Chilgazí",
        "country": "Tajikistan",
        "province": "Sughd",
        "population": -1,
        "latitude": 40.15555,
        "longitude": 70.731488
    },
    {
        "name": "Moskovskiy",
        "country": "Tajikistan",
        "province": "Khatlon",
        "population": 22100,
        "latitude": 37.60931,
        "longitude": 68.580936
    },
    {
        "name": "Navobad",
        "country": "Tajikistan",
        "province": "Sughd",
        "population": -1,
        "latitude": 39.448903,
        "longitude": 67.920652
    },
    {
        "name": "Tagoyak",
        "country": "Tajikistan",
        "province": "Sughd",
        "population": -1,
        "latitude": 40.120182,
        "longitude": 69.323018
    },
    {
        "name": "Gazantarak",
        "country": "Tajikistan",
        "province": "Sughd",
        "population": -1,
        "latitude": 39.970102,
        "longitude": 69.137037
    },
    {
        "name": "Poshkent",
        "country": "Tajikistan",
        "province": "Sughd",
        "population": -1,
        "latitude": 39.880184,
        "longitude": 69.02705
    },
    {
        "name": "Shamtuch",
        "country": "Tajikistan",
        "province": "Sughd",
        "population": -1,
        "latitude": 39.408465,
        "longitude": 69.030308
    },
    {
        "name": "Dŭstí",
        "country": "Tajikistan",
        "province": "Khatlon",
        "population": -1,
        "latitude": 38.066506,
        "longitude": 68.836744
    },
    {
        "name": "Gulkhos",
        "country": "Tajikistan",
        "province": "Republican Subordination",
        "population": -1,
        "latitude": 38.617929,
        "longitude": 68.134555
    },
    {
        "name": "Shŭroby",
        "country": "Tajikistan",
        "province": "Republican Subordination",
        "population": -1,
        "latitude": 38.538778,
        "longitude": 68.61914
    },
    {
        "name": "Mikrorayoni Yaksadu Chahor",
        "country": "Tajikistan",
        "province": "Dushanbe",
        "population": -1,
        "latitude": 38.571151,
        "longitude": 68.730111
    },
    {
        "name": "Shodiyona",
        "country": "Tajikistan",
        "province": "Dushanbe",
        "population": -1,
        "latitude": 38.539312,
        "longitude": 68.784927
    },
    {
        "name": "Mehrobod",
        "country": "Tajikistan",
        "province": "Dushanbe",
        "population": -1,
        "latitude": 38.597453,
        "longitude": 68.749263
    },
    {
        "name": "Guliston",
        "country": "Tajikistan",
        "province": "Khatlon",
        "population": -1,
        "latitude": 38.021372,
        "longitude": 69.078198
    },
    {
        "name": "Qoshkaroha",
        "country": "Tajikistan",
        "province": "Khatlon",
        "population": -1,
        "latitude": 38.173878,
        "longitude": 69.013257
    },
    {
        "name": "Qirgochak",
        "country": "Tajikistan",
        "province": "Khatlon",
        "population": -1,
        "latitude": 38.191076,
        "longitude": 69.027937
    },
    {
        "name": "Dashtobod",
        "country": "Tajikistan",
        "province": "Khatlon",
        "population": -1,
        "latitude": 38.221389,
        "longitude": 69.019722
    },
    {
        "name": "Qushbuloq",
        "country": "Tajikistan",
        "province": "Khatlon",
        "population": -1,
        "latitude": 38.150586,
        "longitude": 69.234908
    },
    {
        "name": "Igron",
        "country": "Tajikistan",
        "province": "Khatlon",
        "population": -1,
        "latitude": 38.229569,
        "longitude": 69.312818
    },
    {
        "name": "Tutkŭl",
        "country": "Tajikistan",
        "province": "Khatlon",
        "population": -1,
        "latitude": 38.130122,
        "longitude": 69.338134
    },
    {
        "name": "Tushqovul",
        "country": "Tajikistan",
        "province": "Khatlon",
        "population": -1,
        "latitude": 38.271824,
        "longitude": 69.263668
    },
    {
        "name": "Parchasoy",
        "country": "Tajikistan",
        "province": "Khatlon",
        "population": -1,
        "latitude": 38.262206,
        "longitude": 69.041732
    },
    {
        "name": "Parkamchí",
        "country": "Tajikistan",
        "province": "Khatlon",
        "population": -1,
        "latitude": 38.178643,
        "longitude": 69.352071
    },
    {
        "name": "Ghijovak",
        "country": "Tajikistan",
        "province": "Khatlon",
        "population": -1,
        "latitude": 38.171808,
        "longitude": 69.374049
    },
    {
        "name": "Bobotŭpkhona",
        "country": "Tajikistan",
        "province": "Khatlon",
        "population": -1,
        "latitude": 38.261675,
        "longitude": 69.35579
    },
    {
        "name": "Lohur",
        "country": "Tajikistan",
        "province": "Khatlon",
        "population": -1,
        "latitude": 38.032793,
        "longitude": 69.173188
    },
    {
        "name": "Alijon",
        "country": "Tajikistan",
        "province": "Khatlon",
        "population": -1,
        "latitude": 38.170178,
        "longitude": 69.394181
    },
    {
        "name": "Shibonaí",
        "country": "Tajikistan",
        "province": "Khatlon",
        "population": -1,
        "latitude": 38.091531,
        "longitude": 69.594844
    },
    {
        "name": "Bulyoni Bolo",
        "country": "Tajikistan",
        "province": "Khatlon",
        "population": -1,
        "latitude": 38.053984,
        "longitude": 69.435948
    },
    {
        "name": "Boshbuloq",
        "country": "Tajikistan",
        "province": "Khatlon",
        "population": -1,
        "latitude": 38.113956,
        "longitude": 69.367701
    },
    {
        "name": "Khuseynshug",
        "country": "Tajikistan",
        "province": "Khatlon",
        "population": -1,
        "latitude": 38.132235,
        "longitude": 69.458929
    },
    {
        "name": "Qizilsoy",
        "country": "Tajikistan",
        "province": "Khatlon",
        "population": -1,
        "latitude": 38.081264,
        "longitude": 69.450782
    },
    {
        "name": "Chigla",
        "country": "Tajikistan",
        "province": "Khatlon",
        "population": -1,
        "latitude": 38.181048,
        "longitude": 69.548877
    },
    {
        "name": "Qaroqamish",
        "country": "Tajikistan",
        "province": "Khatlon",
        "population": -1,
        "latitude": 38.232734,
        "longitude": 69.523734
    },
    {
        "name": "Davotkhalqyor",
        "country": "Tajikistan",
        "province": "Khatlon",
        "population": -1,
        "latitude": 38.180162,
        "longitude": 69.576317
    },
    {
        "name": "Jantoqlí",
        "country": "Tajikistan",
        "province": "Khatlon",
        "population": -1,
        "latitude": 38.159188,
        "longitude": 69.579818
    },
    {
        "name": "Taboshar",
        "country": "Tajikistan",
        "province": "Khatlon",
        "population": -1,
        "latitude": 38.142352,
        "longitude": 69.581235
    },
    {
        "name": "Qiblaí",
        "country": "Tajikistan",
        "province": "Khatlon",
        "population": -1,
        "latitude": 38.028092,
        "longitude": 69.598484
    },
    {
        "name": "Qurbontaybuloqi Poyon",
        "country": "Tajikistan",
        "province": "Khatlon",
        "population": -1,
        "latitude": 38.033809,
        "longitude": 69.655588
    },
    {
        "name": "Devona-Khoja",
        "country": "Tajikistan",
        "province": "Khatlon",
        "population": -1,
        "latitude": 38.108198,
        "longitude": 69.848749
    },
    {
        "name": "Gulisoy Vtoroy",
        "country": "Tajikistan",
        "province": "Khatlon",
        "population": -1,
        "latitude": 38.116582,
        "longitude": 69.756031
    },
    {
        "name": "Fayzobod",
        "country": "Tajikistan",
        "province": "Khatlon",
        "population": -1,
        "latitude": 38.088652,
        "longitude": 69.843418
    },
    {
        "name": "Shaghmoni Poyon",
        "country": "Tajikistan",
        "province": "Khatlon",
        "population": -1,
        "latitude": 38.212856,
        "longitude": 69.848984
    },
    {
        "name": "Navobod",
        "country": "Tajikistan",
        "province": "Khatlon",
        "population": -1,
        "latitude": 38.087544,
        "longitude": 69.8724
    },
    {
        "name": "Sangdarai Ubara",
        "country": "Tajikistan",
        "province": "Khatlon",
        "population": -1,
        "latitude": 38.017814,
        "longitude": 69.965053
    },
    {
        "name": "Martakí",
        "country": "Tajikistan",
        "province": "Khatlon",
        "population": -1,
        "latitude": 38.159396,
        "longitude": 69.994982
    },
    {
        "name": "Ghofilobod",
        "country": "Tajikistan",
        "province": "Khatlon",
        "population": -1,
        "latitude": 38.146229,
        "longitude": 70.013212
    },
    {
        "name": "Delolo",
        "country": "Tajikistan",
        "province": "Khatlon",
        "population": -1,
        "latitude": 38.122705,
        "longitude": 70.033635
    },
    {
        "name": "Javzodara",
        "country": "Tajikistan",
        "province": "Khatlon",
        "population": -1,
        "latitude": 38.255689,
        "longitude": 70.12835
    },
    {
        "name": "Tuyabuyun",
        "country": "Tajikistan",
        "province": "Khatlon",
        "population": -1,
        "latitude": 38.090802,
        "longitude": 69.433702
    },
    {
        "name": "Sangi Ghur",
        "country": "Tajikistan",
        "province": "Khatlon",
        "population": -1,
        "latitude": 38.14149,
        "longitude": 69.907523
    },
    {
        "name": "Boggaí",
        "country": "Tajikistan",
        "province": "Khatlon",
        "population": -1,
        "latitude": 38.066203,
        "longitude": 69.961376
    },
    {
        "name": "Qirkhizqishloq",
        "country": "Tajikistan",
        "province": "Republican Subordination",
        "population": -1,
        "latitude": 38.671357,
        "longitude": 68.222195
    },
    {
        "name": "Momandiyon",
        "country": "Tajikistan",
        "province": "Khatlon",
        "population": -1,
        "latitude": 38.153235,
        "longitude": 70.072305
    },
    {
        "name": "Guruyon",
        "country": "Tajikistan",
        "province": "Republican Subordination",
        "population": -1,
        "latitude": 38.680982,
        "longitude": 68.604996
    },
    {
        "name": "Langar",
        "country": "Tajikistan",
        "province": "Gorno-Badakhshan",
        "population": -1,
        "latitude": 38.358793,
        "longitude": 71.448499
    },
    {
        "name": "Ozodii Sharq",
        "country": "Tajikistan",
        "province": "Khatlon",
        "population": -1,
        "latitude": 38.000224,
        "longitude": 68.856247
    },
    {
        "name": "Yangiyor",
        "country": "Tajikistan",
        "province": "Khatlon",
        "population": -1,
        "latitude": 38.032516,
        "longitude": 68.72528
    },
    {
        "name": "Ghalaba",
        "country": "Tajikistan",
        "province": "Khatlon",
        "population": -1,
        "latitude": 38.070222,
        "longitude": 68.808865
    },
    {
        "name": "Yangiobod",
        "country": "Tajikistan",
        "province": "Khatlon",
        "population": -1,
        "latitude": 38.089749,
        "longitude": 68.616076
    },
    {
        "name": "Mehnat",
        "country": "Tajikistan",
        "province": "Khatlon",
        "population": -1,
        "latitude": 38.090872,
        "longitude": 68.687899
    },
    {
        "name": "Sa’dii Sherozí",
        "country": "Tajikistan",
        "province": "Khatlon",
        "population": -1,
        "latitude": 38.101256,
        "longitude": 68.856474
    },
    {
        "name": "Furqat",
        "country": "Tajikistan",
        "province": "Khatlon",
        "population": -1,
        "latitude": 38.098628,
        "longitude": 68.935688
    },
    {
        "name": "Firdavsí",
        "country": "Tajikistan",
        "province": "Khatlon",
        "population": -1,
        "latitude": 38.111293,
        "longitude": 68.942497
    },
    {
        "name": "Furqat",
        "country": "Tajikistan",
        "province": "Khatlon",
        "population": -1,
        "latitude": 38.124304,
        "longitude": 68.836433
    },
    {
        "name": "Zafarobod",
        "country": "Tajikistan",
        "province": "Khatlon",
        "population": -1,
        "latitude": 38.143673,
        "longitude": 68.970025
    },
    {
        "name": "Ghallaobod",
        "country": "Tajikistan",
        "province": "Khatlon",
        "population": -1,
        "latitude": 38.17823,
        "longitude": 68.67016
    },
    {
        "name": "Èshma",
        "country": "Tajikistan",
        "province": "Khatlon",
        "population": -1,
        "latitude": 38.189972,
        "longitude": 68.743113
    },
    {
        "name": "Taghoyobod",
        "country": "Tajikistan",
        "province": "Khatlon",
        "population": -1,
        "latitude": 38.207622,
        "longitude": 68.968103
    },
    {
        "name": "Dashtak",
        "country": "Tajikistan",
        "province": "Gorno-Badakhshan",
        "population": -1,
        "latitude": 38.456749,
        "longitude": 70.777455
    },
    {
        "name": "Kharkhara",
        "country": "Tajikistan",
        "province": "Khatlon",
        "population": -1,
        "latitude": 38.273819,
        "longitude": 68.628159
    },
    {
        "name": "Qulobod",
        "country": "Tajikistan",
        "province": "Khatlon",
        "population": -1,
        "latitude": 38.274435,
        "longitude": 68.989718
    },
    {
        "name": "Chuchu",
        "country": "Tajikistan",
        "province": "Khatlon",
        "population": -1,
        "latitude": 38.363477,
        "longitude": 68.939956
    },
    {
        "name": "Khirazmoní",
        "country": "Tajikistan",
        "province": "Khatlon",
        "population": -1,
        "latitude": 38.238871,
        "longitude": 70.083733
    },
    {
        "name": "Kundashar",
        "country": "Tajikistan",
        "province": "Khatlon",
        "population": -1,
        "latitude": 38.289225,
        "longitude": 70.07205
    },
    {
        "name": "Navobod",
        "country": "Tajikistan",
        "province": "Khatlon",
        "population": -1,
        "latitude": 38.307338,
        "longitude": 70.029641
    },
    {
        "name": "Safedshahrak",
        "country": "Tajikistan",
        "province": "Khatlon",
        "population": -1,
        "latitude": 38.27823,
        "longitude": 69.914529
    },
    {
        "name": "Sari Osiyob",
        "country": "Tajikistan",
        "province": "Khatlon",
        "population": -1,
        "latitude": 38.308028,
        "longitude": 69.934842
    },
    {
        "name": "Buydoqobod",
        "country": "Tajikistan",
        "province": "Khatlon",
        "population": -1,
        "latitude": 38.324739,
        "longitude": 70.070543
    },
    {
        "name": "Dorobí",
        "country": "Tajikistan",
        "province": "Khatlon",
        "population": -1,
        "latitude": 38.327984,
        "longitude": 69.931957
    },
    {
        "name": "Pushiyon",
        "country": "Tajikistan",
        "province": "Khatlon",
        "population": -1,
        "latitude": 38.357879,
        "longitude": 69.948737
    },
    {
        "name": "Dehishur",
        "country": "Tajikistan",
        "province": "Khatlon",
        "population": -1,
        "latitude": 38.374777,
        "longitude": 69.96928
    },
    {
        "name": "Chuqurak",
        "country": "Tajikistan",
        "province": "Khatlon",
        "population": -1,
        "latitude": 38.389186,
        "longitude": 69.996997
    },
    {
        "name": "Navobod",
        "country": "Tajikistan",
        "province": "Khatlon",
        "population": -1,
        "latitude": 38.370154,
        "longitude": 70.011963
    },
    {
        "name": "Sinjí",
        "country": "Tajikistan",
        "province": "Khatlon",
        "population": -1,
        "latitude": 38.350092,
        "longitude": 70.084209
    },
    {
        "name": "Zardaki Poyon",
        "country": "Tajikistan",
        "province": "Khatlon",
        "population": -1,
        "latitude": 38.386106,
        "longitude": 70.035735
    },
    {
        "name": "Rŭyob-Sandara",
        "country": "Tajikistan",
        "province": "Khatlon",
        "population": -1,
        "latitude": 38.380651,
        "longitude": 70.131571
    },
    {
        "name": "Zelolak",
        "country": "Tajikistan",
        "province": "Khatlon",
        "population": -1,
        "latitude": 38.426477,
        "longitude": 70.158775
    },
    {
        "name": "Chorbogh",
        "country": "Tajikistan",
        "province": "Khatlon",
        "population": -1,
        "latitude": 38.336685,
        "longitude": 69.734937
    },
    {
        "name": "Shaghmon",
        "country": "Tajikistan",
        "province": "Khatlon",
        "population": -1,
        "latitude": 38.257699,
        "longitude": 69.825883
    },
    {
        "name": "Khojakhalil",
        "country": "Tajikistan",
        "province": "Khatlon",
        "population": -1,
        "latitude": 38.245404,
        "longitude": 69.894299
    },
    {
        "name": "Oqbuloq",
        "country": "Tajikistan",
        "province": "Khatlon",
        "population": -1,
        "latitude": 38.281215,
        "longitude": 69.707786
    },
    {
        "name": "Sanchaloni",
        "country": "Tajikistan",
        "province": "Khatlon",
        "population": -1,
        "latitude": 38.497284,
        "longitude": 69.916861
    },
    {
        "name": "Chavroq",
        "country": "Tajikistan",
        "province": "Khatlon",
        "population": -1,
        "latitude": 38.304632,
        "longitude": 69.544444
    },
    {
        "name": "Savda",
        "country": "Tajikistan",
        "province": "Khatlon",
        "population": -1,
        "latitude": 38.31238,
        "longitude": 69.560189
    },
    {
        "name": "Daraishoyon",
        "country": "Tajikistan",
        "province": "Khatlon",
        "population": -1,
        "latitude": 38.346224,
        "longitude": 69.600273
    },
    {
        "name": "Qibil",
        "country": "Tajikistan",
        "province": "Khatlon",
        "population": -1,
        "latitude": 38.382428,
        "longitude": 69.273783
    },
    {
        "name": "Mahrazi",
        "country": "Tajikistan",
        "province": "Khatlon",
        "population": -1,
        "latitude": 38.445246,
        "longitude": 69.281227
    },
    {
        "name": "Khayrobod",
        "country": "Tajikistan",
        "province": "Khatlon",
        "population": -1,
        "latitude": 38.428643,
        "longitude": 69.323471
    },
    {
        "name": "Peho",
        "country": "Tajikistan",
        "province": "Khatlon",
        "population": -1,
        "latitude": 38.40986,
        "longitude": 69.349496
    },
    {
        "name": "Turghuling",
        "country": "Tajikistan",
        "province": "Tajikistan",
        "population": -1,
        "latitude": 38.482699,
        "longitude": 69.569419
    },
    {
        "name": "Beshbuloq",
        "country": "Tajikistan",
        "province": "Khatlon",
        "population": -1,
        "latitude": 38.340842,
        "longitude": 69.084435
    },
    {
        "name": "Navkoram",
        "country": "Tajikistan",
        "province": "Khatlon",
        "population": -1,
        "latitude": 38.283076,
        "longitude": 69.042484
    },
    {
        "name": "Daldakhuron",
        "country": "Tajikistan",
        "province": "Khatlon",
        "population": -1,
        "latitude": 38.352847,
        "longitude": 69.195876
    },
    {
        "name": "Shamanbuloq",
        "country": "Tajikistan",
        "province": "Khatlon",
        "population": -1,
        "latitude": 38.403234,
        "longitude": 69.002552
    },
    {
        "name": "Hasaní",
        "country": "Tajikistan",
        "province": "Khatlon",
        "population": -1,
        "latitude": 38.382689,
        "longitude": 69.097375
    },
    {
        "name": "Kŭymot",
        "country": "Tajikistan",
        "province": "Khatlon",
        "population": -1,
        "latitude": 38.404307,
        "longitude": 69.111089
    },
    {
        "name": "Qarotosh",
        "country": "Tajikistan",
        "province": "Tajikistan",
        "population": -1,
        "latitude": 38.387775,
        "longitude": 69.241859
    },
    {
        "name": "Sarikamar",
        "country": "Tajikistan",
        "province": "Khatlon",
        "population": -1,
        "latitude": 38.341709,
        "longitude": 69.364608
    },
    {
        "name": "Ghofilobod",
        "country": "Tajikistan",
        "province": "Khatlon",
        "population": -1,
        "latitude": 38.31441,
        "longitude": 69.146689
    },
    {
        "name": "Jal Jal",
        "country": "Tajikistan",
        "province": "Khatlon",
        "population": -1,
        "latitude": 38.376145,
        "longitude": 69.207571
    },
    {
        "name": "Navdeh",
        "country": "Tajikistan",
        "province": "Khatlon",
        "population": -1,
        "latitude": 38.438754,
        "longitude": 69.333597
    },
    {
        "name": "Namozgokh",
        "country": "Tajikistan",
        "province": "Republican Subordination",
        "population": -1,
        "latitude": 39.049402,
        "longitude": 68.844957
    },
    {
        "name": "Shohtuto",
        "country": "Tajikistan",
        "province": "Tajikistan",
        "population": -1,
        "latitude": 38.537008,
        "longitude": 69.633473
    },
    {
        "name": "Panjrŭd",
        "country": "Tajikistan",
        "province": "Sughd",
        "population": -1,
        "latitude": 39.349117,
        "longitude": 68.056897
    },
    {
        "name": "Shashqat",
        "country": "Tajikistan",
        "province": "Sughd",
        "population": -1,
        "latitude": 39.392428,
        "longitude": 68.049779
    },
    {
        "name": "Roghun",
        "country": "Tajikistan",
        "province": "Republican Subordination",
        "population": -1,
        "latitude": 38.69331,
        "longitude": 69.736918
    },