[
    {
        "name": "Ankara",
        "country": "Turkey",
        "province": "Ankara",
        "population": 3517182,
        "latitude": 39.9198743755027,
        "longitude": 32.8542709350586
    },
    {
        "name": "Izmir",
        "country": "Turkey",
        "province": "İzmir",
        "population": 2500603,
        "latitude": 38.412726,
        "longitude": 27.138376
    },
    {
        "name": "Istanbul",
        "country": "Turkey",
        "province": "Istanbul",
        "population": 14804116,
        "latitude": 41.0138429552247,
        "longitude": 28.9496612548828
    },
    {
        "name": "Antalya",
        "country": "Turkey",
        "province": "Antalya",
        "population": 1344000,
        "latitude": 36.908118,
        "longitude": 30.695565
    },
    {
        "name": "Adana",
        "country": "Turkey",
        "province": "Adana",
        "population": 1779463,
        "latitude": 36.98615,
        "longitude": 35.32531
    },
    {
        "name": "Gaziantep",
        "country": "Turkey",
        "province": "Gaziantep",
        "population": 1808948,
        "latitude": 37.059444,
        "longitude": 37.3825
    },
    {
        "name": "Konya",
        "country": "Turkey",
        "province": "Konya",
        "population": 1390051,
        "latitude": 37.871354,
        "longitude": 32.484636
    },
    {
        "name": "Kayseri",
        "country": "Turkey",
        "province": "Kayseri",
        "population": 1204641,
        "latitude": 38.732222,
        "longitude": 35.485278
    },
    {
        "name": "Bursa",
        "country": "Turkey",
        "province": "Bursa",
        "population": 3101833,
        "latitude": 40.195593,
        "longitude": 29.06013
    },
    {
        "name": "Çankaya",
        "country": "Turkey",
        "province": "Ankara",
        "population": 792189,
        "latitude": 39.91789953067524,
        "longitude": 32.8626823425293
    },
    {
        "name": "Erzurum",
        "country": "Turkey",
        "province": "Erzurum",
        "population": 767848,
        "latitude": 39.9086111,
        "longitude": 41.2769444
    },
    {
        "name": "Eskişehir",
        "country": "Turkey",
        "province": "Eskişehir",
        "population": 898369,
        "latitude": 39.776667,
        "longitude": 30.520556
    },
    {
        "name": "Malatya",
        "country": "Turkey",
        "province": "Malatya",
        "population": 806156,
        "latitude": 38.350183,
        "longitude": 38.316669
    },
    {
        "name": "Diyarbakır",
        "country": "Turkey",
        "province": "Diyarbakır",
        "population": 1791373,
        "latitude": 37.913629,
        "longitude": 40.217213
    },
    {
        "name": "Balıkesir",
        "country": "Turkey",
        "province": "Balıkesir",
        "population": 238151,
        "latitude": 39.649167,
        "longitude": 27.886111
    },
    {
        "name": "Aydin",
        "country": "Turkey",
        "province": "Aydın",
        "population": 163022,
        "latitude": 37.845008,
        "longitude": 27.839626
    },
    {
        "name": "Antakya",
        "country": "Turkey",
        "province": "Hatay",
        "population": 210000,
        "latitude": 36.206551,
        "longitude": 36.157225
    },
    {
        "name": "Adıyaman",
        "country": "Turkey",
        "province": "Adıyaman",
        "population": 267131,
        "latitude": 37.76441,
        "longitude": 38.276287
    },
    {
        "name": "Sivas",
        "country": "Turkey",
        "province": "Sivas",
        "population": 264022,
        "latitude": 39.7483333,
        "longitude": 37.0161111
    },
    {
        "name": "Siirt",
        "country": "Turkey",
        "province": "Siirt",
        "population": 114034,
        "latitude": 37.9293,
        "longitude": 41.94134
    },
    {
        "name": "Osmaniye",
        "country": "Turkey",
        "province": "Osmaniye",
        "population": 202837,
        "latitude": 37.074167,
        "longitude": 36.247778
    },
    {
        "name": "Elâzığ",
        "country": "Turkey",
        "province": "Elazığ",
        "population": 443363,
        "latitude": 38.674314,
        "longitude": 39.223206
    },
    {
        "name": "Denizli",
        "country": "Turkey",
        "province": "Denizli",
        "population": 313238,
        "latitude": 37.7741667,
        "longitude": 29.0875
    },
    {
        "name": "Niğde",
        "country": "Turkey",
        "province": "Niğde",
        "population": 91039,
        "latitude": 37.965834,
        "longitude": 34.679352
    },
    {
        "name": "Nevşehir",
        "country": "Turkey",
        "province": "Nevşehir",
        "population": 75527,
        "latitude": 38.625,
        "longitude": 34.712222
    },
    {
        "name": "Muş",
        "country": "Turkey",
        "province": "Muş",
        "population": 82536,
        "latitude": 38.731635,
        "longitude": 41.484821
    },
    {
        "name": "Mersin",
        "country": "Turkey",
        "province": "Mersin",
        "population": 537842,
        "latitude": 36.81196,
        "longitude": 34.63886
    },
    {
        "name": "Manisa",
        "country": "Turkey",
        "province": "Manisa",
        "population": 243971,
        "latitude": 38.612018,
        "longitude": 27.426465
    },
    {
        "name": "Kütahya",
        "country": "Turkey",
        "province": "Kütahya",
        "population": 185008,
        "latitude": 39.424167,
        "longitude": 29.983333
    },
    {
        "name": "Isparta",
        "country": "Turkey",
        "province": "Isparta",
        "population": 172334,
        "latitude": 37.7644444,
        "longitude": 30.5522222
    },
    {
        "name": "Yozgat",
        "country": "Turkey",
        "province": "Yozgat",
        "population": 87881,
        "latitude": 39.82,
        "longitude": 34.804444
    },
    {
        "name": "Sanliurfa",
        "country": "Turkey",
        "province": "Şanlıurfa",
        "population": 449549,
        "latitude": 37.16708,
        "longitude": 38.793919
    },
    {
        "name": "Kırklareli",
        "country": "Turkey",
        "province": "Kırklareli",
        "population": 58223,
        "latitude": 41.735082,
        "longitude": 27.22521
    },
    {
        "name": "İzmit",
        "country": "Turkey",
        "province": "Kocaeli",
        "population": 196571,
        "latitude": 40.76499,
        "longitude": 29.92928
    },
    {
        "name": "Adapazarı",
        "country": "Turkey",
        "province": "Sakarya",
        "population": 286787,
        "latitude": 40.7805556,
        "longitude": 30.4033333
    },
    {
        "name": "Bağcılar",
        "country": "Turkey",
        "province": "Istanbul",
        "population": 749024,
        "latitude": 41.0390311924255,
        "longitude": 28.8567066192627
    },
    {
        "name": "Trabzon",
        "country": "Turkey",
        "province": "Trabzon",
        "population": 244083,
        "latitude": 41.005,
        "longitude": 39.726944
    },
    {
        "name": "Tokat Province",
        "country": "Turkey",
        "province": "Tokat",
        "population": 129702,
        "latitude": 40.313889,
        "longitude": 36.554444
    },
    {
        "name": "Tekirdağ",
        "country": "Turkey",
        "province": "Tekirdağ",
        "population": 122287,
        "latitude": 40.9781,
        "longitude": 27.51101
    },
    {
        "name": "Samsun",
        "country": "Turkey",
        "province": "Samsun",
        "population": 394050,
        "latitude": 41.27976,
        "longitude": 36.3361
    },
    {
        "name": "Bitlis",
        "country": "Turkey",
        "province": "Bitlis",
        "population": 53023,
        "latitude": 38.401146,
        "longitude": 42.107845
    },
    {
        "name": "Burdur",
        "country": "Turkey",
        "province": "Burdur",
        "population": 95436,
        "latitude": 37.7202778,
        "longitude": 30.2908333
    },
    {
        "name": "Mardin",
        "country": "Turkey",
        "province": "Mardin",
        "population": 129864,
        "latitude": 37.313092,
        "longitude": 40.743569
    },
    {
        "name": "Ordu",
        "country": "Turkey",
        "province": "Ordu",
        "population": 229214,
        "latitude": 40.97782,
        "longitude": 37.89047
    },
    {
        "name": "Kırşehir",
        "country": "Turkey",
        "province": "Kırşehir",
        "population": 150700,
        "latitude": 39.145833,
        "longitude": 34.163889
    },
    {
        "name": "Kırıkkale",
        "country": "Turkey",
        "province": "Kırıkkale",
        "population": 186960,
        "latitude": 39.845278,
        "longitude": 33.506389
    },
    {
        "name": "Batman",
        "country": "Turkey",
        "province": "Batman",
        "population": 452157,
        "latitude": 37.887378,
        "longitude": 41.132208
    },
    {
        "name": "Kilis",
        "country": "Turkey",
        "province": "Kilis",
        "population": 111648,
        "latitude": 36.7161111,
        "longitude": 37.115
    },
    {
        "name": "Bartın",
        "country": "Turkey",
        "province": "Bartın",
        "population": 81692,
        "latitude": 41.635833,
        "longitude": 32.3375
    },
    {
        "name": "Afyonkarahisar",
        "country": "Turkey",
        "province": "Afyonkarahisar",
        "population": 251799,
        "latitude": 38.7566667,
        "longitude": 30.5433333
    },
    {
        "name": "Zonguldak",
        "country": "Turkey",
        "province": "Zonguldak",
        "population": 101749,
        "latitude": 41.451392,
        "longitude": 31.793053
    },
    {
        "name": "Karabük",
        "country": "Turkey",
        "province": "Karabük",
        "population": 125403,
        "latitude": 41.204884,
        "longitude": 32.62768
    },
    {
        "name": "Aksaray",
        "country": "Turkey",
        "province": "Aksaray",
        "population": 247147,
        "latitude": 38.37255,
        "longitude": 34.02537
    },
    {
        "name": "Kars",
        "country": "Turkey",
        "province": "Kars",
        "population": 91450,
        "latitude": 40.59825,
        "longitude": 43.085477
    },
    {
        "name": "Ağrı",
        "country": "Turkey",
        "province": "Ağrı",
        "population": 120390,
        "latitude": 39.714666,
        "longitude": 43.040151
    },
    {
        "name": "Rize",
        "country": "Turkey",
        "province": "Rize",
        "population": 119828,
        "latitude": 41.020833,
        "longitude": 40.521944
    },
    {
        "name": "Kastamonu",
        "country": "Turkey",
        "province": "Kastamonu",
        "population": 125622,
        "latitude": 41.378052,
        "longitude": 33.775275
    },
    {
        "name": "Edirne",
        "country": "Turkey",
        "province": "Edirne",
        "population": 180002,
        "latitude": 41.6771911170571,
        "longitude": 26.5559720993042
    },
    {
        "name": "Kahramanmaraş",
        "country": "Turkey",
        "province": "Kahramanmaraş",
        "population": 384953,
        "latitude": 37.584705,
        "longitude": 36.926405
    },
    {
        "name": "Erzincan",
        "country": "Turkey",
        "province": "Erzincan",
        "population": 150714,
        "latitude": 39.739186,
        "longitude": 39.490152
    },
    {
        "name": "Karaman",
        "country": "Turkey",
        "province": "Karaman",
        "population": 175390,
        "latitude": 37.1811111,
        "longitude": 33.215
    },
    {
        "name": "Iğdır",
        "country": "Turkey",
        "province": "Iğdır",
        "population": 101700,
        "latitude": 39.923708,
        "longitude": 44.044999
    },
    {
        "name": "Çorum",
        "country": "Turkey",
        "province": "Çorum",
        "population": 269595,
        "latitude": 40.548889,
        "longitude": 34.953333
    },
    {
        "name": "Uşak",
        "country": "Turkey",
        "province": "Uşak",
        "population": 369433,
        "latitude": 38.673511,
        "longitude": 29.405799
    },
    {
        "name": "Van",
        "country": "Turkey",
        "province": "Van",
        "population": 525016,
        "latitude": 38.494565,
        "longitude": 43.383231
    },
    {
        "name": "Muğla",
        "country": "Turkey",
        "province": "Muğla",
        "population": 92328,
        "latitude": 37.218066,
        "longitude": 28.366497
    },
    {
        "name": "Çanakkale",
        "country": "Turkey",
        "province": "Canakkale",
        "population": 143622,
        "latitude": 40.155523,
        "longitude": 26.412707
    },
    {
        "name": "Amasya",
        "country": "Turkey",
        "province": "Amasya",
        "population": 114921,
        "latitude": 40.653333,
        "longitude": 35.833056
    },
    {
        "name": "Giresun",
        "country": "Turkey",
        "province": "Giresun",
        "population": 125682,
        "latitude": 40.91698,
        "longitude": 38.387406
    },
    {
        "name": "Bolu",
        "country": "Turkey",
        "province": "Bolu",
        "population": 184682,
        "latitude": 40.7358333,
        "longitude": 31.6061111
    },
    {
        "name": "Alanya",
        "country": "Turkey",
        "province": "Antalya",
        "population": 112969,
        "latitude": 36.543747,
        "longitude": 31.999817
    },
    {
        "name": "Heraclea",
        "country": "Turkey",
        "province": "Konya",
        "population": 92117,
        "latitude": 37.5133342709422,
        "longitude": 34.0467166900635
    },
    {
        "name": "İskenderun",
        "country": "Turkey",
        "province": "Hatay",
        "population": 159965,
        "latitude": 36.587185,
        "longitude": 36.173468
    },
    {
        "name": "Gebze",
        "country": "Turkey",
        "province": "Kocaeli",
        "population": 281436,
        "latitude": 40.802758,
        "longitude": 29.430684
    },
    {
        "name": "Sinop",
        "country": "Turkey",
        "province": "Sinop",
        "population": 34834,
        "latitude": 42.026829,
        "longitude": 35.162525
    },
    {
        "name": "Yalova",
        "country": "Turkey",
        "province": "Yalova",
        "population": 71289,
        "latitude": 40.655015,
        "longitude": 29.276933
    },
    {
        "name": "Scutari",
        "country": "Turkey",
        "province": "Istanbul",
        "population": 582666,
        "latitude": 41.02274,
        "longitude": 29.01366
    },
    {
        "name": "Bayburt",
        "country": "Turkey",
        "province": "Bayburt",
        "population": 48036,
        "latitude": 40.256313,
        "longitude": 40.222887
    },
    {
        "name": "Tunceli",
        "country": "Turkey",
        "province": "Tunceli",
        "population": 35161,
        "latitude": 39.099212,
        "longitude": 39.543511
    },
    {
        "name": "Bingöl",
        "country": "Turkey",
        "province": "Bingöl",
        "population": 128935,
        "latitude": 38.884722,
        "longitude": 40.493889
    },
    {
        "name": "Artvin",
        "country": "Turkey",
        "province": "Artvin",
        "population": 25841,
        "latitude": 41.181611,
        "longitude": 41.821722
    },
    {
        "name": "Ardahan",
        "country": "Turkey",
        "province": "Ardahan",
        "population": 22927,
        "latitude": 41.108711,
        "longitude": 42.702222
    },
    {
        "name": "Düzce",
        "country": "Turkey",
        "province": "Düzce",
        "population": 194097,
        "latitude": 40.838889,
        "longitude": 31.163889
    },
    {
        "name": "Bilecik",
        "country": "Turkey",
        "province": "Bilecik",
        "population": 74457,
        "latitude": 40.141924,
        "longitude": 29.979319
    },
    {
        "name": "Çankırı",
        "country": "Turkey",
        "province": "Çankırı",
        "population": 90564,
        "latitude": 40.599951,
        "longitude": 33.615301
    },
    {
        "name": "Tarsus",
        "country": "Turkey",
        "province": "Mersin",
        "population": 346715,
        "latitude": 36.91766,
        "longitude": 34.892773
    },
    {
        "name": "Akhisar",
        "country": "Turkey",
        "province": "Manisa",
        "population": 84659,
        "latitude": 38.918524,
        "longitude": 27.840065
    },
    {
        "name": "Ceyhan",
        "country": "Turkey",
        "province": "Adana",
        "population": 96303,
        "latitude": 37.024722,
        "longitude": 35.8175
    },
    {
        "name": "Bodrum",
        "country": "Turkey",
        "province": "Muğla",
        "population": 39317,
        "latitude": 37.038333,
        "longitude": 27.429167
    },
    {
        "name": "Bergama",
        "country": "Turkey",
        "province": "İzmir",
        "population": 57200,
        "latitude": 39.1207383989506,
        "longitude": 27.1805191040039
    },
    {
        "name": "Silifke",
        "country": "Turkey",
        "province": "Mersin",
        "population": 75315,
        "latitude": 36.377778,
        "longitude": 33.934444
    },
    {
        "name": "Polatlı",
        "country": "Turkey",
        "province": "Ankara",
        "population": 93262,
        "latitude": 39.577155,
        "longitude": 32.141317
    },
    {
        "name": "Fethiye",
        "country": "Turkey",
        "province": "Muğla",
        "population": 60437,
        "latitude": 36.640384,
        "longitude": 29.127583
    },
    {
        "name": "Doğubeyazıt",
        "country": "Turkey",
        "province": "Ağrı",
        "population": 70171,
        "latitude": 39.546944,
        "longitude": 44.084167
    },
    {
        "name": "Hakkâri",
        "country": "Turkey",
        "province": "Hakkâri",
        "population": 77699,
        "latitude": 37.5744444,
        "longitude": 43.7408333
    },
    {
        "name": "Nisibis",
        "country": "Turkey",
        "province": "Mardin",
        "population": 88977,
        "latitude": 37.07028,
        "longitude": 41.21465
    },
    {
        "name": "Nazilli",
        "country": "Turkey",
        "province": "Aydın",
        "population": 119370,
        "latitude": 37.916309,
        "longitude": 28.322249
    },
    {
        "name": "Midyat",
        "country": "Turkey",
        "province": "Mardin",
        "population": 76268,
        "latitude": 37.419078,
        "longitude": 41.339094
    },
    {
        "name": "Kusadasi",
        "country": "Turkey",
        "province": "Aydın",
        "population": 63177,
        "latitude": 37.86014,
        "longitude": 27.25713
    },
    {
        "name": "Viranşehir",
        "country": "Turkey",
        "province": "Şanlıurfa",
        "population": 154163,
        "latitude": 37.223491,
        "longitude": 39.755188
    },
    {
        "name": "İnegöl",
        "country": "Turkey",
        "province": "Bursa",
        "population": 133959,
        "latitude": 40.078056,
        "longitude": 29.513333
    },
    {
        "name": "Bandırma",
        "country": "Turkey",
        "province": "Balıkesir",
        "population": 107631,
        "latitude": 40.352222,
        "longitude": 27.976667
    },
    {
        "name": "Esenyurt",
        "country": "Turkey",
        "province": "Istanbul",
        "population": 211330,
        "latitude": 41.026966,
        "longitude": 28.677316
    },
    {
        "name": "Ereğli",
        "country": "Turkey",
        "province": "Zonguldak",
        "population": 88848,
        "latitude": 41.282615,
        "longitude": 31.418056
    },
    {
        "name": "Çorlu",
        "country": "Turkey",
        "province": "Tekirdağ",
        "population": 202578,
        "latitude": 41.159167,
        "longitude": 27.8
    },
    {
        "name": "Lüleburgaz",
        "country": "Turkey",
        "province": "Kırklareli",
        "population": 90899,
        "latitude": 41.403848,
        "longitude": 27.359181
    },
    {
        "name": "Karabağlar",
        "country": "Turkey",
        "province": "İzmir",
        "population": 458000,
        "latitude": 38.37396220263092,
        "longitude": 27.13520050048828
    },
    {
        "name": "Beylikduzu",
        "country": "Turkey",
        "province": "Istanbul",
        "population": 122452,
        "latitude": 40.982,
        "longitude": 28.6399
    },
    {
        "name": "Sultanbeyli",
        "country": "Turkey",
        "province": "Istanbul",
        "population": 286622,
        "latitude": 40.96071537053912,
        "longitude": 29.270668029785156
    },
    {
        "name": "Sancaktepe",
        "country": "Turkey",
        "province": "Istanbul",
        "population": 241000,
        "latitude": 41.00244356919737,
        "longitude": 29.23187255859375
    },
    {
        "name": "Gümüşhane",
        "country": "Turkey",
        "province": "Gümüşhane",
        "population": 39214,
        "latitude": 40.460009,
        "longitude": 39.471764
    },
    {
        "name": "Şırnak",
        "country": "Turkey",
        "province": "Şırnak",
        "population": 67662,
        "latitude": 37.51393,
        "longitude": 42.454324
    },
    {
        "name": "Batikent",
        "country": "Turkey",
        "province": "Ankara",
        "population": 300000,
        "latitude": 39.9683333,
        "longitude": 32.7308333
    },
    {
        "name": "Aivali",
        "country": "Turkey",
        "province": "Balıkesir",
        "population": 70002,
        "latitude": 39.31927,
        "longitude": 26.69341
    },
    {
        "name": "Anamur",
        "country": "Turkey",
        "province": "Mersin",
        "population": 57128,
        "latitude": 36.075081,
        "longitude": 32.836907
    },
    {
        "name": "Alaşehir",
        "country": "Turkey",
        "province": "Manisa",
        "population": 48147,
        "latitude": 38.350833,
        "longitude": 28.517175
    },
    {
        "name": "Akşehir",
        "country": "Turkey",
        "province": "Konya",
        "population": 64446,
        "latitude": 38.3575,
        "longitude": 31.416389
    },
    {
        "name": "Akçakale",
        "country": "Turkey",
        "province": "Şanlıurfa",
        "population": 32114,
        "latitude": 36.711111,
        "longitude": 38.9475
    },
    {
        "name": "Ahlat",
        "country": "Turkey",
        "province": "Bitlis",
        "population": 64695,
        "latitude": 38.748902,
        "longitude": 42.480065
    },
    {
        "name": "Cizre",
        "country": "Turkey",
        "province": "Şırnak",
        "population": 80992,
        "latitude": 37.33024,
        "longitude": 42.18484
    },
    {
        "name": "Besni",
        "country": "Turkey",
        "province": "Adıyaman",
        "population": 41892,
        "latitude": 37.692778,
        "longitude": 37.861111
    },
    {
        "name": "Belek",
        "country": "Turkey",
        "province": "Antalya",
        "population": 73260,
        "latitude": 36.8627778,
        "longitude": 31.0555556
    },
    {
        "name": "Tatvan",
        "country": "Turkey",
        "province": "Bitlis",
        "population": 73222,
        "latitude": 38.492213,
        "longitude": 42.28269
    },
    {
        "name": "Soma",
        "country": "Turkey",
        "province": "Manisa",
        "population": 65934,
        "latitude": 39.185535,
        "longitude": 27.609449
    },
    {
        "name": "Söke",
        "country": "Turkey",
        "province": "Aydın",
        "population": 68230,
        "latitude": 37.7482,
        "longitude": 27.40614
    },
    {
        "name": "Siverek",
        "country": "Turkey",
        "province": "Şanlıurfa",
        "population": 175341,
        "latitude": 37.755025,
        "longitude": 39.316667
    },
    {
        "name": "Miepherkeim",
        "country": "Turkey",
        "province": "Diyarbakır",
        "population": 65956,
        "latitude": 38.137082,
        "longitude": 41.008173
    },
    {
        "name": "Şereflikoçhisar",
        "country": "Turkey",
        "province": "Ankara",
        "population": 44101,
        "latitude": 38.9392500764685,
        "longitude": 33.5385990142822
    },
    {
        "name": "Şemdinli",
        "country": "Turkey",
        "province": "Hakkâri",
        "population": 18978,
        "latitude": 37.305144,
        "longitude": 44.5742
    },
    {
        "name": "Side",
        "country": "Turkey",
        "province": "Antalya",
        "population": 10505,
        "latitude": 36.766667,
        "longitude": 31.388889
    },
    {
        "name": "Selçuk",
        "country": "Turkey",
        "province": "İzmir",
        "population": 29101,
        "latitude": 37.951371965992,
        "longitude": 27.3684883117676
    },
    {
        "name": "Salihli",
        "country": "Turkey",
        "province": "Manisa",
        "population": 88906,
        "latitude": 38.482581,
        "longitude": 28.147737
    },
    {
        "name": "Reyhanlı",
        "country": "Turkey",
        "province": "Hatay",
        "population": 56995,
        "latitude": 36.267907,
        "longitude": 36.567472
    },
    {
        "name": "Patnos",
        "country": "Turkey",
        "province": "Ağrı",
        "population": 87451,
        "latitude": 39.224933,
        "longitude": 42.856933
    },
    {
        "name": "Pamukkale",
        "country": "Turkey",
        "province": "Denizli",
        "population": 10000,
        "latitude": 37.9164406158729,
        "longitude": 29.1172885894775
    },
    {
        "name": "Erciş",
        "country": "Turkey",
        "province": "Van",
        "population": 91915,
        "latitude": 39.025866,
        "longitude": 43.359644
    },
    {
        "name": "Elbistan",
        "country": "Turkey",
        "province": "Kahramanmaraş",
        "population": 80456,
        "latitude": 38.205909,
        "longitude": 37.198295
    },
    {
        "name": "Edremit",
        "country": "Turkey",
        "province": "Balıkesir",
        "population": 40777,
        "latitude": 39.596111,
        "longitude": 27.024444
    },
    {
        "name": "Dinar",
        "country": "Turkey",
        "province": "Afyonkarahisar",
        "population": 35359,
        "latitude": 38.065001,
        "longitude": 30.165569
    },
    {
        "name": "Nizip",
        "country": "Turkey",
        "province": "Gaziantep",
        "population": 82308,
        "latitude": 37.009722,
        "longitude": 37.794167
    },
    {
        "name": "Menemen",
        "country": "Turkey",
        "province": "İzmir",
        "population": 53489,
        "latitude": 38.607536,
        "longitude": 27.069382
    },
    {
        "name": "Marmaris",
        "country": "Turkey",
        "province": "Muğla",
        "population": 33731,
        "latitude": 36.855,
        "longitude": 28.274167
    },
    {
        "name": "Manavgat",
        "country": "Turkey",
        "province": "Antalya",
        "population": 99254,
        "latitude": 36.786667,
        "longitude": 31.443056
    },
    {
        "name": "Kozan",
        "country": "Turkey",
        "province": "Adana",
        "population": 88115,
        "latitude": 37.455167,
        "longitude": 35.81573
    },
    {
        "name": "Göreme",
        "country": "Turkey",
        "province": "Nevşehir",
        "population": 6350,
        "latitude": 38.643705,
        "longitude": 34.835288
    },
    {
        "name": "Yüksekova",
        "country": "Turkey",
        "province": "Hakkâri",
        "population": 71729,
        "latitude": 37.573624,
        "longitude": 44.287159
    },
    {
        "name": "Turgutlu",
        "country": "Turkey",
        "province": "Manisa",
        "population": 103292,
        "latitude": 38.495332,
        "longitude": 27.699697
    },
    {
        "name": "Torbalı",
        "country": "Turkey",
        "province": "İzmir",
        "population": 50303,
        "latitude": 38.151905,
        "longitude": 27.362231
    },
    {
        "name": "Kızıltepe",
        "country": "Turkey",
        "province": "Mardin",
        "population": 150174,
        "latitude": 37.188357,
        "longitude": 40.577232
    },
    {
        "name": "Kâhta",
        "country": "Turkey",
        "province": "Adıyaman",
        "population": 73105,
        "latitude": 37.785525,
        "longitude": 38.623697
    },
    {
        "name": "Nicaea",
        "country": "Turkey",
        "province": "Bursa",
        "population": 22230,
        "latitude": 40.428611,
        "longitude": 29.721111
    },
    {
        "name": "Çerkezköy",
        "country": "Turkey",
        "province": "Tekirdağ",
        "population": 84234,
        "latitude": 41.28628812064392,
        "longitude": 27.99938678741455
    },
    {
        "name": "Çarşamba",
        "country": "Turkey",
        "province": "Samsun",
        "population": 50459,
        "latitude": 41.198889,
        "longitude": 36.721944
    },
    {
        "name": "Biga",
        "country": "Turkey",
        "province": "Canakkale",
        "population": 30852,
        "latitude": 40.2280556,
        "longitude": 27.2422222
    },
    {
        "name": "Beypazarı",
        "country": "Turkey",
        "province": "Ankara",
        "population": 38769,
        "latitude": 40.1675,
        "longitude": 31.921111
    },
    {
        "name": "Bafra",
        "country": "Turkey",
        "province": "Samsun",
        "population": 92944,
        "latitude": 41.567778,
        "longitude": 35.906944
    },
    {
        "name": "Gemlik",
        "country": "Turkey",
        "province": "Bursa",
        "population": 71063,
        "latitude": 40.430937,
        "longitude": 29.159694
    },
    {
        "name": "Gelibolu",
        "country": "Turkey",
        "province": "Canakkale",
        "population": 25178,
        "latitude": 40.4102778,
        "longitude": 26.6708333
    },
    {
        "name": "Fatsa",
        "country": "Turkey",
        "province": "Ordu",
        "population": 82160,
        "latitude": 41.027778,
        "longitude": 37.501389
    },
    {
        "name": "Esenler",
        "country": "Turkey",
        "province": "Istanbul",
        "population": 520235,
        "latitude": 41.04349802275125,
        "longitude": 28.876190185546875
    },
    {
        "name": "Derince",
        "country": "Turkey",
        "province": "Kocaeli",
        "population": 125485,
        "latitude": 40.756944,
        "longitude": 29.814722
    },
    {
        "name": "Turhal",
        "country": "Turkey",
        "province": "Tokat",
        "population": 110884,
        "latitude": 40.3875,
        "longitude": 36.081111
    },
    {
        "name": "Şişli",
        "country": "Turkey",
        "province": "Istanbul",
        "population": 314684,
        "latitude": 41.0604562695332,
        "longitude": 28.9871692657471
    },
    {
        "name": "Siliviri",
        "country": "Turkey",
        "province": "Istanbul",
        "population": 53167,
        "latitude": 41.073927,
        "longitude": 28.24644
    },
    {
        "name": "Safranbolu",
        "country": "Turkey",
        "province": "Karabük",
        "population": 35242,
        "latitude": 41.250833,
        "longitude": 32.694167
    },
    {
        "name": "Mustafakemalpaşa",
        "country": "Turkey",
        "province": "Bursa",
        "population": 101412,
        "latitude": 40.038152,
        "longitude": 28.40866
    },
    {
        "name": "Merzifon",
        "country": "Turkey",
        "province": "Amasya",
        "population": 50658,
        "latitude": 40.873333,
        "longitude": 35.463056
    },
    {
        "name": "Maltepe",
        "country": "Turkey",
        "province": "Istanbul",
        "population": 427040,
        "latitude": 40.935668,
        "longitude": 29.155072
    },
    {
        "name": "Körfez",
        "country": "Turkey",
        "province": "Kocaeli",
        "population": 90580,
        "latitude": 40.767037,
        "longitude": 29.782748
    },
    {
        "name": "Uzunköprü",
        "country": "Turkey",
        "province": "Edirne",
        "population": 36470,
        "latitude": 41.265975,
        "longitude": 26.688496
    },
    {
        "name": "Ünye",
        "country": "Turkey",
        "province": "Ordu",
        "population": 77585,
        "latitude": 41.131389,
        "longitude": 37.2825
    },
    {
        "name": "Umraniye",
        "country": "Turkey",
        "province": "Istanbul",
        "population": 573265,
        "latitude": 41.016433449738585,
        "longitude": 29.124755859375
    },
    {
        "name": "Catalhoyuk",
        "country": "Turkey",
        "province": "Konya",
        "population": 10000,
        "latitude": 37.6684674441814,
        "longitude": 32.8268909454346
    },
    {
        "name": "Bahçelievler",
        "country": "Turkey",
        "province": "Istanbul",
        "population": 576799,
        "latitude": 41.0023140193875,
        "longitude": 28.8597965240479
    },
    {
        "name": "Merkezefendi",
        "country": "Turkey",
        "province": "Denizli",
        "population": 280341,
        "latitude": 37.80544,
        "longitude": 29.04236
    },
    {
        "name": "Denizciler",
        "country": "Turkey",
        "province": "Hatay",
        "population": 17495,
        "latitude": 36.641098,
        "longitude": 36.214184
    },
    {
        "name": "Miletus",
        "country": "Turkey",
        "province": "Aydın",
        "population": -1,
        "latitude": 37.5127778,
        "longitude": 27.2791667
    },
    {
        "name": "Bahçe",
        "country": "Turkey",
        "province": "Adana",
        "population": 13117,
        "latitude": 37.1972449448531,
        "longitude": 36.5765762329102
    },
    {
        "name": "Aydıncık",
        "country": "Turkey",
        "province": "Mersin",
        "population": 8385,
        "latitude": 36.143697120565,
        "longitude": 33.3201599121094
    },
    {
        "name": "Avsallar",
        "country": "Turkey",
        "province": "Antalya",
        "population": 12829,
        "latitude": 36.624485,
        "longitude": 31.769409
    },
    {
        "name": "Aşkale",
        "country": "Turkey",
        "province": "Erzurum",
        "population": 15462,
        "latitude": 39.9208333,
        "longitude": 40.695
    },
    {
        "name": "Afşin",
        "country": "Turkey",
        "province": "Kahramanmaraş",
        "population": 39613,
        "latitude": 38.247693,
        "longitude": 36.91399
    },
    {
        "name": "Adilcevaz",
        "country": "Turkey",
        "province": "Bitlis",
        "population": 52781,
        "latitude": 38.799106,
        "longitude": 42.731588
    },
    {
        "name": "Acarlar",
        "country": "Turkey",
        "province": "Aydın",
        "population": 10595,
        "latitude": 37.8244444,
        "longitude": 27.7466667
    },
    {
        "name": "Ceylanpınar",
        "country": "Turkey",
        "province": "Şanlıurfa",
        "population": 31488,
        "latitude": 36.847222,
        "longitude": 40.05
    },
    {
        "name": "Çeşme",
        "country": "Turkey",
        "province": "İzmir",
        "population": 21316,
        "latitude": 38.326144,
        "longitude": 26.305738
    },
    {
        "name": "Çay",
        "country": "Turkey",
        "province": "Afyonkarahisar",
        "population": 34215,
        "latitude": 38.591667,
        "longitude": 31.028611
    },
    {
        "name": "Burhaniye",
        "country": "Turkey",
        "province": "Balıkesir",
        "population": 38083,
        "latitude": 39.500407,
        "longitude": 26.972693
    },
    {
        "name": "Buldan",
        "country": "Turkey",
        "province": "Denizli",
        "population": 14811,
        "latitude": 38.045,
        "longitude": 28.830556
    },
    {
        "name": "Bulanık",
        "country": "Turkey",
        "province": "Muş",
        "population": 31430,
        "latitude": 39.086563,
        "longitude": 42.271576
    },
    {
        "name": "Bucak",
        "country": "Turkey",
        "province": "Burdur",
        "population": 29234,
        "latitude": 37.459167,
        "longitude": 30.595
    },
    {
        "name": "Bozyazı",
        "country": "Turkey",
        "province": "Mersin",
        "population": 28456,
        "latitude": 36.1082014841298,
        "longitude": 32.9611301422119
    },
    {
        "name": "Bozüyük",
        "country": "Turkey",
        "province": "Bilecik",
        "population": 55365,
        "latitude": 39.907778,
        "longitude": 30.036667
    },
    {
        "name": "Tenedos",
        "country": "Turkey",
        "province": "Canakkale",
        "population": 2635,
        "latitude": 39.835,
        "longitude": 26.0697222
    },
    {
        "name": "Bor",
        "country": "Turkey",
        "province": "Niğde",
        "population": 32435,
        "latitude": 37.890556,
        "longitude": 34.558889
    },
    {
        "name": "Bolvadin",
        "country": "Turkey",
        "province": "Afyonkarahisar",
        "population": 55870,
        "latitude": 38.711111,
        "longitude": 31.048611
    },
    {
        "name": "Birecik",
        "country": "Turkey",
        "province": "Şanlıurfa",
        "population": 44284,
        "latitude": 37.025771,
        "longitude": 37.978406
    },
    {
        "name": "Beyşehir",
        "country": "Turkey",
        "province": "Konya",
        "population": 44460,
        "latitude": 37.677348,
        "longitude": 31.724577
    },
    {
        "name": "Bayındır",
        "country": "Turkey",
        "province": "İzmir",
        "population": 16850,
        "latitude": 38.2174132571408,
        "longitude": 27.6474380493164
    },
    {
        "name": "Tavşanlı",
        "country": "Turkey",
        "province": "Kütahya",
        "population": 52182,
        "latitude": 39.542371,
        "longitude": 29.498657
    },
    {
        "name": "Tavas",
        "country": "Turkey",
        "province": "Denizli",
        "population": 11584,
        "latitude": 37.573507,
        "longitude": 29.07058
    },
    {
        "name": "Talas",
        "country": "Turkey",
        "province": "Kayseri",
        "population": 36890,
        "latitude": 38.690805,
        "longitude": 35.553801
    },
    {
        "name": "Suruç",
        "country": "Turkey",
        "province": "Şanlıurfa",
        "population": 46694,
        "latitude": 36.976116,
        "longitude": 38.425329
    },
    {
        "name": "Sorgun",
        "country": "Turkey",
        "province": "Yozgat",
        "population": 62862,
        "latitude": 39.810125,
        "longitude": 35.185959
    },
    {
        "name": "Simav",
        "country": "Turkey",
        "province": "Kütahya",
        "population": 34909,
        "latitude": 39.088204,
        "longitude": 28.977673
    },
    {
        "name": "Silopi",
        "country": "Turkey",
        "province": "Şırnak",
        "population": 74798,
        "latitude": 37.243788,
        "longitude": 42.463445
    },
    {
        "name": "Seydişehir",
        "country": "Turkey",
        "province": "Konya",
        "population": 51089,
        "latitude": 37.419256,
        "longitude": 31.845269
    },
    {
        "name": "Serik",
        "country": "Turkey",
        "province": "Antalya",
        "population": 36925,
        "latitude": 36.916944,
        "longitude": 31.098889
    },
    {
        "name": "Sartmahmut",
        "country": "Turkey",
        "province": "Manisa",
        "population": -1,
        "latitude": 38.49736,
        "longitude": 28.042395
    },
    {
        "name": "Şarkîkaraağaç",
        "country": "Turkey",
        "province": "Isparta",
        "population": 32771,
        "latitude": 38.079444,
        "longitude": 31.366389
    },
    {
        "name": "Sandıklı",
        "country": "Turkey",
        "province": "Afyonkarahisar",
        "population": 42981,
        "latitude": 38.464717,
        "longitude": 30.269458
    },
    {
        "name": "Pozantı",
        "country": "Turkey",
        "province": "Adana",
        "population": 10517,
        "latitude": 37.427778,
        "longitude": 34.871667
    },
    {
        "name": "Pazarcık",
        "country": "Turkey",
        "province": "Kahramanmaraş",
        "population": 23850,
        "latitude": 37.4868457127166,
        "longitude": 37.2996139526367
    },
    {
        "name": "Özdere",
        "country": "Turkey",
        "province": "İzmir",
        "population": 13500,
        "latitude": 38.016111,
        "longitude": 27.128056
    },
    {
        "name": "Germencik",
        "country": "Turkey",
        "province": "Aydın",
        "population": 11217,
        "latitude": 37.870556,
        "longitude": 27.60283
    },
    {
        "name": "Gelinkaya",
        "country": "Turkey",
        "province": "Mardin",
        "population": 6470,
        "latitude": 37.417319,
        "longitude": 41.269498
    },
    {
        "name": "Gazipaşa",
        "country": "Turkey",
        "province": "Antalya",
        "population": 18371,
        "latitude": 36.269422,
        "longitude": 32.317917
    },
    {
        "name": "Foça",
        "country": "Turkey",
        "province": "İzmir",
        "population": 15189,
        "latitude": 38.670299,
        "longitude": 26.756559
    },
    {
        "name": "Ergani",
        "country": "Turkey",
        "province": "Diyarbakır",
        "population": 52684,
        "latitude": 38.268986,
        "longitude": 39.754457
    },
    {
        "name": "Erdemli",
        "country": "Turkey",
        "province": "Mersin",
        "population": 46570,
        "latitude": 36.604981,
        "longitude": 34.308359
    },
    {
        "name": "Emirdağ",
        "country": "Turkey",
        "province": "Afyonkarahisar",
        "population": 20063,
        "latitude": 39.019722,
        "longitude": 31.15
    },
    {
        "name": "Elmalı",
        "country": "Turkey",
        "province": "Antalya",
        "population": 16587,
        "latitude": 36.735833,
        "longitude": 29.917754
    },
    {
        "name": "Elmadağ",
        "country": "Turkey",
        "province": "Ankara",
        "population": 25394,
        "latitude": 39.920833,
        "longitude": 33.230833
    },
    {
        "name": "Eğirdir",
        "country": "Turkey",
        "province": "Isparta",
        "population": 16891,
        "latitude": 37.874616265473385,
        "longitude": 30.850424766540527
    },
    {
        "name": "Dörtyol",
        "country": "Turkey",
        "province": "Hatay",
        "population": 56513,
        "latitude": 36.839171,
        "longitude": 36.230251
    },
    {
        "name": "Diyadin",
        "country": "Turkey",
        "province": "Ağrı",
        "population": 18172,
        "latitude": 39.540556,
        "longitude": 43.671349
    },
    {
        "name": "Divriği",
        "country": "Turkey",
        "province": "Sivas",
        "population": 13139,
        "latitude": 39.371002,
        "longitude": 38.113703
    },
    {
        "name": "Dikili",
        "country": "Turkey",
        "province": "İzmir",
        "population": 14125,
        "latitude": 39.071004,
        "longitude": 26.89017
    },
    {
        "name": "Develi",
        "country": "Turkey",
        "province": "Kayseri",
        "population": 35868,
        "latitude": 38.390556,
        "longitude": 35.492222
    },
    {
        "name": "Datça",
        "country": "Turkey",
        "province": "Muğla",
        "population": 10121,
        "latitude": 36.737783602451906,
        "longitude": 27.684173583984375
    },
    {
        "name": "Çumra",
        "country": "Turkey",
        "province": "Konya",
        "population": 45657,
        "latitude": 37.573197,
        "longitude": 32.774461
    },
    {
        "name": "Ortaköy",
        "country": "Turkey",
        "province": "Aksaray",
        "population": 31144,
        "latitude": 38.737281,
        "longitude": 34.038658
    },
    {
        "name": "Ortaköy",
        "country": "Turkey",
        "province": "Mardin",
        "population": 7486,
        "latitude": 37.222958,
        "longitude": 40.784043
    },
    {
        "name": "Ödemiş",
        "country": "Turkey",
        "province": "İzmir",
        "population": 67153,
        "latitude": 38.227805,
        "longitude": 27.969551
    },
    {
        "name": "Milas",
        "country": "Turkey",
        "province": "Muğla",
        "population": 43193,
        "latitude": 37.316389,
        "longitude": 27.783889
    },
    {
        "name": "Malazgirt",
        "country": "Turkey",
        "province": "Muş",
        "population": 26108,
        "latitude": 39.146496,
        "longitude": 42.535357
    },
    {
        "name": "Mahmutlar",
        "country": "Turkey",
        "province": "Antalya",
        "population": 24227,
        "latitude": 36.494634,
        "longitude": 32.090846
    },
    {
        "name": "Beykonak",
        "country": "Turkey",
        "province": "Antalya",
        "population": 30339,
        "latitude": 36.325732,
        "longitude": 30.303016
    },
    {
        "name": "Kulu",
        "country": "Turkey",
        "province": "Konya",
        "population": 47037,
        "latitude": 39.095135,
        "longitude": 33.079893
    },
    {
        "name": "Kulp",
        "country": "Turkey",
        "province": "Diyarbakır",
        "population": 26569,
        "latitude": 38.497542,
        "longitude": 41.006678
    },
    {
        "name": "Kula",
        "country": "Turkey",
        "province": "Manisa",
        "population": 31100,
        "latitude": 38.547261,
        "longitude": 28.649761
    },
    {
        "name": "Korkuteli",
        "country": "Turkey",
        "province": "Antalya",
        "population": 20465,
        "latitude": 37.064976,
        "longitude": 30.195646
    },
    {
        "name": "İncirliova",
        "country": "Turkey",
        "province": "Aydın",
        "population": 18572,
        "latitude": 37.852222,
        "longitude": 27.723611
    },
    {
        "name": "Ilgın",
        "country": "Turkey",
        "province": "Konya",
        "population": 27423,
        "latitude": 38.279167,
        "longitude": 31.913889
    },
    {
        "name": "İdil",
        "country": "Turkey",
        "province": "Şırnak",
        "population": 22960,
        "latitude": 37.334815,
        "longitude": 41.889443
    },
    {
        "name": "Hasankeyf",
        "country": "Turkey",
        "province": "Batman",
        "population": 3676,
        "latitude": 37.706119,
        "longitude": 41.404799
    },
    {
        "name": "Güroymak",
        "country": "Turkey",
        "province": "Bitlis",
        "population": 25826,
        "latitude": 38.575797,
        "longitude": 42.015582
    },
    {
        "name": "Gölbaşı",
        "country": "Turkey",
        "province": "Adıyaman",
        "population": 28078,
        "latitude": 37.783611,
        "longitude": 37.636667
    },
    {
        "name": "Göksun",
        "country": "Turkey",
        "province": "Kahramanmaraş",
        "population": 34243,
        "latitude": 38.020959,
        "longitude": 36.497303
    },
    {
        "name": "Erzin",
        "country": "Turkey",
        "province": "Hatay",
        "population": 26316,
        "latitude": 36.953478,
        "longitude": 36.198388
    },
    {
        "name": "Yerköy",
        "country": "Turkey",
        "province": "Yozgat",
        "population": 35294,
        "latitude": 39.638056,
        "longitude": 34.467222
    },
    {
        "name": "Didim",
        "country": "Turkey",
        "province": "Aydın",
        "population": 26000,
        "latitude": 37.384962,
        "longitude": 27.25643
    },
    {
        "name": "Yayladere",
        "country": "Turkey",
        "province": "Bingöl",
        "population": 3925,
        "latitude": 39.226138,
        "longitude": 40.069499
    },
    {
        "name": "Yalvaç",
        "country": "Turkey",
        "province": "Isparta",
        "population": 39145,
        "latitude": 38.295556,
        "longitude": 31.177778
    },
    {
        "name": "Yalıkavak",
        "country": "Turkey",
        "province": "Muğla",
        "population": 11227,
        "latitude": 37.105278,
        "longitude": 27.297222
    },
    {
        "name": "Yahyalı",
        "country": "Turkey",
        "province": "Kayseri",
        "population": 25019,
        "latitude": 38.102276,
        "longitude": 35.357039
    },
    {
        "name": "Urla",
        "country": "Turkey",
        "province": "İzmir",
        "population": 45199,
        "latitude": 38.322919,
        "longitude": 26.76403
    },
    {
        "name": "Pınarbaşı",
        "country": "Turkey",
        "province": "Mersin",
        "population": 10964,
        "latitude": 36.703398,
        "longitude": 34.362701
    },
    {
        "name": "Tire",
        "country": "Turkey",
        "province": "İzmir",
        "population": 47220,
        "latitude": 38.088769,
        "longitude": 27.73508
    },
    {
        "name": "Tekirova",
        "country": "Turkey",
        "province": "Antalya",
        "population": 20000,
        "latitude": 36.5017022457222,
        "longitude": 30.527229309082
    },
    {
        "name": "Kırkağaç",
        "country": "Turkey",
        "province": "Manisa",
        "population": 27053,
        "latitude": 39.106377,
        "longitude": 27.669254
    },
    {
        "name": "Kırıkhan",
        "country": "Turkey",
        "province": "Hatay",
        "population": 60916,
        "latitude": 36.499389,
        "longitude": 36.357553
    },
    {
        "name": "Keskin",
        "country": "Turkey",
        "province": "Kırıkkale",
        "population": 49679,
        "latitude": 39.673056,
        "longitude": 33.613611
    },
    {
        "name": "Kemalpaşa",
        "country": "Turkey",
        "province": "İzmir",
        "population": 30411,
        "latitude": 38.426206,
        "longitude": 27.41731
    },
    {
        "name": "Kas",
        "country": "Turkey",
        "province": "Antalya",
        "population": 7800,
        "latitude": 36.201758,
        "longitude": 29.637665
    },
    {
        "name": "Karapınar",
        "country": "Turkey",
        "province": "Konya",
        "population": 49509,
        "latitude": 37.715958,
        "longitude": 33.550643
    },
    {
        "name": "Karakoçan",
        "country": "Turkey",
        "province": "Elazığ",
        "population": 29735,
        "latitude": 38.951783,
        "longitude": 40.027057
    },
    {
        "name": "Kaman",
        "country": "Turkey",
        "province": "Kırşehir",
        "population": 28605,
        "latitude": 39.3575,
        "longitude": 33.723889
    },
    {
        "name": "Kadirli",
        "country": "Turkey",
        "province": "Osmaniye",
        "population": 70248,
        "latitude": 37.373889,
        "longitude": 36.096111
    },
    {
        "name": "Kumru",
        "country": "Turkey",
        "province": "Ordu",
        "population": 32174,
        "latitude": 40.874444,
        "longitude": 37.263889
    },
    {
        "name": "Koruköy",
        "country": "Turkey",
        "province": "Yalova",
        "population": 3050,
        "latitude": 40.654346,
        "longitude": 29.162895
    },
    {
        "name": "Kızılcahamam",
        "country": "Turkey",
        "province": "Ankara",
        "population": 17975,
        "latitude": 40.469722,
        "longitude": 32.650556
    },
    {
        "name": "Kestel",
        "country": "Turkey",
        "province": "Bursa",
        "population": 36185,
        "latitude": 40.198283,
        "longitude": 29.212369
    },
    {
        "name": "Zorlanae",
        "country": "Turkey",
        "province": "Edirne",
        "population": 44644,
        "latitude": 40.855833,
        "longitude": 26.630278
    },
    {
        "name": "Kavaklı",
        "country": "Turkey",
        "province": "Istanbul",
        "population": 50502,
        "latitude": 41.0925808030826,
        "longitude": 28.3317232131958
    },
    {
        "name": "Karasu",
        "country": "Turkey",
        "province": "Sakarya",
        "population": 30746,
        "latitude": 41.104416,
        "longitude": 30.696638
    },
    {
        "name": "Karasu Mahallesi",
        "country": "Turkey",
        "province": "Sakarya",
        "population": 39508,
        "latitude": 41.070959,
        "longitude": 30.785427
    },
    {
        "name": "Karamürsel",
        "country": "Turkey",
        "province": "Kocaeli",
        "population": 30525,
        "latitude": 40.69129,
        "longitude": 29.61649
    },
    {
        "name": "Karacabey",
        "country": "Turkey",
        "province": "Bursa",
        "population": 44256,
        "latitude": 40.213229,
        "longitude": 28.361202
    },
    {
        "name": "Kağızman",
        "country": "Turkey",
        "province": "Kars",
        "population": 25157,
        "latitude": 40.156692,
        "longitude": 43.134239
    },
    {
        "name": "Kadıköy",
        "country": "Turkey",
        "province": "Istanbul",
        "population": -1,
        "latitude": 40.97882,
        "longitude": 29.08268
    },
    {
        "name": "İnebolu",
        "country": "Turkey",
        "province": "Kastamonu",
        "population": 9935,
        "latitude": 41.974722,
        "longitude": 33.760833
    },
    {
        "name": "Hopa",
        "country": "Turkey",
        "province": "Artvin",
        "population": 17519,
        "latitude": 41.39046110258951,
        "longitude": 41.41965866088867
    },
    {
        "name": "Riva",
        "country": "Turkey",
        "province": "Istanbul",
        "population": -1,
        "latitude": 41.226471,
        "longitude": 29.217541
    },
    {
        "name": "Çatalca",
        "country": "Turkey",
        "province": "Istanbul",
        "population": 19316,
        "latitude": 41.1432428668515,
        "longitude": 28.4615421295166
    },
    {
        "name": "Çan",
        "country": "Turkey",
        "province": "Canakkale",
        "population": 26201,
        "latitude": 40.033282,
        "longitude": 27.052357
    },
    {
        "name": "Çamlıdere",
        "country": "Turkey",
        "province": "Ankara",
        "population": 12484,
        "latitude": 40.489581,
        "longitude": 32.474988
    },
    {
        "name": "Bulancak",
        "country": "Turkey",
        "province": "Giresun",
        "population": 43635,
        "latitude": 40.93805,
        "longitude": 38.231476
    },
    {
        "name": "Boyabat",
        "country": "Turkey",
        "province": "Sinop",
        "population": 27717,
        "latitude": 41.468889,
        "longitude": 34.766667
    },
    {
        "name": "Hattusa",
        "country": "Turkey",
        "province": "Çorum",
        "population": -1,
        "latitude": 40.021906,
        "longitude": 34.609471
    },
    {
        "name": "Beyoğlu",
        "country": "Turkey",
        "province": "Istanbul",
        "population": -1,
        "latitude": 41.0369444,
        "longitude": 28.9775
    },
    {
        "name": "Babaeski",
        "country": "Turkey",
        "province": "Kırklareli",
        "population": 26724,
        "latitude": 41.4325,
        "longitude": 27.093056
    },
    {
        "name": "Arnavutköy",
        "country": "Turkey",
        "province": "Istanbul",
        "population": 198165,
        "latitude": 41.183553,
        "longitude": 28.740201
    },
    {
        "name": "Ardeşen",
        "country": "Turkey",
        "province": "Rize",
        "population": 67965,
        "latitude": 41.190637,
        "longitude": 40.979353
    },
    {
        "name": "Araklı",
        "country": "Turkey",
        "province": "Trabzon",
        "population": 29917,
        "latitude": 40.938544,
        "longitude": 40.05842
    },
    {
        "name": "Alaca",
        "country": "Turkey",
        "province": "Çorum",
        "population": 27019,
        "latitude": 40.168333,
        "longitude": 34.8425
    },
    {
        "name": "Akyurt",
        "country": "Turkey",
        "province": "Ankara",
        "population": 26572,
        "latitude": 40.135118982997,
        "longitude": 33.086142539978
    },
    {
        "name": "Akyazı",
        "country": "Turkey",
        "province": "Sakarya",
        "population": 25068,
        "latitude": 40.685,
        "longitude": 30.622222
    },
    {
        "name": "Akçakoca",
        "country": "Turkey",
        "province": "Düzce",
        "population": 35151,
        "latitude": 41.086627,
        "longitude": 31.116226
    },
    {
        "name": "Akçaabat",
        "country": "Turkey",
        "province": "Trabzon",
        "population": 45105,
        "latitude": 41.021205,
        "longitude": 39.571457
    },
    {
        "name": "Gürpınar",
        "country": "Turkey",
        "province": "Istanbul",
        "population": 29411,
        "latitude": 40.992563,
        "longitude": 28.614282
    },
    {
        "name": "Görele",
        "country": "Turkey",
        "province": "Giresun",
        "population": 30381,
        "latitude": 41.030833,
        "longitude": 39.003056
    },
    {
        "name": "Gönen",
        "country": "Turkey",
        "province": "Balıkesir",
        "population": 40763,
        "latitude": 40.104901,
        "longitude": 27.653991
    },
    {
        "name": "Göle",
        "country": "Turkey",
        "province": "Ardahan",
        "population": 11943,
        "latitude": 40.787464,
        "longitude": 42.606028
    },
    {
        "name": "Gölcük",
        "country": "Turkey",
        "province": "Kocaeli",
        "population": 56189,
        "latitude": 40.715012,
        "longitude": 29.818241
    },
    {
        "name": "Gerede",
        "country": "Turkey",
        "province": "Bolu",
        "population": 28582,
        "latitude": 40.800833,
        "longitude": 32.196944
    },
    {
        "name": "Galata",
        "country": "Turkey",
        "province": "Istanbul",
        "population": -1,
        "latitude": 41.0260173936827,
        "longitude": 28.9745092391968
    },
    {
        "name": "Erbaa",
        "country": "Turkey",
        "province": "Tokat",
        "population": 52185,
        "latitude": 40.668889,
        "longitude": 36.5675
    },
    {
        "name": "Eminönü",
        "country": "Turkey",
        "province": "Istanbul",
        "population": 55548,
        "latitude": 41.01478,
        "longitude": 28.9694
    },
    {
        "name": "Çubuk",
        "country": "Turkey",
        "province": "Ankara",
        "population": 62602,
        "latitude": 40.238611,
        "longitude": 33.032223
    },
    {
        "name": "Cide",
        "country": "Turkey",
        "province": "Kastamonu",
        "population": 12095,
        "latitude": 41.89211,
        "longitude": 33.004389
    },
    {
        "name": "Tirebolu",
        "country": "Turkey",
        "province": "Giresun",
        "population": 17124,
        "latitude": 41.006944,
        "longitude": 38.813889
    },
    {
        "name": "Terme",
        "country": "Turkey",
        "province": "Samsun",
        "population": 28397,
        "latitude": 41.209167,
        "longitude": 36.973889
    },
    {
        "name": "Tepecik",
        "country": "Turkey",
        "province": "Istanbul",
        "population": 21699,
        "latitude": 41.029311,
        "longitude": 28.549785
    },
    {
        "name": "Suşehri",
        "country": "Turkey",
        "province": "Sivas",
        "population": 25820,
        "latitude": 40.160051,
        "longitude": 38.084126
    },
    {
        "name": "Sürmene",
        "country": "Turkey",
        "province": "Trabzon",
        "population": 20039,
        "latitude": 40.905879,
        "longitude": 40.127922
    },
    {
        "name": "Suluova",
        "country": "Turkey",
        "province": "Amasya",
        "population": 47572,
        "latitude": 40.831285,
        "longitude": 35.647882
    },
    {
        "name": "Selimpaşa",
        "country": "Turkey",
        "province": "Istanbul",
        "population": 10563,
        "latitude": 41.054483,
        "longitude": 28.366775
    },
    {
        "name": "Şebinkarahisar",
        "country": "Turkey",
        "province": "Giresun",
        "population": 47360,
        "latitude": 40.288333,
        "longitude": 38.423611
    },
    {
        "name": "Sapanca",
        "country": "Turkey",
        "province": "Sakarya",
        "population": 25224,
        "latitude": 40.691407,
        "longitude": 30.267384
    },
    {
        "name": "Pamukova",
        "country": "Turkey",
        "province": "Sakarya",
        "population": 14885,
        "latitude": 40.5081,
        "longitude": 30.167319
    },
    {
        "name": "Orhangazi",
        "country": "Turkey",
        "province": "Bursa",
        "population": 51792,
        "latitude": 40.489167,
        "longitude": 29.308889
    },
    {
        "name": "Of",
        "country": "Turkey",
        "province": "Trabzon",
        "population": 31951,
        "latitude": 40.940552,
        "longitude": 40.259179
    },
    {
        "name": "Ani",
        "country": "Turkey",
        "province": "Kars",
        "population": -1,
        "latitude": 40.518562,
        "longitude": 43.568595
    },
    {
        "name": "Niksar",
        "country": "Turkey",
        "province": "Tokat",
        "population": 49865,
        "latitude": 40.591667,
        "longitude": 36.951667
    },
    {
        "name": "Nallıhan",
        "country": "Turkey",
        "province": "Ankara",
        "population": 19106,
        "latitude": 40.185931,
        "longitude": 31.351793
    },
    {
        "name": "Mimarsinan",
        "country": "Turkey",
        "province": "Istanbul",
        "population": 31002,
        "latitude": 41.017904,
        "longitude": 28.561758
    },
    {
        "name": "Erekli",
        "country": "Turkey",
        "province": "Tekirdağ",
        "population": 10956,
        "latitude": 40.96907,
        "longitude": 27.95503
    },
    {
        "name": "Malkara",
        "country": "Turkey",
        "province": "Tekirdağ",
        "population": 27427,
        "latitude": 40.89,
        "longitude": 26.901111
    },
    {
        "name": "Macka",
        "country": "Turkey",
        "province": "Trabzon",
        "population": 13078,
        "latitude": 40.810721,
        "longitude": 39.604654
    },
    {
        "name": "Zile",
        "country": "Turkey",
        "province": "Tokat",
        "population": 55680,
        "latitude": 40.303056,
        "longitude": 35.886389
    },
    {
        "name": "Zeytinburnu",
        "country": "Turkey",
        "province": "Istanbul",
        "population": 288743,
        "latitude": 40.994410999439516,
        "longitude": 28.904170989990234
    },
    {
        "name": "Yenişehir",
        "country": "Turkey",
        "province": "Bursa",
        "population": 28656,
        "latitude": 40.264444,
        "longitude": 29.653056
    },
    {
        "name": "Yakuplu",
        "country": "Turkey",
        "province": "Istanbul",
        "population": 28811,
        "latitude": 40.98893663102226,
        "longitude": 28.67581844329834
    },
    {
        "name": "Vezirköprü",
        "country": "Turkey",
        "province": "Samsun",
        "population": 25155,
        "latitude": 41.143611,
        "longitude": 35.454722
    },
    {
        "name": "Vakfıkebir",
        "country": "Turkey",
        "province": "Trabzon",
        "population": 37728,
        "latitude": 41.045833,
        "longitude": 39.276389
    },
    {
        "name": "Muratpaşa",
        "country": "Turkey",
        "province": "Antalya",
        "population": 450000,
        "latitude": 36.89157,
        "longitude": 30.76498
    },
    {
        "name": "Ataşehir",
        "country": "Turkey",
        "province": "Istanbul",
        "population": 361615,
        "latitude": 40.9833,
        "longitude": 29.1167
    },
    {
        "name": "Başakşehir",
        "country": "Turkey",
        "province": "Istanbul",
        "population": 193750,
        "latitude": 41.09306594756934,
        "longitude": 28.802032470703125
    },
    {
        "name": "Büyükçekmece",
        "country": "Turkey",
        "province": "Istanbul",
        "population": 163140,
        "latitude": 41.0207156375862,
        "longitude": 28.5850203037262
    },
    {
        "name": "Sultangazi",
        "country": "Turkey",
        "province": "Istanbul",
        "population": 436935,
        "latitude": 41.10651919385192,
        "longitude": 28.868465423583984
    },
    {
        "name": "Myra",
        "country": "Turkey",
        "province": "Antalya",
        "population": -1,
        "latitude": 36.2589989412664,
        "longitude": 29.9847364425659
    },
    {
        "name": "Oludeniz",
        "country": "Turkey",
        "province": "Muğla",
        "population": 2748,
        "latitude": 36.56673631261617,
        "longitude": 29.144668579101562
    },
    {
        "name": "Nurdağı",
        "country": "Turkey",
        "province": "Gaziantep",
        "population": 12827,
        "latitude": 37.168213,
        "longitude": 36.73623
    },
    {
        "name": "Kızkalesi",
        "country": "Turkey",
        "province": "Hatay",
        "population": 1742,
        "latitude": 36.46192,
        "longitude": 34.14199
    },
    {
        "name": "Kabeliya",
        "country": "Turkey",
        "province": "Hatay",
        "population": -1,
        "latitude": 36.350514,
        "longitude": 36.597351
    },
    {
        "name": "Banaz",
        "country": "Turkey",
        "province": "Uşak",
        "population": 17080,
        "latitude": 38.737069,
        "longitude": 29.75194
    },
    {
        "name": "Balpınar",
        "country": "Turkey",
        "province": "Batman",
        "population": 2879,
        "latitude": 37.868038,
        "longitude": 41.055359
    },
    {
        "name": "Dağlıca",
        "country": "Turkey",
        "province": "Şırnak",
        "population": 1269,
        "latitude": 37.431792,
        "longitude": 42.776114
    },
    {
        "name": "Babayağmur",
        "country": "Turkey",
        "province": "Yozgat",
        "population": 1063,
        "latitude": 39.36311,
        "longitude": 35.47904
    },
    {
        "name": "Aydınkonak",
        "country": "Turkey",
        "province": "Batman",
        "population": 1181,
        "latitude": 37.894611,
        "longitude": 41.164051
    },
    {
        "name": "Avanos",
        "country": "Turkey",
        "province": "Nevşehir",
        "population": 12833,
        "latitude": 38.715,
        "longitude": 34.846667
    },
    {
        "name": "Atça",
        "country": "Turkey",
        "province": "Aydın",
        "population": 7602,
        "latitude": 37.88859,
        "longitude": 28.21528
    },
    {
        "name": "Atabey",
        "country": "Turkey",
        "province": "Isparta",
        "population": 12658,
        "latitude": 37.950833,
        "longitude": 30.638611
    },
    {
        "name": "Küçükova",
        "country": "Turkey",
        "province": "Şanlıurfa",
        "population": 211,
        "latitude": 36.952491,
        "longitude": 38.306099
    },
    {
        "name": "Saygeçit",
        "country": "Turkey",
        "province": "Adana",
        "population": -1,
        "latitude": 37.249568,
        "longitude": 35.625537
    },
    {
        "name": "Arapgir",
        "country": "Turkey",
        "province": "Malatya",
        "population": 10022,
        "latitude": 39.041173,
        "longitude": 38.495156
    },
    {
        "name": "Andaç",
        "country": "Turkey",
        "province": "Şırnak",
        "population": 2165,
        "latitude": 37.35537,
        "longitude": 43.262428
    },
    {
        "name": "Altınoluk",
        "country": "Turkey",
        "province": "Balıkesir",
        "population": 13800,
        "latitude": 39.579444,
        "longitude": 26.737222
    },
    {
        "name": "Altınekin",
        "country": "Turkey",
        "province": "Konya",
        "population": 13090,
        "latitude": 38.307778,
        "longitude": 32.868611
    },
    {
        "name": "Aliağa",
        "country": "Turkey",
        "province": "İzmir",
        "population": 44883,
        "latitude": 38.79975,
        "longitude": 26.972026
    },
    {
        "name": "Alacati",
        "country": "Turkey",
        "province": "İzmir",
        "population": 3658,
        "latitude": 38.282457,
        "longitude": 26.374594
    },
    {
        "name": "Akseki",
        "country": "Turkey",
        "province": "Antalya",
        "population": 11616,
        "latitude": 37.048611,
        "longitude": 31.79
    },
    {
        "name": "Akkent",
        "country": "Turkey",
        "province": "Denizli",
        "population": 2451,
        "latitude": 38.152675,
        "longitude": 29.378896
    },
    {
        "name": "Akdağmadeni",
        "country": "Turkey",
        "province": "Yozgat",
        "population": 23048,
        "latitude": 39.660278,
        "longitude": 35.883611
    },
    {
        "name": "Akçadağ",
        "country": "Turkey",
        "province": "Malatya",
        "population": 14788,
        "latitude": 38.338988,
        "longitude": 37.970212
    },
    {
        "name": "Akburç",
        "country": "Turkey",
        "province": "Batman",
        "population": 249,
        "latitude": 37.551988,
        "longitude": 41.426698
    },
    {
        "name": "Acıpayam",
        "country": "Turkey",
        "province": "Denizli",
        "population": 10924,
        "latitude": 37.423854,
        "longitude": 29.34941
    },
    {
        "name": "Gündeş",
        "country": "Turkey",
        "province": "Hakkâri",
        "population": 1323,
        "latitude": 37.306953,
        "longitude": 43.446889
    },
    {
        "name": "Türkler",
        "country": "Turkey",
        "province": "Antalya",
        "population": 7240,
        "latitude": 36.601982,
        "longitude": 31.820674
    },
    {
        "name": "Dalaman",
        "country": "Turkey",
        "province": "Muğla",
        "population": 19292,
        "latitude": 36.765908,
        "longitude": 28.802805
    },
    {
        "name": "Çivril",
        "country": "Turkey",
        "province": "Denizli",
        "population": 14002,
        "latitude": 38.301389,
        "longitude": 29.738611
    },
    {
        "name": "Çine",
        "country": "Turkey",
        "province": "Aydın",
        "population": 21327,
        "latitude": 37.61266,
        "longitude": 28.05912
    },
    {
        "name": "Cihanbeyli",
        "country": "Turkey",
        "province": "Konya",
        "population": 13782,
        "latitude": 38.660721,
        "longitude": 32.924367
    },
    {
        "name": "Çifteler",
        "country": "Turkey",
        "province": "Eskişehir",
        "population": 10166,
        "latitude": 39.383056,
        "longitude": 31.039167
    },
    {
        "name": "Çevrimova",
        "country": "Turkey",
        "province": "Batman",
        "population": 1276,
        "latitude": 37.840027,
        "longitude": 41.272884
    },
    {
        "name": "Çermik",
        "country": "Turkey",
        "province": "Diyarbakır",
        "population": 20975,
        "latitude": 38.135384,
        "longitude": 39.445003
    },
    {
        "name": "Çelikhan",
        "country": "Turkey",
        "province": "Adıyaman",
        "population": 12961,
        "latitude": 38.025598,
        "longitude": 38.236653
    },
    {
        "name": "Çaylı",
        "country": "Turkey",
        "province": "İzmir",
        "population": 1802,
        "latitude": 38.153301,
        "longitude": 28.14406
    },
    {
        "name": "Çayıralan",
        "country": "Turkey",
        "province": "Yozgat",
        "population": 14734,
        "latitude": 39.302778,
        "longitude": 35.643889
    },
    {
        "name": "Çavuşlu",
        "country": "Turkey",
        "province": "Mardin",
        "population": 8555,
        "latitude": 37.500176,
        "longitude": 41.251078
    },
    {
        "name": "Çağlayancerit",
        "country": "Turkey",
        "province": "Kahramanmaraş",
        "population": 15530,
        "latitude": 37.74523,
        "longitude": 37.286184
    },
    {
        "name": "Tapurikebir",
        "country": "Turkey",
        "province": "Erzincan",
        "population": -1,
        "latitude": 39.670387,
        "longitude": 38.420718
    },
    {
        "name": "Büyük Kardeş",
        "country": "Turkey",
        "province": "Mardin",
        "population": 1066,
        "latitude": 37.271833,
        "longitude": 41.034356
    },
    {
        "name": "Bünyan",
        "country": "Turkey",
        "province": "Kayseri",
        "population": 12821,
        "latitude": 38.846296,
        "longitude": 35.860325
    },
    {
        "name": "Bozova",
        "country": "Turkey",
        "province": "Şanlıurfa",
        "population": 21502,
        "latitude": 37.3625,
        "longitude": 38.526667
    },
    {
        "name": "Bozkır",
        "country": "Turkey",
        "province": "Konya",
        "population": 10958,
        "latitude": 37.189631,
        "longitude": 32.247359
    },
    {
        "name": "Bozarmut",
        "country": "Turkey",
        "province": "Muğla",
        "population": 2168,
        "latitude": 37.3091667,
        "longitude": 28.1697222
    },
    {
        "name": "Bozan",
        "country": "Turkey",
        "province": "Eskişehir",
        "population": 1874,
        "latitude": 39.7880556,
        "longitude": 31.1016667
    },
    {
        "name": "Bozalan",
        "country": "Turkey",
        "province": "Şırnak",
        "population": 2007,
        "latitude": 37.328142,
        "longitude": 42.263793
    },
    {
        "name": "Bölme",
        "country": "Turkey",
        "province": "Uşak",
        "population": 3010,
        "latitude": 38.620762,
        "longitude": 29.373727
    },
    {
        "name": "Boğazören",
        "country": "Turkey",
        "province": "Şırnak",
        "population": 1323,
        "latitude": 37.527487,
        "longitude": 43.008918
    },
    {
        "name": "Boğazkent",
        "country": "Turkey",
        "province": "Antalya",
        "population": 5000,
        "latitude": 36.853189,
        "longitude": 31.16388
    },
    {
        "name": "Binatlı",
        "country": "Turkey",
        "province": "Batman",
        "population": 2259,
        "latitude": 37.847076,
        "longitude": 41.216084
    },
    {
        "name": "Bigadiç",
        "country": "Turkey",
        "province": "Balıkesir",
        "population": 15242,
        "latitude": 39.3925,
        "longitude": 28.131111
    },
    {
        "name": "Beytüşşebap",
        "country": "Turkey",
        "province": "Şırnak",
        "population": 8161,
        "latitude": 37.563178,
        "longitude": 43.165831
    },
    {
        "name": "Beşpınar",
        "country": "Turkey",
        "province": "Batman",
        "population": 1227,
        "latitude": 37.837086,
        "longitude": 41.602193
    },
    {
        "name": "Belevi",
        "country": "Turkey",
        "province": "İzmir",
        "population": 2174,
        "latitude": 38.015,
        "longitude": 27.4502778
    },
    {
        "name": "Belen",
        "country": "Turkey",
        "province": "Hatay",
        "population": 20113,
        "latitude": 36.488659,
        "longitude": 36.194891
    },
    {
        "name": "Assos",
        "country": "Turkey",
        "province": "Canakkale",
        "population": 1100,
        "latitude": 39.493443,
        "longitude": 26.333163
    },
    {
        "name": "Baykan",
        "country": "Turkey",
        "province": "Siirt",
        "population": 11346,
        "latitude": 38.157541,
        "longitude": 41.773299
    },
    {
        "name": "Bayır",
        "country": "Turkey",
        "province": "Muğla",
        "population": 4005,
        "latitude": 37.267745,
        "longitude": 28.21677
    },
    {
        "name": "Baskil",
        "country": "Turkey",
        "province": "Elazığ",
        "population": 15922,
        "latitude": 38.568664,
        "longitude": 38.816343
    },
    {
        "name": "Başkale",
        "country": "Turkey",
        "province": "Van",
        "population": 14516,
        "latitude": 38.045262,
        "longitude": 44.017179
    },
    {
        "name": "Bediğin",
        "country": "Turkey",
        "province": "Antalya",
        "population": -1,
        "latitude": 36.979974,
        "longitude": 31.371092
    },
    {
        "name": "Taşkent",
        "country": "Turkey",
        "province": "Konya",
        "population": 11838,
        "latitude": 36.924305,
        "longitude": 32.491312
    },
    {
        "name": "Susurluk",
        "country": "Turkey",
        "province": "Balıkesir",
        "population": 24816,
        "latitude": 39.913611,
        "longitude": 28.157778
    },
    {
        "name": "Sulak",
        "country": "Turkey",
        "province": "Şırnak",
        "population": 1433,
        "latitude": 37.29508,
        "longitude": 42.134246
    },
    {
        "name": "Şuhut",
        "country": "Turkey",
        "province": "Afyonkarahisar",
        "population": 13842,
        "latitude": 38.531111,
        "longitude": 30.545833
    },
    {
        "name": "Solhan",
        "country": "Turkey",
        "province": "Bingöl",
        "population": 15303,
        "latitude": 38.965247,
        "longitude": 41.054433
    },
    {
        "name": "Sivrihisar",
        "country": "Turkey",
        "province": "Eskişehir",
        "population": 10535,
        "latitude": 39.450369,
        "longitude": 31.534088
    },
    {
        "name": "Sındırgı",
        "country": "Turkey",
        "province": "Balıkesir",
        "population": 10907,
        "latitude": 39.241281,
        "longitude": 28.178416
    },
    {
        "name": "Sevinç",
        "country": "Turkey",
        "province": "Eskişehir",
        "population": 1281,
        "latitude": 39.78,
        "longitude": 30.68889
    },
    {
        "name": "Serinyol",
        "country": "Turkey",
        "province": "Hatay",
        "population": 16753,
        "latitude": 36.361389,
        "longitude": 36.213611
    },
    {
        "name": "Şenköy",
        "country": "Turkey",
        "province": "Mardin",
        "population": 8975,
        "latitude": 37.464371,
        "longitude": 41.190579
    },
    {
        "name": "Senirkent",
        "country": "Turkey",
        "province": "Isparta",
        "population": 15919,
        "latitude": 38.104444,
        "longitude": 30.548611
    },
    {
        "name": "Selçikler",
        "country": "Turkey",
        "province": "Uşak",
        "population": 2002,
        "latitude": 38.498369,
        "longitude": 29.654817
    },
    {
        "name": "Şefaatlı",
        "country": "Turkey",
        "province": "Yozgat",
        "population": 13922,
        "latitude": 39.5043,
        "longitude": 34.756303
    },
    {
        "name": "Savaştepe",
        "country": "Turkey",
        "province": "Balıkesir",
        "population": 10324,
        "latitude": 39.383189,
        "longitude": 27.656121
    },
    {
        "name": "Sason",
        "country": "Turkey",
        "province": "Batman",
        "population": 11403,
        "latitude": 38.327673,
        "longitude": 41.413768
    },
    {
        "name": "Saruhanlı",
        "country": "Turkey",
        "province": "Manisa",
        "population": 12947,
        "latitude": 38.734547,
        "longitude": 27.568113
    },
    {
        "name": "Şarkışla",
        "country": "Turkey",
        "province": "Sivas",
        "population": 23800,
        "latitude": 39.351857,
        "longitude": 36.409764
    },
    {
        "name": "Sarıkemer",
        "country": "Turkey",
        "province": "Aydın",
        "population": 2698,
        "latitude": 37.566085,
        "longitude": 27.364298
    },
    {
        "name": "Sarıgöl",
        "country": "Turkey",
        "province": "Manisa",
        "population": 12794,
        "latitude": 38.239526,
        "longitude": 28.696632
    },
    {
        "name": "Sarayönü",
        "country": "Turkey",
        "province": "Konya",
        "population": 10198,
        "latitude": 38.26201,
        "longitude": 32.404567
    },
    {
        "name": "Sarayköy",
        "country": "Turkey",
        "province": "Denizli",
        "population": 18937,
        "latitude": 37.924483,
        "longitude": 28.925159
    },
    {
        "name": "Saraykent",
        "country": "Turkey",
        "province": "Yozgat",
        "population": 11175,
        "latitude": 39.693611,
        "longitude": 35.511111
    },
    {
        "name": "Samsat",
        "country": "Turkey",
        "province": "Adıyaman",
        "population": 9308,
        "latitude": 37.581944,
        "longitude": 38.474167
    },
    {
        "name": "Samandağ",
        "country": "Turkey",
        "province": "Hatay",
        "population": -1,
        "latitude": 36.080118,
        "longitude": 35.97603
    },
    {
        "name": "Pınarbaşı",
        "country": "Turkey",
        "province": "Kayseri",
        "population": 12333,
        "latitude": 38.722848,
        "longitude": 36.393136
    },
    {
        "name": "Pertek",
        "country": "Turkey",
        "province": "Tunceli",
        "population": 6837,
        "latitude": 38.865743,
        "longitude": 39.322733
    },
    {
        "name": "Payallar",
        "country": "Turkey",
        "province": "Antalya",
        "population": 5425,
        "latitude": 36.601601,
        "longitude": 31.850568
    },
    {
        "name": "Pasinler",
        "country": "Turkey",
        "province": "Erzurum",
        "population": 24553,
        "latitude": 39.979749,
        "longitude": 41.66997
    },
    {
        "name": "Palu",
        "country": "Turkey",
        "province": "Elazığ",
        "population": 11271,
        "latitude": 38.691354,
        "longitude": 39.919842
    },
    {
        "name": "Palamutlu",
        "country": "Turkey",
        "province": "Siirt",
        "population": 1368,
        "latitude": 37.897643,
        "longitude": 42.202182
    },
    {
        "name": "Özbek",
        "country": "Turkey",
        "province": "Şırnak",
        "population": 1002,
        "latitude": 37.178121,
        "longitude": 41.693248
    },
    {
        "name": "Oymataş",
        "country": "Turkey",
        "province": "Batman",
        "population": 1907,
        "latitude": 37.798561,
        "longitude": 41.020832
    },
    {
        "name": "Ovakavağı",
        "country": "Turkey",
        "province": "Konya",
        "population": 2261,
        "latitude": 37.710787,
        "longitude": 32.934821
    },
    {
        "name": "Ovacık",
        "country": "Turkey",
        "province": "Tunceli",
        "population": -1,
        "latitude": 39.352592,
        "longitude": 39.208903
    },
    {
        "name": "Gemerek",
        "country": "Turkey",
        "province": "Sivas",
        "population": 16916,
        "latitude": 39.183423,
        "longitude": 36.07189
    },
    {
        "name": "Gediz",
        "country": "Turkey",
        "province": "Kütahya",
        "population": 22058,
        "latitude": 38.993894,
        "longitude": 29.391306
    },
    {
        "name": "Finike",
        "country": "Turkey",
        "province": "Antalya",
        "population": 9250,
        "latitude": 36.295,
        "longitude": 30.140556
    },
    {
        "name": "Ezine",
        "country": "Turkey",
        "province": "Canakkale",
        "population": 15677,
        "latitude": 39.785606,
        "longitude": 26.340826
    },
    {
        "name": "Eymirli",
        "country": "Turkey",
        "province": "Mardin",
        "population": 1021,
        "latitude": 37.169671,
        "longitude": 40.685902
    },
    {
        "name": "Evrenseki",
        "country": "Turkey",
        "province": "Antalya",
        "population": 2615,
        "latitude": 36.838677,
        "longitude": 31.355593
    },
    {
        "name": "Eşme",
        "country": "Turkey",
        "province": "Uşak",
        "population": 11000,
        "latitude": 38.399762,
        "longitude": 28.969049
    },
    {
        "name": "Eşme",
        "country": "Turkey",
        "province": "Mardin",
        "population": 1316,
        "latitude": 37.154856,
        "longitude": 40.641213
    },
    {
        "name": "Ermenek",
        "country": "Turkey",
        "province": "Karaman",
        "population": 16986,
        "latitude": 36.640427,
        "longitude": 32.89179
    },
    {
        "name": "Erköklü",
        "country": "Turkey",
        "province": "Batman",
        "population": 1099,
        "latitude": 37.86182,
        "longitude": 41.144127
    },
    {
        "name": "Emet",
        "country": "Turkey",
        "province": "Kütahya",
        "population": 23812,
        "latitude": 39.342995,
        "longitude": 29.258469
    },
    {
        "name": "Eleşkirt",
        "country": "Turkey",
        "province": "Ağrı",
        "population": 18769,
        "latitude": 39.798025,
        "longitude": 42.675745
    },
    {
        "name": "Dursunbey",
        "country": "Turkey",
        "province": "Balıkesir",
        "population": 17532,
        "latitude": 39.585962,
        "longitude": 28.625684
    },
    {
        "name": "Doğanşehir",
        "country": "Turkey",
        "province": "Malatya",
        "population": 14794,
        "latitude": 38.085742,
        "longitude": 37.871156
    },
    {
        "name": "Doğankavak",
        "country": "Turkey",
        "province": "Batman",
        "population": 2132,
        "latitude": 37.962646,
        "longitude": 41.226753
    },
    {
        "name": "Dikboğaz",
        "country": "Turkey",
        "province": "Siirt",
        "population": 898,
        "latitude": 37.694908,
        "longitude": 42.10821
    },
    {
        "name": "Dicle",
        "country": "Turkey",
        "province": "Diyarbakır",
        "population": 13017,
        "latitude": 38.365713,
        "longitude": 40.064504
    },
    {
        "name": "Derinkuyu",
        "country": "Turkey",
        "province": "Nevşehir",
        "population": 12408,
        "latitude": 38.375101,
        "longitude": 34.734189
    },
    {
        "name": "Demiryol",
        "country": "Turkey",
        "province": "Batman",
        "population": 1388,
        "latitude": 37.917507,
        "longitude": 41.149837
    },
    {
        "name": "Demirpınar",
        "country": "Turkey",
        "province": "Erzincan",
        "population": -1,
        "latitude": 39.628803,
        "longitude": 39.790714
    },
    {
        "name": "Demirci",
        "country": "Turkey",
        "province": "Manisa",
        "population": 21378,
        "latitude": 39.046072,
        "longitude": 28.65889
    },
    {
        "name": "Delice",
        "country": "Turkey",
        "province": "Kırıkkale",
        "population": 12286,
        "latitude": 39.953711,
        "longitude": 34.025873
    },
    {
        "name": "Dargeçit",
        "country": "Turkey",
        "province": "Mardin",
        "population": 20793,
        "latitude": 37.546164,
        "longitude": 41.716525
    },
    {
        "name": "Darende",
        "country": "Turkey",
        "province": "Malatya",
        "population": 20388,
        "latitude": 38.545833,
        "longitude": 37.505833
    },
    {
        "name": "Dalyan",
        "country": "Turkey",
        "province": "Muğla",
        "population": 5000,
        "latitude": 36.834292,
        "longitude": 28.644597
    },
    {
        "name": "Dalama",
        "country": "Turkey",
        "province": "Aydın",
        "population": 1828,
        "latitude": 37.7902778,
        "longitude": 28.0663889
    },
    {
        "name": "Menderes",
        "country": "Turkey",
        "province": "İzmir",
        "population": 21965,
        "latitude": 38.249627,
        "longitude": 27.134289
    },
    {
        "name": "Ortaca",
        "country": "Turkey",
        "province": "Muğla",
        "population": 19741,
        "latitude": 36.839147,
        "longitude": 28.764567
    },
    {
        "name": "Orhaneli",
        "country": "Turkey",
        "province": "Bursa",
        "population": 8959,
        "latitude": 39.903333,
        "longitude": 28.990556
    },
    {
        "name": "Oğuz",
        "country": "Turkey",
        "province": "Mardin",
        "population": 2802,
        "latitude": 37.179024,
        "longitude": 40.954552
    },
    {
        "name": "Mucur",
        "country": "Turkey",
        "province": "Kırşehir",
        "population": 16522,
        "latitude": 39.061468,
        "longitude": 34.382856
    },
    {
        "name": "Mezraa",
        "country": "Turkey",
        "province": "Şırnak",
        "population": 3812,
        "latitude": 37.654084,
        "longitude": 43.188213
    },
    {
        "name": "Mağaralı",
        "country": "Turkey",
        "province": "Şanlıurfa",
        "population": 1276,
        "latitude": 36.968889,
        "longitude": 38.074444
    },
    {
        "name": "Lice",
        "country": "Turkey",
        "province": "Diyarbakır",
        "population": 16336,
        "latitude": 38.458213,
        "longitude": 40.638877
    },
    {
        "name": "Kuyubaşı",
        "country": "Turkey",
        "province": "Batman",
        "population": 496,
        "latitude": 37.84214,
        "longitude": 41.083115
    },
    {
        "name": "Kuşçukuru",
        "country": "Turkey",
        "province": "Batman",
        "population": 214,
        "latitude": 37.949856,
        "longitude": 41.292179
    },
    {
        "name": "Kurtalan",
        "country": "Turkey",
        "province": "Siirt",
        "population": 32114,
        "latitude": 37.925331,
        "longitude": 41.684926
    },
    {
        "name": "Kumlu",
        "country": "Turkey",
        "province": "Mardin",
        "population": 1274,
        "latitude": 37.172156,
        "longitude": 40.735684
    },
    {
        "name": "Kumköy",
        "country": "Turkey",
        "province": "Antalya",
        "population": 1074,
        "latitude": 36.882857,
        "longitude": 30.951778
    },
    {
        "name": "Kovancılar",
        "country": "Turkey",
        "province": "Elazığ",
        "population": 22976,
        "latitude": 38.718824,
        "longitude": 39.862683
    },
    {
        "name": "Kurucu",
        "country": "Turkey",
        "province": "Şırnak",
        "population": 843,
        "latitude": 37.233992,
        "longitude": 42.069212
    },
    {
        "name": "Konaklı",
        "country": "Turkey",
        "province": "İzmir",
        "population": 1906,
        "latitude": 38.1127778,
        "longitude": 27.9961111
    },
    {
        "name": "Işıklar",
        "country": "Turkey",
        "province": "Afyonkarahisar",
        "population": 7250,
        "latitude": 38.67101,
        "longitude": 30.740979
    },
    {
        "name": "Bilge",
        "country": "Turkey",
        "province": "Mardin",
        "population": -1,
        "latitude": 37.464376,
        "longitude": 40.588391
    },
    {
        "name": "İscehisar",
        "country": "Turkey",
        "province": "Afyonkarahisar",
        "population": 11809,
        "latitude": 38.861944,
        "longitude": 30.750278
    },
    {
        "name": "İmranlı",
        "country": "Turkey",
        "province": "Sivas",
        "population": 7192,
        "latitude": 39.875435,
        "longitude": 38.113582
    },
    {
        "name": "İlyaslı",
        "country": "Turkey",
        "province": "Uşak",
        "population": 2035,
        "latitude": 38.6038889,
        "longitude": 29.2005556
    },
    {
        "name": "Ilıca",
        "country": "Turkey",
        "province": "Erzurum",
        "population": 12922,
        "latitude": 39.946528,
        "longitude": 41.095197
    },
    {
        "name": "İçmeler",
        "country": "Turkey",
        "province": "Muğla",
        "population": 9604,
        "latitude": 36.798592,
        "longitude": 28.226347
    },
    {
        "name": "Hüyük",
        "country": "Turkey",
        "province": "Konya",
        "population": 11502,
        "latitude": 37.953881,
        "longitude": 31.596387
    },
    {
        "name": "Hisar",
        "country": "Turkey",
        "province": "Batman",
        "population": 2194,
        "latitude": 37.601081,
        "longitude": 41.228187
    },
    {
        "name": "Hilvan",
        "country": "Turkey",
        "province": "Şanlıurfa",
        "population": 16990,
        "latitude": 37.586865,
        "longitude": 38.955049
    },
    {
        "name": "Hekimhan",
        "country": "Turkey",
        "province": "Malatya",
        "population": 13946,
        "latitude": 38.816222,
        "longitude": 37.928822
    },
    {
        "name": "Haymana",
        "country": "Turkey",
        "province": "Ankara",
        "population": 11896,
        "latitude": 39.432116,
        "longitude": 32.497315
    },
    {
        "name": "Havran",
        "country": "Turkey",
        "province": "Balıkesir",
        "population": 11050,
        "latitude": 39.558333,
        "longitude": 27.098333
    },
    {
        "name": "Harran",
        "country": "Turkey",
        "province": "Şanlıurfa",
        "population": 13640,
        "latitude": 36.86,
        "longitude": 39.031389
    },
    {
        "name": "Hani",
        "country": "Turkey",
        "province": "Diyarbakır",
        "population": 11055,
        "latitude": 38.407413,
        "longitude": 40.385783
    },
    {
        "name": "Hadim",
        "country": "Turkey",
        "province": "Konya",
        "population": 20110,
        "latitude": 36.987762,
        "longitude": 32.456741
    },
    {
        "name": "Hacılar",
        "country": "Turkey",
        "province": "Kayseri",
        "population": 21167,
        "latitude": 38.646312,
        "longitude": 35.449369
    },
    {
        "name": "Gürün",
        "country": "Turkey",
        "province": "Sivas",
        "population": 12715,
        "latitude": 38.722254,
        "longitude": 37.270968
    },
    {
        "name": "Gülyazı",
        "country": "Turkey",
        "province": "Şırnak",
        "population": 3372,
        "latitude": 37.389741,
        "longitude": 42.989219
    },
    {
        "name": "Gülnar",
        "country": "Turkey",
        "province": "Mersin",
        "population": 12385,
        "latitude": 36.341483,
        "longitude": 33.399207
    },
    {
        "name": "Gözler",
        "country": "Turkey",
        "province": "Denizli",
        "population": 2083,
        "latitude": 38.106787,
        "longitude": 29.153749
    },
    {
        "name": "Göynük",
        "country": "Turkey",
        "province": "Antalya",
        "population": 6037,
        "latitude": 36.66,
        "longitude": 30.55
    },
    {
        "name": "Gördes",
        "country": "Turkey",
        "province": "Manisa",
        "population": 11168,
        "latitude": 38.932778,
        "longitude": 28.289423
    },
    {
        "name": "Gönen",
        "country": "Turkey",
        "province": "Isparta",
        "population": 14137,
        "latitude": 37.956387,
        "longitude": 30.511403
    },
    {
        "name": "Gömeç",
        "country": "Turkey",
        "province": "Balıkesir",
        "population": 4380,
        "latitude": 39.390159,
        "longitude": 26.841269
    },
    {
        "name": "Gölmarmara",
        "country": "Turkey",
        "province": "Manisa",
        "population": 12857,
        "latitude": 38.713889,
        "longitude": 27.914167
    },
    {
        "name": "Gölhisar",
        "country": "Turkey",
        "province": "Burdur",
        "population": 12721,
        "latitude": 37.145896,
        "longitude": 29.508763
    },
    {
        "name": "Gölgelikonak",
        "country": "Turkey",
        "province": "Siirt",
        "population": 4863,
        "latitude": 37.768335,
        "longitude": 42.128398
    },
    {
        "name": "Gökçebağ",
        "country": "Turkey",
        "province": "Siirt",
        "population": 2583,
        "latitude": 37.903389,
        "longitude": 41.877525
    },
    {
        "name": "Gökçe",
        "country": "Turkey",
        "province": "Mardin",
        "population": 4729,
        "latitude": 37.20407,
        "longitude": 40.695989
    },
    {
        "name": "Gevaş",
        "country": "Turkey",
        "province": "Van",
        "population": 11879,
        "latitude": 38.292102,
        "longitude": 43.101894
    },
    {
        "name": "Yunak",
        "country": "Turkey",
        "province": "Konya",
        "population": 14050,
        "latitude": 38.814177,
        "longitude": 31.732235
    },
    {
        "name": "Yolağzı",
        "country": "Turkey",
        "province": "Batman",
        "population": 2600,
        "latitude": 37.524797,
        "longitude": 41.353082
    },
    {
        "name": "Yeşilyurt",
        "country": "Turkey",
        "province": "Malatya",
        "population": 13766,
        "latitude": 38.296021,
        "longitude": 38.245264
    },
    {
        "name": "Yeşilhisar",
        "country": "Turkey",
        "province": "Kayseri",
        "population": 14354,
        "latitude": 38.35232,
        "longitude": 35.08873
    },
    {
        "name": "Yenişakran",
        "country": "Turkey",
        "province": "İzmir",
        "population": 3552,
        "latitude": 38.8863889,
        "longitude": 27.0669444
    },
    {
        "name": "Yenipınar",
        "country": "Turkey",
        "province": "Batman",
        "population": 1100,
        "latitude": 37.842911,
        "longitude": 41.301369
    },
    {
        "name": "Yeniköy",
        "country": "Turkey",
        "province": "Batman",
        "population": 3269,
        "latitude": 37.880417,
        "longitude": 41.050037
    },
    {
        "name": "Yenifakılı",
        "country": "Turkey",
        "province": "Yozgat",
        "population": 11470,
        "latitude": 39.211421,
        "longitude": 35.000357
    },
    {
        "name": "Altpınar",
        "country": "Turkey",
        "province": "Ankara",
        "population": 12925,
        "latitude": 39.204167,
        "longitude": 32.747778
    },
    {
        "name": "Varto",
        "country": "Turkey",
        "province": "Muş",
        "population": 18691,
        "latitude": 39.173748,
        "longitude": 41.45402
    },