[
    {
        "name": "Kampala",
        "country": "Uganda",
        "province": "Central Region",
        "population": 1353189,
        "latitude": 0.316284480685162,
        "longitude": 32.5821876525879
    },
    {
        "name": "Gulu",
        "country": "Uganda",
        "province": "Northern Region",
        "population": 146858,
        "latitude": 2.774569,
        "longitude": 32.29899
    },
    {
        "name": "Mbarara",
        "country": "Uganda",
        "province": "Western Region",
        "population": 97500,
        "latitude": -0.6046659759422492,
        "longitude": 30.648508071899414
    },
    {
        "name": "Jinja",
        "country": "Uganda",
        "province": "Eastern Region",
        "population": 93061,
        "latitude": 0.43901967558195015,
        "longitude": 33.20317268371582
    },
    {
        "name": "Lira",
        "country": "Uganda",
        "province": "Northern Region",
        "population": 119323,
        "latitude": 2.249902207120616,
        "longitude": 32.89984703063965
    },
    {
        "name": "Bwizibwera",
        "country": "Uganda",
        "province": "Western Region",
        "population": 79157,
        "latitude": -0.5916667,
        "longitude": 30.6286111
    },
    {
        "name": "Mukono",
        "country": "Uganda",
        "province": "Central Region",
        "population": 67290,
        "latitude": 0.353333,
        "longitude": 32.755278
    },
    {
        "name": "Mbale",
        "country": "Uganda",
        "province": "Eastern Region",
        "population": 76493,
        "latitude": 1.082088987706367,
        "longitude": 34.17503356933594
    },
    {
        "name": "Kasese",
        "country": "Uganda",
        "province": "Western Region",
        "population": 67269,
        "latitude": 0.183333,
        "longitude": 30.083333
    },
    {
        "name": "Masaka",
        "country": "Uganda",
        "province": "Central Region",
        "population": 65373,
        "latitude": -0.333793659313938,
        "longitude": 31.734094619750977
    },
    {
        "name": "Entebbe",
        "country": "Uganda",
        "province": "Central Region",
        "population": 62969,
        "latitude": 0.056211,
        "longitude": 32.479491
    },
    {
        "name": "Njeru",
        "country": "Uganda",
        "province": "Central Region",
        "population": 61952,
        "latitude": 0.441662,
        "longitude": 33.179174
    },
    {
        "name": "Fort Portal",
        "country": "Uganda",
        "province": "Western Region",
        "population": 42670,
        "latitude": 0.6617398958762419,
        "longitude": 30.27480125427246
    },
    {
        "name": "Arua",
        "country": "Uganda",
        "province": "Northern Region",
        "population": 55585,
        "latitude": 3.020129,
        "longitude": 30.911052
    },
    {
        "name": "Tororo",
        "country": "Uganda",
        "province": "Eastern Region",
        "population": 40400,
        "latitude": 0.692991,
        "longitude": 34.180853
    },
    {
        "name": "Soroti",
        "country": "Uganda",
        "province": "Eastern Region",
        "population": 56400,
        "latitude": 1.714641167250448,
        "longitude": 33.61112594604492
    },
    {
        "name": "Nebbi",
        "country": "Uganda",
        "province": "Northern Region",
        "population": 30354,
        "latitude": 2.478259,
        "longitude": 31.088935
    },
    {
        "name": "Masindi",
        "country": "Uganda",
        "province": "Western Region",
        "population": 31486,
        "latitude": 1.674444,
        "longitude": 31.715
    },
    {
        "name": "Lugazi",
        "country": "Uganda",
        "province": "Central Region",
        "population": 35036,
        "latitude": 0.367879,
        "longitude": 32.937596
    },
    {
        "name": "Kitgum",
        "country": "Uganda",
        "province": "Northern Region",
        "population": 56891,
        "latitude": 3.278333,
        "longitude": 32.886667
    },
    {
        "name": "Kireka",
        "country": "Uganda",
        "province": "Central Region",
        "population": 17947,
        "latitude": 0.3475,
        "longitude": 32.649167
    },
    {
        "name": "Kabale",
        "country": "Uganda",
        "province": "Western Region",
        "population": 43500,
        "latitude": -1.2485660257767444,
        "longitude": 29.98992919921875
    },
    {
        "name": "Iganga",
        "country": "Uganda",
        "province": "Eastern Region",
        "population": 45024,
        "latitude": 0.609167,
        "longitude": 33.468611
    },
    {
        "name": "Hoima",
        "country": "Uganda",
        "province": "Western Region",
        "population": 39625,
        "latitude": 1.4331372035134777,
        "longitude": 31.352405548095703
    },
    {
        "name": "Buwenge",
        "country": "Uganda",
        "province": "Eastern Region",
        "population": 15130,
        "latitude": 0.649959,
        "longitude": 33.171282
    },
    {
        "name": "Busia",
        "country": "Uganda",
        "province": "Eastern Region",
        "population": 43200,
        "latitude": 0.46588384319563225,
        "longitude": 34.092206954956055
    },
    {
        "name": "Busembatia",
        "country": "Uganda",
        "province": "Eastern Region",
        "population": 15889,
        "latitude": 0.77725,
        "longitude": 33.623644
    },
    {
        "name": "Bugembe",
        "country": "Uganda",
        "province": "Eastern Region",
        "population": 11598,
        "latitude": 0.482129,
        "longitude": 33.240645
    },
    {
        "name": "Apac",
        "country": "Uganda",
        "province": "Northern Region",
        "population": 67700,
        "latitude": 1.975556,
        "longitude": 32.538611
    },
    {
        "name": "Adjumani",
        "country": "Uganda",
        "province": "Northern Region",
        "population": 28700,
        "latitude": 3.377862,
        "longitude": 31.790897
    },
    {
        "name": "Wobulenzi",
        "country": "Uganda",
        "province": "Central Region",
        "population": 24415,
        "latitude": 0.7283333,
        "longitude": 32.5122222
    },
    {
        "name": "Pallisa",
        "country": "Uganda",
        "province": "Eastern Region",
        "population": 30745,
        "latitude": 1.145,
        "longitude": 33.709444
    },
    {
        "name": "Paidha",
        "country": "Uganda",
        "province": "Northern Region",
        "population": 28348,
        "latitude": 2.416692,
        "longitude": 30.985506
    },
    {
        "name": "Nyachera",
        "country": "Uganda",
        "province": "Western Region",
        "population": 30509,
        "latitude": -0.9,
        "longitude": 30.416667
    },
    {
        "name": "Mubende",
        "country": "Uganda",
        "province": "Central Region",
        "population": 18936,
        "latitude": 0.5584914456187924,
        "longitude": 31.3948917388916
    },
    {
        "name": "Mpigi",
        "country": "Uganda",
        "province": "Central Region",
        "population": 11082,
        "latitude": 0.225,
        "longitude": 32.313611
    },
    {
        "name": "Moroto",
        "country": "Uganda",
        "province": "Northern Region",
        "population": 10300,
        "latitude": 2.534525705761572,
        "longitude": 34.66658592224121
    },
    {
        "name": "Mityana",
        "country": "Uganda",
        "province": "Central Region",
        "population": 41131,
        "latitude": 0.4175,
        "longitude": 32.022778
    },
    {
        "name": "Mayuge",
        "country": "Uganda",
        "province": "Eastern Region",
        "population": 11503,
        "latitude": 0.459722,
        "longitude": 33.480278
    },
    {
        "name": "Kumi",
        "country": "Uganda",
        "province": "Eastern Region",
        "population": 11400,
        "latitude": 1.460833,
        "longitude": 33.936111
    },
    {
        "name": "Kisoro",
        "country": "Uganda",
        "province": "Western Region",
        "population": 12400,
        "latitude": -1.2853783884558907,
        "longitude": 29.684972763061523
    },
    {
        "name": "Kiruhura",
        "country": "Uganda",
        "province": "Western Region",
        "population": 14000,
        "latitude": -0.19663772128383475,
        "longitude": 30.844459533691406
    },
    {
        "name": "Kilembe",
        "country": "Uganda",
        "province": "Western Region",
        "population": 7914,
        "latitude": 0.19835432485534715,
        "longitude": 30.013017654418945
    },
    {
        "name": "Kiboga",
        "country": "Uganda",
        "province": "Central Region",
        "population": 14512,
        "latitude": 0.916111,
        "longitude": 31.774167
    },
    {
        "name": "Kayunga",
        "country": "Uganda",
        "province": "Central Region",
        "population": 21704,
        "latitude": 0.7025,
        "longitude": 32.888611
    },
    {
        "name": "Kanungu",
        "country": "Uganda",
        "province": "Western Region",
        "population": 14600,
        "latitude": -0.9575,
        "longitude": 29.789722
    },
    {
        "name": "Bundibugyo",
        "country": "Uganda",
        "province": "Western Region",
        "population": 16919,
        "latitude": 0.7111748226750146,
        "longitude": 30.064687728881836
    },
    {
        "name": "Yumbe",
        "country": "Uganda",
        "province": "Northern Region",
        "population": 24300,
        "latitude": 3.465057,
        "longitude": 31.246893
    },
    {
        "name": "Sironko",
        "country": "Uganda",
        "province": "Eastern Region",
        "population": 14000,
        "latitude": 1.2313180971592106,
        "longitude": 34.247732162475586
    },
    {
        "name": "Rukungiri",
        "country": "Uganda",
        "province": "Western Region",
        "population": 14000,
        "latitude": -0.841111,
        "longitude": 29.941944
    },
    {
        "name": "Mutukula",
        "country": "Uganda",
        "province": "Central Region",
        "population": -1,
        "latitude": -0.989444,
        "longitude": 31.418611
    },
    {
        "name": "Ishaka",
        "country": "Uganda",
        "province": "Western Region",
        "population": -1,
        "latitude": -0.5430556,
        "longitude": 30.1369444
    },
    {
        "name": "Nakapiripirit",
        "country": "Uganda",
        "province": "Northern Region",
        "population": -1,
        "latitude": 1.8144444,
        "longitude": 34.7136111
    },
    {
        "name": "Bukungu",
        "country": "Uganda",
        "province": "Eastern Region",
        "population": -1,
        "latitude": 1.418333,
        "longitude": 32.943056
    },
    {
        "name": "Omiya-Anyma",
        "country": "Uganda",
        "province": "Northern Region",
        "population": -1,
        "latitude": 3.277959,
        "longitude": 33.261161
    },
    {
        "name": "Nsasa",
        "country": "Uganda",
        "province": "Central Region",
        "population": -1,
        "latitude": 0.411786,
        "longitude": 32.657013
    },
    {
        "name": "Nsambya",
        "country": "Uganda",
        "province": "Central Region",
        "population": -1,
        "latitude": 0.2995,
        "longitude": 32.586773
    },
    {
        "name": "Nkokonjeru",
        "country": "Uganda",
        "province": "Central Region",
        "population": -1,
        "latitude": 0.235514,
        "longitude": 32.923152
    },
    {
        "name": "Namulonge",
        "country": "Uganda",
        "province": "Central Region",
        "population": -1,
        "latitude": 0.529722,
        "longitude": 32.6025
    },
    {
        "name": "Namugongo",
        "country": "Uganda",
        "province": "Central Region",
        "population": -1,
        "latitude": 0.385166,
        "longitude": 32.651567
    },
    {
        "name": "Namayumba",
        "country": "Uganda",
        "province": "Central Region",
        "population": -1,
        "latitude": 0.528889,
        "longitude": 32.248611
    },
    {
        "name": "Namataba",
        "country": "Uganda",
        "province": "Central Region",
        "population": -1,
        "latitude": 0.385772,
        "longitude": 32.864124
    },
    {
        "name": "Nagalama",
        "country": "Uganda",
        "province": "Central Region",
        "population": -1,
        "latitude": 0.5144444,
        "longitude": 32.7552778
    },
    {
        "name": "Muyembe",
        "country": "Uganda",
        "province": "Eastern Region",
        "population": -1,
        "latitude": 1.299722,
        "longitude": 34.301667
    },
    {
        "name": "Mutukula",
        "country": "Uganda",
        "province": "Central Region",
        "population": -1,
        "latitude": -0.9580556,
        "longitude": 31.3938889
    },
    {
        "name": "Mutufu",
        "country": "Uganda",
        "province": "Eastern Region",
        "population": -1,
        "latitude": 1.216667,
        "longitude": 34.3
    },
    {
        "name": "Munyonyo",
        "country": "Uganda",
        "province": "Central Region",
        "population": -1,
        "latitude": 0.252588,
        "longitude": 32.600827
    },
    {
        "name": "Munsa",
        "country": "Uganda",
        "province": "Western Region",
        "population": -1,
        "latitude": 0.816667,
        "longitude": 31.316667
    },
    {
        "name": "Mubuku",
        "country": "Uganda",
        "province": "Western Region",
        "population": -1,
        "latitude": 0.2694444,
        "longitude": 30.1025
    },
    {
        "name": "Mpanga",
        "country": "Uganda",
        "province": "Western Region",
        "population": -1,
        "latitude": 0.083333,
        "longitude": 30.383333
    },
    {
        "name": "Moyo",
        "country": "Uganda",
        "province": "Northern Region",
        "population": 18800,
        "latitude": 3.660883,
        "longitude": 31.724736
    },
    {
        "name": "Mitoma",
        "country": "Uganda",
        "province": "Western Region",
        "population": -1,
        "latitude": -0.883333,
        "longitude": 30.816667
    },
    {
        "name": "Minakulu",
        "country": "Uganda",
        "province": "Northern Region",
        "population": -1,
        "latitude": 2.44324,
        "longitude": 32.381806
    },
    {
        "name": "Mbuya",
        "country": "Uganda",
        "province": "Central Region",
        "population": -1,
        "latitude": 0.323595,
        "longitude": 32.628371
    },
    {
        "name": "Mbalala",
        "country": "Uganda",
        "province": "Central Region",
        "population": -1,
        "latitude": 0.366667,
        "longitude": 32.816667
    },
    {
        "name": "Matuga",
        "country": "Uganda",
        "province": "Central Region",
        "population": -1,
        "latitude": 0.462668,
        "longitude": 32.528078
    },
    {
        "name": "Majanji",
        "country": "Uganda",
        "province": "Eastern Region",
        "population": -1,
        "latitude": 0.262893,
        "longitude": 33.989668
    },
    {
        "name": "Lwakhakha",
        "country": "Uganda",
        "province": "Eastern Region",
        "population": -1,
        "latitude": 0.796677,
        "longitude": 34.377342
    },
    {
        "name": "Luzira",
        "country": "Uganda",
        "province": "Central Region",
        "population": -1,
        "latitude": 0.300278,
        "longitude": 32.648889
    },
    {
        "name": "Lukaya",
        "country": "Uganda",
        "province": "Central Region",
        "population": -1,
        "latitude": -0.113056,
        "longitude": 31.853889
    },
    {
        "name": "Kyenjojo",
        "country": "Uganda",
        "province": "Western Region",
        "population": 18600,
        "latitude": 0.632778,
        "longitude": 30.621389
    },
    {
        "name": "Kyebando",
        "country": "Uganda",
        "province": "Central Region",
        "population": -1,
        "latitude": 0.356139,
        "longitude": 32.581968
    },
    {
        "name": "Kyambogo",
        "country": "Uganda",
        "province": "Central Region",
        "population": -1,
        "latitude": 0.345884,
        "longitude": 32.631442
    },
    {
        "name": "Kiwoko",
        "country": "Uganda",
        "province": "Central Region",
        "population": -1,
        "latitude": 0.846389,
        "longitude": 32.353056
    },
    {
        "name": "Kitukutwe",
        "country": "Uganda",
        "province": "Central Region",
        "population": -1,
        "latitude": 0.45,
        "longitude": 32.6666667
    },
    {
        "name": "Kisozi",
        "country": "Uganda",
        "province": "Central Region",
        "population": -1,
        "latitude": 0.066667,
        "longitude": 31.6
    },
    {
        "name": "Kisizi",
        "country": "Uganda",
        "province": "Western Region",
        "population": -1,
        "latitude": -0.995833,
        "longitude": 29.962222
    },
    {
        "name": "Kisaasi",
        "country": "Uganda",
        "province": "Central Region",
        "population": -1,
        "latitude": 0.372178,
        "longitude": 32.595254
    },
    {
        "name": "Kiryandongo",
        "country": "Uganda",
        "province": "Western Region",
        "population": -1,
        "latitude": 1.637147,
        "longitude": 31.317853
    },
    {
        "name": "Kira",
        "country": "Uganda",
        "province": "Central Region",
        "population": -1,
        "latitude": 0.4,
        "longitude": 32.633333
    },
    {
        "name": "Kikorongo",
        "country": "Uganda",
        "province": "Western Region",
        "population": -1,
        "latitude": 0,
        "longitude": 30
    },
    {
        "name": "Kikagati",
        "country": "Uganda",
        "province": "Western Region",
        "population": -1,
        "latitude": -1.04251,
        "longitude": 30.663243
    },
    {
        "name": "Kijura",
        "country": "Uganda",
        "province": "Western Region",
        "population": -1,
        "latitude": 0.81725,
        "longitude": 30.418605
    },
    {
        "name": "Kihihi",
        "country": "Uganda",
        "province": "Western Region",
        "population": -1,
        "latitude": -0.75,
        "longitude": 29.7
    },
    {
        "name": "Kibingo",
        "country": "Uganda",
        "province": "Western Region",
        "population": -1,
        "latitude": 1.45,
        "longitude": 31.333333
    },
    {
        "name": "Kaweweta",
        "country": "Uganda",
        "province": "Central Region",
        "population": -1,
        "latitude": 1.25,
        "longitude": 32.15
    },
    {
        "name": "Kawanda",
        "country": "Uganda",
        "province": "Central Region",
        "population": -1,
        "latitude": 0.415217,
        "longitude": 32.531745
    },
    {
        "name": "Katosi",
        "country": "Uganda",
        "province": "Central Region",
        "population": -1,
        "latitude": 0.152645,
        "longitude": 32.801111
    },
    {
        "name": "Katine",
        "country": "Uganda",
        "province": "Eastern Region",
        "population": -1,
        "latitude": 1.988109,
        "longitude": 33.783534
    },
    {
        "name": "Kasenyi",
        "country": "Uganda",
        "province": "Western Region",
        "population": -1,
        "latitude": -0.0444444,
        "longitude": 30.1980556
    },
    {
        "name": "Kasangati",
        "country": "Uganda",
        "province": "Central Region",
        "population": -1,
        "latitude": 0.438034,
        "longitude": 32.602464
    },
    {
        "name": "Kapchorwa",
        "country": "Uganda",
        "province": "Eastern Region",
        "population": 11300,
        "latitude": 1.4009605391805493,
        "longitude": 34.45037841796875
    },
    {
        "name": "Kamuli",
        "country": "Uganda",
        "province": "Eastern Region",
        "population": 12764,
        "latitude": 0.947222,
        "longitude": 33.119722
    },
    {
        "name": "Kamdini",
        "country": "Uganda",
        "province": "Northern Region",
        "population": -1,
        "latitude": 2.247102,
        "longitude": 32.337618
    },
    {
        "name": "Kalule",
        "country": "Uganda",
        "province": "Central Region",
        "population": -1,
        "latitude": 0.633333,
        "longitude": 32.533333
    },
    {
        "name": "Kalongo",
        "country": "Uganda",
        "province": "Northern Region",
        "population": -1,
        "latitude": 3.038938,
        "longitude": 33.37162
    },
    {
        "name": "Kalisizo",
        "country": "Uganda",
        "province": "Central Region",
        "population": -1,
        "latitude": -0.5363889,
        "longitude": 31.6213889
    },
    {
        "name": "Kalagi",
        "country": "Uganda",
        "province": "Central Region",
        "population": -1,
        "latitude": 0.516667,
        "longitude": 31.65
    },
    {
        "name": "Kakuuto",
        "country": "Uganda",
        "province": "Central Region",
        "population": -1,
        "latitude": -0.8441667,
        "longitude": 31.4458333
    },
    {
        "name": "Kakiri",
        "country": "Uganda",
        "province": "Central Region",
        "population": -1,
        "latitude": 0.419892,
        "longitude": 32.391273
    },
    {
        "name": "Kakira",
        "country": "Uganda",
        "province": "Eastern Region",
        "population": -1,
        "latitude": 0.5083333,
        "longitude": 33.2877778
    },
    {
        "name": "Kagamba",
        "country": "Uganda",
        "province": "Western Region",
        "population": -1,
        "latitude": -0.81682,
        "longitude": 30.16202
    },
    {
        "name": "Kabwohe",
        "country": "Uganda",
        "province": "Western Region",
        "population": -1,
        "latitude": -0.6191667,
        "longitude": 30.4436111
    },
    {
        "name": "Kaazi",
        "country": "Uganda",
        "province": "Central Region",
        "population": -1,
        "latitude": 0.211915,
        "longitude": 32.611856
    },
    {
        "name": "Igorora",
        "country": "Uganda",
        "province": "Western Region",
        "population": -1,
        "latitude": -0.221111,
        "longitude": 30.5475
    },
    {
        "name": "Hima",
        "country": "Uganda",
        "province": "Western Region",
        "population": -1,
        "latitude": 0.3488889,
        "longitude": 30.1622222
    },
    {
        "name": "Byakabanda",
        "country": "Uganda",
        "province": "Central Region",
        "population": 7608,
        "latitude": -0.7425,
        "longitude": 31.4063889
    },
    {
        "name": "Bwaise",
        "country": "Uganda",
        "province": "Central Region",
        "population": -1,
        "latitude": 0.352005,
        "longitude": 32.562859
    },
    {
        "name": "Busunju",
        "country": "Uganda",
        "province": "Central Region",
        "population": -1,
        "latitude": 0.567778,
        "longitude": 32.192778
    },
    {
        "name": "Busolwe",
        "country": "Uganda",
        "province": "Eastern Region",
        "population": -1,
        "latitude": 0.850072,
        "longitude": 33.926242
    },
    {
        "name": "Buliisa",
        "country": "Uganda",
        "province": "Western Region",
        "population": 9500,
        "latitude": 2.117807,
        "longitude": 31.411633
    },
    {
        "name": "Bulindo",
        "country": "Uganda",
        "province": "Central Region",
        "population": -1,
        "latitude": 0.429741,
        "longitude": 32.640756
    },
    {
        "name": "Kulambiro",
        "country": "Uganda",
        "province": "Central Region",
        "population": -1,
        "latitude": 0.37455,
        "longitude": 32.609942
    },
    {
        "name": "Bukuya",
        "country": "Uganda",
        "province": "Central Region",
        "population": -1,
        "latitude": 0.6786111,
        "longitude": 31.8197222
    },
    {
        "name": "Bukoto",
        "country": "Uganda",
        "province": "Central Region",
        "population": -1,
        "latitude": 0.351232,
        "longitude": 32.59511
    },
    {
        "name": "Bujerere",
        "country": "Uganda",
        "province": "Western Region",
        "population": -1,
        "latitude": 0.631984,
        "longitude": 29.964033
    },
    {
        "name": "Bugamba",
        "country": "Uganda",
        "province": "Western Region",
        "population": -1,
        "latitude": -0.7408333,
        "longitude": 30.5233333
    },
    {
        "name": "Bombo",
        "country": "Uganda",
        "province": "Central Region",
        "population": -1,
        "latitude": 0.573869,
        "longitude": 32.515449
    },
    {
        "name": "Biharwe",
        "country": "Uganda",
        "province": "Western Region",
        "population": -1,
        "latitude": -0.544167,
        "longitude": 30.8
    },
    {
        "name": "Atiak",
        "country": "Uganda",
        "province": "Northern Region",
        "population": -1,
        "latitude": 3.260754,
        "longitude": 32.122726
    },
    {
        "name": "Anaka",
        "country": "Uganda",
        "province": "Northern Region",
        "population": -1,
        "latitude": 2.601142,
        "longitude": 31.947492
    },
    {
        "name": "Amudat",
        "country": "Uganda",
        "province": "Northern Region",
        "population": 1873,
        "latitude": 1.95,
        "longitude": 34.95
    },
    {
        "name": "Aloi",
        "country": "Uganda",
        "province": "Northern Region",
        "population": -1,
        "latitude": 2.252778,
        "longitude": 33.177778
    },
    {
        "name": "Acholibur",
        "country": "Uganda",
        "province": "Northern Region",
        "population": -1,
        "latitude": 3.142012,
        "longitude": 32.913629
    },
    {
        "name": "Aboke",
        "country": "Uganda",
        "province": "Northern Region",
        "population": -1,
        "latitude": 2.335278,
        "longitude": 32.688611
    },
    {
        "name": "Yenga",
        "country": "Uganda",
        "province": "Western Region",
        "population": -1,
        "latitude": 0.847975,
        "longitude": 30.013812
    },
    {
        "name": "Wanseko",
        "country": "Uganda",
        "province": "Western Region",
        "population": -1,
        "latitude": 2.177529,
        "longitude": 31.382097
    },
    {
        "name": "Tirinyi",
        "country": "Uganda",
        "province": "Eastern Region",
        "population": -1,
        "latitude": 0.996668,
        "longitude": 33.79204
    },
    {
        "name": "Sekanyonyi",
        "country": "Uganda",
        "province": "Central Region",
        "population": -1,
        "latitude": 0.508889,
        "longitude": 32.123889
    },
    {
        "name": "Rwekunye",
        "country": "Uganda",
        "province": "Western Region",
        "population": -1,
        "latitude": 1.709189,
        "longitude": 32.028889
    },
    {
        "name": "Rushere",
        "country": "Uganda",
        "province": "Western Region",
        "population": -1,
        "latitude": -0.236667,
        "longitude": 30.961111
    },
    {
        "name": "Rubindi",
        "country": "Uganda",
        "province": "Western Region",
        "population": -1,
        "latitude": -0.3741667,
        "longitude": 30.6094444
    },
    {
        "name": "Parombo",
        "country": "Uganda",
        "province": "Northern Region",
        "population": -1,
        "latitude": 2.303562,
        "longitude": 31.202941
    },
    {
        "name": "Putanga",
        "country": "Uganda",
        "province": "Northern Region",
        "population": -1,
        "latitude": 2.5980556,
        "longitude": 32.9469444
    },
    {
        "name": "Paraa",
        "country": "Uganda",
        "province": "Northern Region",
        "population": -1,
        "latitude": 2.291848,
        "longitude": 31.577463
    },
    {
        "name": "Pakwach",
        "country": "Uganda",
        "province": "Northern Region",
        "population": -1,
        "latitude": 2.463353985625653,
        "longitude": 31.49831771850586
    },
    {
        "name": "Pakuba",
        "country": "Uganda",
        "province": "Northern Region",
        "population": -1,
        "latitude": 2.333856,
        "longitude": 31.465951
    },
    {
        "name": "Ggaba",
        "country": "Uganda",
        "province": "Central Region",
        "population": -1,
        "latitude": 0.2625,
        "longitude": 32.629444
    },
    {
        "name": "Bibia",
        "country": "Uganda",
        "province": "Northern Region",
        "population": -1,
        "latitude": 3.474345,
        "longitude": 32.067317
    },
    {
        "name": "Napak",
        "country": "Uganda",
        "province": "Northern Region",
        "population": -1,
        "latitude": 2.25,
        "longitude": 34.25
    },
    {
        "name": "Karuma",
        "country": "Uganda",
        "province": "Western Region",
        "population": -1,
        "latitude": 2.233772,
        "longitude": 32.233861
    },
    {
        "name": "Olwiyo",
        "country": "Uganda",
        "province": "Northern Region",
        "population": -1,
        "latitude": 2.536989,
        "longitude": 31.885162
    },
    {
        "name": "Alokolum",
        "country": "Uganda",
        "province": "Northern Region",
        "population": -1,
        "latitude": 2.75757,
        "longitude": 32.226651
    },
    {
        "name": "Nansana",
        "country": "Uganda",
        "province": "Central Region",
        "population": -1,
        "latitude": 0.37,
        "longitude": 32
    },
    {
        "name": "Katwe",
        "country": "Uganda",
        "province": "Central Region",
        "population": -1,
        "latitude": 0.3,
        "longitude": 32.576667
    },
    {
        "name": "Lweza",
        "country": "Uganda",
        "province": "Central Region",
        "population": 1000,
        "latitude": 0.2099413942286413,
        "longitude": 32.585105895996094
    },
    {
        "name": "Murchison Falls",
        "country": "Uganda",
        "province": "Northern Region",
        "population": -1,
        "latitude": 2.2765318470698093,
        "longitude": 31.68907642364502
    },
    {
        "name": "Busega",
        "country": "Uganda",
        "province": "Central Region",
        "population": -1,
        "latitude": 0.31,
        "longitude": 32.52
    },
    {
        "name": "Katuna",
        "country": "Uganda",
        "province": "Western Region",
        "population": -1,
        "latitude": -1.43657,
        "longitude": 29.98675
    },
    {
        "name": "Malaba",
        "country": "Uganda",
        "province": "Eastern Region",
        "population": -1,
        "latitude": 0.644444,
        "longitude": 34.260556
    },
    {
        "name": "Nyakahita",
        "country": "Uganda",
        "province": "Western Region",
        "population": -1,
        "latitude": -0.41389,
        "longitude": 31.09556
    },
    {
        "name": "Rwamwanja Refugee Settlement",
        "country": "Uganda",
        "province": "Western Region",
        "population": -1,
        "latitude": 0.205,
        "longitude": 30.586
    },
    {
        "name": "Mifumi",
        "country": "Uganda",
        "province": "Eastern Region",
        "population": -1,
        "latitude": 0.748795,
        "longitude": 33.961073
    },
    {
        "name": "Budaka",
        "country": "Uganda",
        "province": "Eastern Region",
        "population": -1,
        "latitude": 0.866552,
        "longitude": 34.019902
    },
    {
        "name": "Kimwanyi",
        "country": "Uganda",
        "province": "Central Region",
        "population": -1,
        "latitude": 0.448002,
        "longitude": 32.637332
    },
    {
        "name": "Kyaliwajjala",
        "country": "Uganda",
        "province": "Central Region",
        "population": -1,
        "latitude": 0.380346,
        "longitude": 32.64663
    },
    {
        "name": "Kitikifumba",
        "country": "Uganda",
        "province": "Central Region",
        "population": -1,
        "latitude": 0.414257,
        "longitude": 32.634231
    },
    {
        "name": "Katalemwa",
        "country": "Uganda",
        "province": "Central Region",
        "population": -1,
        "latitude": 0.388757,
        "longitude": 32.580432
    },
    {
        "name": "Kawaala",
        "country": "Uganda",
        "province": "Central Region",
        "population": -1,
        "latitude": 0.338863,
        "longitude": 32.554064
    },
    {
        "name": "Namungoona",
        "country": "Uganda",
        "province": "Central Region",
        "population": -1,
        "latitude": 0.338701,
        "longitude": 32.541768
    },
    {
        "name": "Mbalwa",
        "country": "Uganda",
        "province": "Central Region",
        "population": -1,
        "latitude": 0.366044,
        "longitude": 32.650167
    },
    {
        "name": "Namanve",
        "country": "Uganda",
        "province": "Central Region",
        "population": -1,
        "latitude": 0.361999,
        "longitude": 32.691585
    },
    {
        "name": "Butabika",
        "country": "Uganda",
        "province": "Central Region",
        "population": -1,
        "latitude": 0.319448,
        "longitude": 32.656315
    },
    {
        "name": "Namuwongo",
        "country": "Uganda",
        "province": "Central Region",
        "population": -1,
        "latitude": 0.306667,
        "longitude": 32.600498
    },
    {
        "name": "Kansanga",
        "country": "Uganda",
        "province": "Central Region",
        "population": -1,
        "latitude": 0.286443,
        "longitude": 32.605675
    },
    {
        "name": "Wandegeya",
        "country": "Uganda",
        "province": "Central Region",
        "population": -1,
        "latitude": 0.331016,
        "longitude": 32.56992
    },
    {
        "name": "Lubowa",
        "country": "Uganda",
        "province": "Central Region",
        "population": -1,
        "latitude": 0.240332,
        "longitude": 32.552176
    },
    {
        "name": "Kikaaya",
        "country": "Uganda",
        "province": "Central Region",
        "population": -1,
        "latitude": 0.365,
        "longitude": 32.59
    },
    {
        "name": "Musita",
        "country": "Uganda",
        "province": "Eastern Region",
        "population": -1,
        "latitude": 0.527661,
        "longitude": 33.384452
    },
    {
        "name": "Kibimba",
        "country": "Uganda",
        "province": "Eastern Region",
        "population": -1,
        "latitude": 0.522029,
        "longitude": 33.873614
    },
    {
        "name": "Kibaale",
        "country": "Uganda",
        "province": "Western Region",
        "population": -1,
        "latitude": 1.421231,
        "longitude": 31.515932
    },
    {
        "name": "Muyenga",
        "country": "Uganda",
        "province": "Central Region",
        "population": -1,
        "latitude": 0.292682447748121,
        "longitude": 32.6169061660767
    },
    {
        "name": "Ntinda",
        "country": "Uganda",
        "province": "Central Region",
        "population": -1,
        "latitude": 0.355293857908219,
        "longitude": 32.6142024993896
    },
    {
        "name": "Nwoya",
        "country": "Uganda",
        "province": "Northern Region",
        "population": -1,
        "latitude": 2.634225,
        "longitude": 32.001065
    },
    {
        "name": "Opiyai",
        "country": "Uganda",
        "province": "Eastern Region",
        "population": -1,
        "latitude": 1.688169,
        "longitude": 33.604286
    },
    {
        "name": "Origo",
        "country": "Uganda",
        "province": "Northern Region",
        "population": -1,
        "latitude": 3.485198,
        "longitude": 31.901519
    },
    {
        "name": "Okollo",
        "country": "Uganda",
        "province": "Northern Region",
        "population": -1,
        "latitude": 2.652191,
        "longitude": 31.14576
    },
    {
        "name": "Okokoro",
        "country": "Uganda",
        "province": "Eastern Region",
        "population": -1,
        "latitude": 1.688866,
        "longitude": 33.921505
    },
    {
        "name": "Ogujebe",
        "country": "Uganda",
        "province": "Northern Region",
        "population": -1,
        "latitude": 3.483183,
        "longitude": 31.708912
    },
    {
        "name": "Ogongora",
        "country": "Uganda",
        "province": "Eastern Region",
        "population": -1,
        "latitude": 1.905268,
        "longitude": 33.373357
    },
    {
        "name": "Ogisa",
        "country": "Uganda",
        "province": "Eastern Region",
        "population": -1,
        "latitude": 1.383333,
        "longitude": 33.7
    },
    {
        "name": "Offaka",
        "country": "Uganda",
        "province": "Northern Region",
        "population": -1,
        "latitude": 2.579045,
        "longitude": 31.047044
    },
    {
        "name": "Obuje",
        "country": "Uganda",
        "province": "Northern Region",
        "population": -1,
        "latitude": 3.194326,
        "longitude": 30.970576
    },
    {
        "name": "Ntungamo",
        "country": "Uganda",
        "province": "Western Region",
        "population": 16915,
        "latitude": -0.883333,
        "longitude": 29.65
    },
    {
        "name": "Ntungamo",
        "country": "Uganda",
        "province": "Western Region",
        "population": -1,
        "latitude": -0.935,
        "longitude": 30.2880556
    },
    {
        "name": "Ntoroko",
        "country": "Uganda",
        "province": "Western Region",
        "population": -1,
        "latitude": 1.041111,
        "longitude": 30.481111
    },
    {
        "name": "Nsoola",
        "country": "Uganda",
        "province": "Eastern Region",
        "population": -1,
        "latitude": 0.938552,
        "longitude": 33.696704
    },
    {
        "name": "Nsika",
        "country": "Uganda",
        "province": "Western Region",
        "population": -1,
        "latitude": -0.358,
        "longitude": 30.43136
    },
    {
        "name": "Nsono",
        "country": "Uganda",
        "province": "Eastern Region",
        "population": -1,
        "latitude": 0.348212,
        "longitude": 33.824617
    },
    {
        "name": "Ngora",
        "country": "Uganda",
        "province": "Eastern Region",
        "population": -1,
        "latitude": 1.431389,
        "longitude": 33.777222
    },
    {
        "name": "Napianyenya",
        "country": "Uganda",
        "province": "Northern Region",
        "population": -1,
        "latitude": 1.866667,
        "longitude": 34.583333
    },
    {
        "name": "Namutumba",
        "country": "Uganda",
        "province": "Eastern Region",
        "population": -1,
        "latitude": 0.836111,
        "longitude": 33.686111
    },
    {
        "name": "Namunyumya Mairo",
        "country": "Uganda",
        "province": "Eastern Region",
        "population": -1,
        "latitude": 0.753409,
        "longitude": 33.627056
    },
    {
        "name": "Namasuba",
        "country": "Uganda",
        "province": "Central Region",
        "population": 22507,
        "latitude": 0.689444,
        "longitude": 32.421389
    },
    {
        "name": "Nakishenyi",
        "country": "Uganda",
        "province": "Western Region",
        "population": -1,
        "latitude": -1.0377778,
        "longitude": 29.9194444
    },
    {
        "name": "Nasisa",
        "country": "Uganda",
        "province": "Eastern Region",
        "population": -1,
        "latitude": 0.386918,
        "longitude": 33.913767
    },
    {
        "name": "Nakaseke",
        "country": "Uganda",
        "province": "Central Region",
        "population": -1,
        "latitude": 0.751667,
        "longitude": 32.385
    },
    {
        "name": "Najeneti",
        "country": "Uganda",
        "province": "Eastern Region",
        "population": -1,
        "latitude": 1.15,
        "longitude": 33.666667
    },
    {
        "name": "Nabuwigulu",
        "country": "Uganda",
        "province": "Eastern Region",
        "population": -1,
        "latitude": 0.975833,
        "longitude": 33.123889
    },
    {
        "name": "Nam-Okora",
        "country": "Uganda",
        "province": "Northern Region",
        "population": -1,
        "latitude": 3.348084,
        "longitude": 33.334755
    },
    {
        "name": "Mwengura",
        "country": "Uganda",
        "province": "Western Region",
        "population": -1,
        "latitude": -0.6,
        "longitude": 30.266667
    },
    {
        "name": "Mwameri",
        "country": "Uganda",
        "province": "Eastern Region",
        "population": -1,
        "latitude": 1.333333,
        "longitude": 34.166667
    },
    {
        "name": "Mulago",
        "country": "Uganda",
        "province": "Central Region",
        "population": -1,
        "latitude": 0.3417,
        "longitude": 32.577268
    },
    {
        "name": "Muguruka",
        "country": "Uganda",
        "province": "Central Region",
        "population": -1,
        "latitude": -0.25,
        "longitude": 31.5
    },
    {
        "name": "Muduma",
        "country": "Uganda",
        "province": "Central Region",
        "population": -1,
        "latitude": 0.348257,
        "longitude": 32.303135
    },
    {
        "name": "Momeri",
        "country": "Uganda",
        "province": "Eastern Region",
        "population": -1,
        "latitude": 1.316667,
        "longitude": 34.066667
    },
    {
        "name": "Maseruku",
        "country": "Uganda",
        "province": "Western Region",
        "population": -1,
        "latitude": -0.459722,
        "longitude": 30.404722
    },
    {
        "name": "Makerere",
        "country": "Uganda",
        "province": "Central Region",
        "population": -1,
        "latitude": 0.339656,
        "longitude": 32.564142
    },
    {
        "name": "Lwengo",
        "country": "Uganda",
        "province": "Central Region",
        "population": -1,
        "latitude": -0.416111,
        "longitude": 31.408056
    },
    {
        "name": "Luwero",
        "country": "Uganda",
        "province": "Central Region",
        "population": 28338,
        "latitude": 0.849167,
        "longitude": 32.473056
    },
    {
        "name": "Lugonjo",
        "country": "Uganda",
        "province": "Central Region",
        "population": -1,
        "latitude": 0.066667,
        "longitude": 32.45
    },
    {
        "name": "Laropi",
        "country": "Uganda",
        "province": "Northern Region",
        "population": -1,
        "latitude": 3.561589,
        "longitude": 31.821915
    },
    {
        "name": "Laminabili",
        "country": "Uganda",
        "province": "Northern Region",
        "population": -1,
        "latitude": 2.698308,
        "longitude": 32.315054
    },
    {
        "name": "Kyosoweri",
        "country": "Uganda",
        "province": "Eastern Region",
        "population": -1,
        "latitude": 1.333333,
        "longitude": 34.666667
    },
    {
        "name": "Kyeizobo",
        "country": "Uganda",
        "province": "Western Region",
        "population": -1,
        "latitude": -0.566667,
        "longitude": 30.266667
    },
    {
        "name": "Kyegegwa",
        "country": "Uganda",
        "province": "Western Region",
        "population": -1,
        "latitude": 0.502222,
        "longitude": 31.041389
    },
    {
        "name": "Kyankonoki",
        "country": "Uganda",
        "province": "Central Region",
        "population": -1,
        "latitude": 1.133333,
        "longitude": 32.55
    },
    {
        "name": "Kyabasaja",
        "country": "Uganda",
        "province": "Western Region",
        "population": -1,
        "latitude": 0.766667,
        "longitude": 31.383333
    },
    {
        "name": "Koboko",
        "country": "Uganda",
        "province": "Northern Region",
        "population": -1,
        "latitude": 3.413637,
        "longitude": 30.959935
    },
    {
        "name": "Kiyanga",
        "country": "Uganda",
        "province": "Central Region",
        "population": -1,
        "latitude": 0.460272,
        "longitude": 33.127272
    },
    {
        "name": "Kiwumulo",
        "country": "Uganda",
        "province": "Western Region",
        "population": -1,
        "latitude": 0.8113889,
        "longitude": 31.1536111
    },
    {
        "name": "Kiteny",
        "country": "Uganda",
        "province": "Northern Region",
        "population": -1,
        "latitude": 3.511082,
        "longitude": 33.427991
    },
    {
        "name": "Kigorobya",
        "country": "Uganda",
        "province": "Western Region",
        "population": 5420,
        "latitude": 1.616199,
        "longitude": 31.308904
    },
    {
        "name": "Kichwamba",
        "country": "Uganda",
        "province": "Western Region",
        "population": -1,
        "latitude": -0.683333,
        "longitude": 29.933333
    },
    {
        "name": "Kibuku",
        "country": "Uganda",
        "province": "Eastern Region",
        "population": -1,
        "latitude": 1.043333,
        "longitude": 33.7975
    },
    {
        "name": "Katozho",
        "country": "Uganda",
        "province": "Western Region",
        "population": -1,
        "latitude": -0.95,
        "longitude": 30.333333
    },
    {
        "name": "Kanyamburara",
        "country": "Uganda",
        "province": "Western Region",
        "population": -1,
        "latitude": -0.033333,
        "longitude": 30.35
    },
    {
        "name": "Kalungu",
        "country": "Uganda",
        "province": "Central Region",
        "population": -1,
        "latitude": -0.16968702306181893,
        "longitude": 31.75847053527832
    },
    {
        "name": "Kaliro",
        "country": "Uganda",
        "province": "Eastern Region",
        "population": -1,
        "latitude": 0.894444,
        "longitude": 33.499444
    },
    {
        "name": "Kalangala",
        "country": "Uganda",
        "province": "Central Region",
        "population": -1,
        "latitude": -0.308889,
        "longitude": 32.225
    },
    {
        "name": "Kakumiro",
        "country": "Uganda",
        "province": "Western Region",
        "population": -1,
        "latitude": 0.780556,
        "longitude": 31.323611
    },
    {
        "name": "Kakiryongole",
        "country": "Uganda",
        "province": "Northern Region",
        "population": -1,
        "latitude": 2.122638,
        "longitude": 34.60569
    },
    {
        "name": "Kakanzhu",
        "country": "Uganda",
        "province": "Western Region",
        "population": -1,
        "latitude": -0.5,
        "longitude": 30.2
    },
    {
        "name": "Kaproron",
        "country": "Uganda",
        "province": "Eastern Region",
        "population": -1,
        "latitude": 1.387778,
        "longitude": 34.612778
    },
    {
        "name": "Kaabong",
        "country": "Uganda",
        "province": "Northern Region",
        "population": -1,
        "latitude": 3.483611,
        "longitude": 34.149167
    },
    {
        "name": "Ibanda",
        "country": "Uganda",
        "province": "Western Region",
        "population": 31000,
        "latitude": -0.13398158260523635,
        "longitude": 30.496158599853516
    },
    {
        "name": "Curumu",
        "country": "Uganda",
        "province": "Northern Region",
        "population": -1,
        "latitude": 2.97523,
        "longitude": 31.357868
    },
    {
        "name": "Gombe",
        "country": "Uganda",
        "province": "Central Region",
        "population": -1,
        "latitude": 0.203333,
        "longitude": 32.088056
    },
    {
        "name": "Diima",
        "country": "Uganda",
        "province": "Central Region",
        "population": -1,
        "latitude": -0.6444444,
        "longitude": 31.7961111
    },
    {
        "name": "Dokolo",
        "country": "Uganda",
        "province": "Northern Region",
        "population": -1,
        "latitude": 1.898333,
        "longitude": 33.1775
    },
    {
        "name": "Chwagere",
        "country": "Uganda",
        "province": "Northern Region",
        "population": -1,
        "latitude": 1.862459,
        "longitude": 33.091739
    },
    {
        "name": "Cherekula",
        "country": "Uganda",
        "province": "Eastern Region",
        "population": -1,
        "latitude": 1.3,
        "longitude": 33.666667
    },
    {
        "name": "Chamidako",
        "country": "Uganda",
        "province": "Eastern Region",
        "population": -1,
        "latitude": 1.683333,
        "longitude": 33.05
    },
    {
        "name": "Chegere",
        "country": "Uganda",
        "province": "Northern Region",
        "population": -1,
        "latitude": 2.0827778,
        "longitude": 32.5027778
    },
    {
        "name": "Chawente",
        "country": "Uganda",
        "province": "Northern Region",
        "population": -1,
        "latitude": 1.791313,
        "longitude": 32.657699
    },
    {
        "name": "Bweyogerere",
        "country": "Uganda",
        "province": "Central Region",
        "population": 11473,
        "latitude": 0.357728,
        "longitude": 32.663322
    },
    {
        "name": "Buyende",
        "country": "Uganda",
        "province": "Eastern Region",
        "population": -1,
        "latitude": 1.151667,
        "longitude": 33.155
    },
    {
        "name": "Buwologoma",
        "country": "Uganda",
        "province": "Eastern Region",
        "population": -1,
        "latitude": 0.73082,
        "longitude": 33.376734
    },
    {
        "name": "Butebo",
        "country": "Uganda",
        "province": "Eastern Region",
        "population": -1,
        "latitude": 1.194167,
        "longitude": 33.922222
    },
    {
        "name": "Butaleja",
        "country": "Uganda",
        "province": "Eastern Region",
        "population": -1,
        "latitude": 0.911944,
        "longitude": 33.951111
    },
    {
        "name": "Bunghagi",
        "country": "Uganda",
        "province": "Eastern Region",
        "population": -1,
        "latitude": 0.938856,
        "longitude": 33.965491
    },
    {
        "name": "Bulugu",
        "country": "Uganda",
        "province": "Eastern Region",
        "population": -1,
        "latitude": 0.264949,
        "longitude": 33.456001
    },
    {
        "name": "Bulambuli",
        "country": "Uganda",
        "province": "Eastern Region",
        "population": -1,
        "latitude": 1.166667,
        "longitude": 34.383333
    },
    {
        "name": "Bukwa",
        "country": "Uganda",
        "province": "Eastern Region",
        "population": -1,
        "latitude": 1.259167,
        "longitude": 34.753889
    },
    {
        "name": "Buikwe",
        "country": "Uganda",
        "province": "Central Region",
        "population": -1,
        "latitude": 0.3375,
        "longitude": 33.010556
    },
    {
        "name": "Buhungurua",
        "country": "Uganda",
        "province": "Western Region",
        "population": -1,
        "latitude": -0.833333,
        "longitude": 30.733333
    },
    {
        "name": "Bugushu",
        "country": "Uganda",
        "province": "Western Region",
        "population": -1,
        "latitude": 0.1,
        "longitude": 30.666667
    },
    {
        "name": "Bugonje",
        "country": "Uganda",
        "province": "Western Region",
        "population": -1,
        "latitude": -0.766667,
        "longitude": 29.8
    },
    {
        "name": "Muganja",
        "country": "Uganda",
        "province": "Eastern Region",
        "population": -1,
        "latitude": 0.731725,
        "longitude": 33.92181
    },
    {
        "name": "Budini-Mission",
        "country": "Uganda",
        "province": "Eastern Region",
        "population": -1,
        "latitude": 0.917338,
        "longitude": 33.51329
    },
    {
        "name": "Budde-Kiyonsa",
        "country": "Uganda",
        "province": "Central Region",
        "population": -1,
        "latitude": 0.126224,
        "longitude": 32.184238
    },
    {
        "name": "Bubulo",
        "country": "Uganda",
        "province": "Eastern Region",
        "population": -1,
        "latitude": 0.948492,
        "longitude": 34.277787
    },
    {
        "name": "Bubonge",
        "country": "Uganda",
        "province": "Eastern Region",
        "population": -1,
        "latitude": 0.56863,
        "longitude": 33.587722
    },
    {
        "name": "Birundumu",
        "country": "Uganda",
        "province": "Western Region",
        "population": -1,
        "latitude": -0.790556,
        "longitude": 31.060833
    },
    {
        "name": "Waitambogwe",
        "country": "Uganda",
        "province": "Eastern Region",
        "population": -1,
        "latitude": 0.532456,
        "longitude": 33.394916
    },
    {
        "name": "Atutur",
        "country": "Uganda",
        "province": "Eastern Region",
        "population": -1,
        "latitude": 1.316667,
        "longitude": 33.95
    },
    {
        "name": "Asilang",
        "country": "Uganda",
        "province": "Eastern Region",
        "population": -1,
        "latitude": 1.920037,
        "longitude": 33.799447
    },
    {
        "name": "Apoko",
        "country": "Uganda",
        "province": "Eastern Region",
        "population": -1,
        "latitude": 0.703634,
        "longitude": 34.246063
    },
    {
        "name": "Amuria",
        "country": "Uganda",
        "province": "Eastern Region",
        "population": -1,
        "latitude": 2.003611,
        "longitude": 33.651111
    },
    {
        "name": "Amolatar",
        "country": "Uganda",
        "province": "Northern Region",
        "population": -1,
        "latitude": 1.615556,
        "longitude": 32.839722
    },
    {
        "name": "Alwi",
        "country": "Uganda",
        "province": "Northern Region",
        "population": -1,
        "latitude": 2.461802,
        "longitude": 31.362623
    },
    {
        "name": "Abim",
        "country": "Uganda",
        "province": "Northern Region",
        "population": -1,
        "latitude": 2.701667,
        "longitude": 33.676111
    },
    {
        "name": "Wainya",
        "country": "Uganda",
        "province": "Eastern Region",
        "population": -1,
        "latitude": 0.555184,
        "longitude": 33.4073
    },
    {
        "name": "Ihagalo",
        "country": "Uganda",
        "province": "Eastern Region",
        "population": -1,
        "latitude": 0.952358,
        "longitude": 33.512904
    },
    {
        "name": "Okuti",
        "country": "Uganda",
        "province": "Northern Region",
        "population": -1,
        "latitude": 3.653376,
        "longitude": 33.516368
    },
    {
        "name": "Te-Okot",
        "country": "Uganda",
        "province": "Northern Region",
        "population": -1,
        "latitude": 2.506276,
        "longitude": 31.586761
    },
    {
        "name": "Soona",
        "country": "Uganda",
        "province": "Central Region",
        "population": -1,
        "latitude": 0.560407,
        "longitude": 33.009644
    },
    {
        "name": "Rwashamaire",
        "country": "Uganda",
        "province": "Western Region",
        "population": -1,
        "latitude": -0.8930556,
        "longitude": 30.1433333
    },
    {
        "name": "Rwamuhara",
        "country": "Uganda",
        "province": "Western Region",
        "population": -1,
        "latitude": -0.167222,
        "longitude": 30.654722
    },
    {
        "name": "Rutooma",
        "country": "Uganda",
        "province": "Western Region",
        "population": -1,
        "latitude": -0.47,
        "longitude": 30.5961111
    },
    {
        "name": "Rubirizi",
        "country": "Uganda",
        "province": "Western Region",
        "population": -1,
        "latitude": -0.298889,
        "longitude": 30.133611
    },
    {
        "name": "Rubanda",
        "country": "Uganda",
        "province": "Western Region",
        "population": -1,
        "latitude": -1.188333,
        "longitude": 29.846111
    },
    {
        "name": "Rubaare",
        "country": "Uganda",
        "province": "Western Region",
        "population": -1,
        "latitude": -1.0838889,
        "longitude": 30.2016667
    },
    {
        "name": "Paoko",
        "country": "Uganda",
        "province": "Northern Region",
        "population": -1,
        "latitude": 3.462702,
        "longitude": 31.90973
    },
    {
        "name": "Puduti",
        "country": "Uganda",
        "province": "Eastern Region",
        "population": -1,
        "latitude": 0.626991,
        "longitude": 34.098603
    },
    {
        "name": "Pei-Pei",
        "country": "Uganda",
        "province": "Eastern Region",
        "population": -1,
        "latitude": 0.758665,
        "longitude": 34.126087
    },
    {
        "name": "Pawor",
        "country": "Uganda",
        "province": "Northern Region",
        "population": -1,
        "latitude": 2.795813,
        "longitude": 31.33505
    },
    {
        "name": "Pawel",
        "country": "Uganda",
        "province": "Northern Region",
        "population": -1,
        "latitude": 3.089871,
        "longitude": 32.158158
    },
    {
        "name": "Pendero",
        "country": "Uganda",
        "province": "Northern Region",
        "population": -1,
        "latitude": 2.379404,
        "longitude": 31.679251
    },
    {
        "name": "Pakelle",
        "country": "Uganda",
        "province": "Northern Region",
        "population": -1,
        "latitude": 3.35685,
        "longitude": 31.85477
    },
    {
        "name": "Pader Palwo",
        "country": "Uganda",
        "province": "Northern Region",
        "population": 11152,
        "latitude": 2.800556,
        "longitude": 33.135
    },
    {
        "name": "Otuboi",
        "country": "Uganda",
        "province": "Eastern Region",
        "population": -1,
        "latitude": 1.920002,
        "longitude": 33.304577
    },
    {
        "name": "Isingiro",
        "country": "Uganda",
        "province": "Western Region",
        "population": -1,
        "latitude": -0.868637,
        "longitude": 30.830189
    },
    {
        "name": "Oyam",
        "country": "Uganda",
        "province": "Northern Region",
        "population": -1,
        "latitude": 2.235002,
        "longitude": 32.38495
    },
    {
        "name": "Namayingo",
        "country": "Uganda",
        "province": "Eastern Region",
        "population": -1,
        "latitude": 0.239833,
        "longitude": 33.884908
    },
    {
        "name": "Kitamilo",
        "country": "Uganda",
        "province": "Central Region",
        "population": -1,
        "latitude": 0.222155,
        "longitude": 33.206081
    },
    {
        "name": "Otuke",
        "country": "Uganda",
        "province": "Northern Region",
        "population": -1,
        "latitude": 2.500375,
        "longitude": 33.50065
    },
    {
        "name": "Luuka Town",
        "country": "Uganda",
        "province": "Eastern Region",
        "population": -1,
        "latitude": 0.700756,
        "longitude": 33.300202
    },
    {
        "name": "Amuru",
        "country": "Uganda",
        "province": "Northern Region",
        "population": -1,
        "latitude": 2.813879,
        "longitude": 31.938684
    },
    {
        "name": "Arua",
        "country": "Uganda",
        "province": "Northern Region",
        "population": -1,
        "latitude": 2.950405,
        "longitude": 31.366743
    },
    {
        "name": "Nakasero",
        "country": "Uganda",
        "province": "Central Region",
        "population": -1,
        "latitude": 0.323666,
        "longitude": 32.578826
    },
    {
        "name": "Luweero",
        "country": "Uganda",
        "province": "Central Region",
        "population": -1,
        "latitude": 0.83339,
        "longitude": 32.4994
    },
    {
        "name": "Buhweju",
        "country": "Uganda",
        "province": "Western Region",
        "population": -1,
        "latitude": -0.350269,
        "longitude": 30.300291
    },
    {
        "name": "Agago",
        "country": "Uganda",
        "province": "Northern Region",
        "population": -1,
        "latitude": 2.833825,
        "longitude": 33.33361
    },
    {
        "name": "Lamwo",
        "country": "Uganda",
        "province": "Northern Region",
        "population": -1,
        "latitude": 3.529719,
        "longitude": 32.801604
    },
    {
        "name": "Mpererwe",
        "country": "Uganda",
        "province": "Central Region",
        "population": -1,
        "latitude": 0.4,
        "longitude": 32.57
    },
    {
        "name": "Kampala Central Division",
        "country": "Uganda",
        "province": "Central Region",
        "population": -1,
        "latitude": 0.32467,
        "longitude": 32.5747
    },
    {
        "name": "Nateete",
        "country": "Uganda",
        "province": "Central Region",
        "population": -1,
        "latitude": 0.29383,
        "longitude": 32.52854
    },
    {
        "name": "Lungujja",
        "country": "Uganda",
        "province": "Central Region",
        "population": -1,
        "latitude": 0.3086724,
        "longitude": 32.5223405
    },
    {
        "name": "Kanyanya",
        "country": "Uganda",
        "province": "Central Region",
        "population": -1,
        "latitude": 0.37362,
        "longitude": 32.577223
    },
    {
        "name": "Kamwookya",
        "country": "Uganda",
        "province": "Central Region",
        "population": -1,
        "latitude": 0.3425,
        "longitude": 32.588889
    },
    {
        "name": "Mubango Estate",
        "country": "Uganda",
        "province": "Central Region",
        "population": -1,
        "latitude": 0.411079,
        "longitude": 33.015589
    },
    {
        "name": "Kitubulu",
        "country": "Uganda",
        "province": "Central Region",
        "population": -1,
        "latitude": 0.086995,
        "longitude": 32.479854
    },
    {
        "name": "Pader",
        "country": "Uganda",
        "province": "Northern Region",
        "population": 11600,
        "latitude": 3.05,
        "longitude": 33.216667
    },
    {
        "name": "Margherita",
        "country": "Uganda",
        "province": "Western Region",
        "population": 5109,
        "latitude": 0.4186111,
        "longitude": 29.8911111
    },
    {
        "name": "Kigo-Lunya",
        "country": "Uganda",
        "province": "Central Region",
        "population": -1,
        "latitude": 0.207414,
        "longitude": 32.589289
    },
    {
        "name": "Parak",
        "country": "Uganda",
        "province": "Northern Region",
        "population": -1,
        "latitude": 2.530522,
        "longitude": 32.414128
    },
    {
        "name": "Potipot",
        "country": "Uganda",
        "province": "Northern Region",
        "population": -1,
        "latitude": 3.765497,
        "longitude": 33.93728
    },
    {
        "name": "Lomej",
        "country": "Uganda",
        "province": "Northern Region",
        "population": -1,
        "latitude": 3.75153,
        "longitude": 33.858881
    },
    {
        "name": "Nyeu",
        "country": "Uganda",
        "province": "Northern Region",
        "population": -1,
        "latitude": 3.483883,
        "longitude": 31.805174
    },
    {
        "name": "Osopotoit",
        "country": "Uganda",
        "province": "Eastern Region",
        "population": -1,
        "latitude": 1.366667,
        "longitude": 33.833333
    },
    {
        "name": "Orupe",
        "country": "Uganda",
        "province": "Eastern Region",
        "population": -1,
        "latitude": 1.483333,
        "longitude": 33.55
    },
    {
        "name": "Orumo",
        "country": "Uganda",
        "province": "Northern Region",
        "population": -1,
        "latitude": 2.385,
        "longitude": 33.358333
    },
    {
        "name": "Orijini",
        "country": "Uganda",
        "province": "Northern Region",
        "population": -1,
        "latitude": 3.513634,
        "longitude": 31.142333
    },
    {
        "name": "Oriebai",
        "country": "Uganda",
        "province": "Eastern Region",
        "population": -1,
        "latitude": 2.083333,
        "longitude": 33.45
    },
    {
        "name": "Oraba",
        "country": "Uganda",
        "province": "Northern Region",
        "population": -1,
        "latitude": 3.534148,
        "longitude": 30.889348
    },
    {
        "name": "Opwateta",
        "country": "Uganda",
        "province": "Eastern Region",
        "population": -1,
        "latitude": 1.25,
        "longitude": 33.85
    },
    {
        "name": "Opot",
        "country": "Uganda",
        "province": "Eastern Region",
        "population": -1,
        "latitude": 1.366667,
        "longitude": 33.666667
    },
    {
        "name": "Ongunai",
        "country": "Uganda",
        "province": "Eastern Region",
        "population": -1,
        "latitude": 1.781627,
        "longitude": 33.523314
    },
    {
        "name": "Ongoratok",
        "country": "Uganda",
        "province": "Eastern Region",
        "population": -1,
        "latitude": 1.773906,
        "longitude": 33.600683
    },
    {
        "name": "Ongako",
        "country": "Uganda",
        "province": "Northern Region",
        "population": -1,
        "latitude": 2.680927,
        "longitude": 32.239381
    },
    {
        "name": "Ongariama",
        "country": "Uganda",
        "province": "Eastern Region",
        "population": -1,
        "latitude": 1.9839,
        "longitude": 33.488845
    },
    {
        "name": "Omyemya",
        "country": "Uganda",
        "province": "Eastern Region",
        "population": -1,
        "latitude": 2.216667,
        "longitude": 33.75
    },
    {
        "name": "Omunyir",
        "country": "Uganda",
        "province": "Eastern Region",
        "population": -1,
        "latitude": 2.15,
        "longitude": 33.483333
    },
    {
        "name": "Omugo",
        "country": "Uganda",
        "province": "Northern Region",
        "population": -1,
        "latitude": 3.274457,
        "longitude": 31.114188
    },
    {
        "name": "Omugenya",
        "country": "Uganda",
        "province": "Eastern Region",
        "population": -1,
        "latitude": 1.738259,
        "longitude": 33.747351
    },
    {
        "name": "Omugei",
        "country": "Uganda",
        "province": "Eastern Region",
        "population": -1,
        "latitude": 2.15,
        "longitude": 33.783333
    },
    {
        "name": "Omudoi",
        "country": "Uganda",
        "province": "Eastern Region",
        "population": -1,
        "latitude": 1.81513,
        "longitude": 33.998357
    },
    {
        "name": "Omotoi",
        "country": "Uganda",
        "province": "Eastern Region",
        "population": -1,
        "latitude": 1.316667,
        "longitude": 33.783333
    },
    {
        "name": "Omolotok",
        "country": "Uganda",
        "province": "Eastern Region",
        "population": -1,
        "latitude": 1.483333,
        "longitude": 33.383333
    },
    {
        "name": "Omodoi",
        "country": "Uganda",
        "province": "Eastern Region",
        "population": -1,
        "latitude": 2.05,
        "longitude": 33.8
    },
    {
        "name": "Omoce",
        "country": "Uganda",
        "province": "Eastern Region",
        "population": -1,
        "latitude": 1.925757,
        "longitude": 33.4973
    },
    {
        "name": "Omid",
        "country": "Uganda",
        "province": "Northern Region",
        "population": -1,
        "latitude": 2.0333333,
        "longitude": 33.35
    },
    {
        "name": "Ombachi",
        "country": "Uganda",
        "province": "Northern Region",
        "population": -1,
        "latitude": 3.049863,
        "longitude": 30.94347
    },
    {
        "name": "Omatikile",
        "country": "Uganda",
        "province": "Eastern Region",
        "population": -1,
        "latitude": 1.952734,
        "longitude": 33.519275
    },
    {
        "name": "Omagara",
        "country": "Uganda",
        "province": "Eastern Region",
        "population": -1,
        "latitude": 1.45,
        "longitude": 33.466667
    },
    {
        "name": "Olwerai",
        "country": "Uganda",
        "province": "Eastern Region",
        "population": -1,
        "latitude": 1.716066,
        "longitude": 33.469824
    },
    {
        "name": "Oluvu",
        "country": "Uganda",
        "province": "Northern Region",
        "population": -1,
        "latitude": 3.196672,
        "longitude": 30.868633
    },
    {
        "name": "Oloroi",
        "country": "Uganda",
        "province": "Eastern Region",
        "population": -1,
        "latitude": 2.016667,
        "longitude": 33.333333
    },
    {
        "name": "Olio",
        "country": "Uganda",
        "province": "Eastern Region",
        "population": -1,
        "latitude": 1.768326,
        "longitude": 33.513066
    },
    {
        "name": "Olelai",
        "country": "Uganda",
        "province": "Eastern Region",
        "population": -1,
        "latitude": 2.033333,
        "longitude": 33.933333
    },
    {
        "name": "Olekai",
        "country": "Uganda",
        "province": "Eastern Region",
        "population": -1,
        "latitude": 1.925312,
        "longitude": 33.678885
    },
    {
        "name": "Olecoi",
        "country": "Uganda",
        "province": "Eastern Region",
        "population": -1,
        "latitude": 1.876515,
        "longitude": 33.48572
    },
    {
        "name": "Oleba",
        "country": "Uganda",
        "province": "Northern Region",
        "population": -1,
        "latitude": 3.299638,
        "longitude": 30.928674
    },
    {
        "name": "Old Nariam",
        "country": "Uganda",
        "province": "Eastern Region",
        "population": -1,
        "latitude": 1.9291667,
        "longitude": 34.1080556
    },
    {
        "name": "Old Dufile",
        "country": "Uganda",
        "province": "Northern Region",
        "population": -1,
        "latitude": 3.566667,
        "longitude": 31.966667
    },
    {
        "name": "Okworo",
        "country": "Uganda",
        "province": "Eastern Region",
        "population": -1,
        "latitude": 1.333333,
        "longitude": 34.1
    },
    {
        "name": "Okumeri",
        "country": "Uganda",
        "province": "Eastern Region",
        "population": -1,
        "latitude": 1.530674,
        "longitude": 33.779194
    },
    {
        "name": "Okude",
        "country": "Uganda",
        "province": "Eastern Region",
        "population": -1,
        "latitude": 2.066667,
        "longitude": 33.366667
    },
    {
        "name": "Okoyu",
        "country": "Uganda",
        "province": "Northern Region",
        "population": -1,
        "latitude": 3.34993,
        "longitude": 31.271034
    },
    {
        "name": "Okimenga",
        "country": "Uganda",
        "province": "Eastern Region",
        "population": -1,
        "latitude": 1.466667,
        "longitude": 33.366667
    },
    {
        "name": "Okeyu",
        "country": "Uganda",
        "province": "Northern Region",
        "population": -1,
        "latitude": 2.419609,
        "longitude": 30.954113
    },
    {
        "name": "Okapel",
        "country": "Uganda",
        "province": "Eastern Region",
        "population": -1,
        "latitude": 1.743642,
        "longitude": 33.221856
    },
    {
        "name": "Ojom",
        "country": "Uganda",
        "province": "Eastern Region",
        "population": -1,
        "latitude": 1.797403,
        "longitude": 33.58342
    },
    {
        "name": "Ojingai",
        "country": "Uganda",
        "province": "Eastern Region",
        "population": -1,
        "latitude": 1.751651,
        "longitude": 33.58153
    },
    {
        "name": "Ajaa",
        "country": "Uganda",
        "province": "Northern Region",
        "population": -1,
        "latitude": 1.83862,
        "longitude": 32.388838
    },
    {
        "name": "Ogwam",
        "country": "Uganda",
        "province": "Northern Region",
        "population": -1,
        "latitude": 2.6908333,
        "longitude": 32.4319444
    },
    {
        "name": "Ogosoi",
        "country": "Uganda",
        "province": "Eastern Region",
        "population": -1,
        "latitude": 1.333333,
        "longitude": 33.833333
    },
    {
        "name": "Ogomo",
        "country": "Uganda",
        "province": "Eastern Region",
        "population": -1,
        "latitude": 1.433333,
        "longitude": 33.833333
    },
    {
        "name": "Ogangai",
        "country": "Uganda",
        "province": "Eastern Region",
        "population": -1,
        "latitude": 2.183333,
        "longitude": 33.516667
    },
    {
        "name": "Odoon",
        "country": "Uganda",
        "province": "Eastern Region",
        "population": -1,
        "latitude": 1.954942,
        "longitude": 33.732869
    },
    {
        "name": "Odokay",
        "country": "Uganda",
        "province": "Eastern Region",
        "population": -1,
        "latitude": 1.590893,
        "longitude": 33.534062
    },
    {
        "name": "Odoit",
        "country": "Uganda",
        "province": "Eastern Region",
        "population": -1,
        "latitude": 1.754289,
        "longitude": 33.124629
    },
    {
        "name": "Oderai",
        "country": "Uganda",
        "province": "Eastern Region",
        "population": -1,
        "latitude": 2.066667,
        "longitude": 33.95
    },
    {
        "name": "Odekere",
        "country": "Uganda",
        "province": "Eastern Region",
        "population": -1,
        "latitude": 1.628573,
        "longitude": 32.986436
    },
    {
        "name": "Ochebu",
        "country": "Uganda",
        "province": "Northern Region",
        "population": -1,
        "latitude": 2.688876,
        "longitude": 31.025615
    },
    {
        "name": "Ochanga",
        "country": "Uganda",
        "province": "Eastern Region",
        "population": -1,
        "latitude": 1.870283,
        "longitude": 33.280203
    },
    {
        "name": "Ochakai",
        "country": "Uganda",
        "province": "Eastern Region",
        "population": -1,
        "latitude": 1.939068,
        "longitude": 33.435896
    },
    {
        "name": "Obyonyo",
        "country": "Uganda",
        "province": "Eastern Region",
        "population": -1,
        "latitude": 2.05,
        "longitude": 33.383333
    },
    {
        "name": "Oburi",
        "country": "Uganda",
        "province": "Eastern Region",
        "population": -1,
        "latitude": 2.016667,
        "longitude": 33.8
    },
    {
        "name": "Obulubulu",
        "country": "Uganda",
        "province": "Eastern Region",
        "population": -1,
        "latitude": 1.719071,
        "longitude": 33.124326
    },
    {
        "name": "Obalang",
        "country": "Uganda",
        "province": "Eastern Region",
        "population": -1,
        "latitude": 2.172778,
        "longitude": 33.582778
    },
    {
        "name": "Nyiovura",
        "country": "Uganda",
        "province": "Northern Region",
        "population": -1,
        "latitude": 3.012096,
        "longitude": 30.831701
    },
    {
        "name": "Nyio",
        "country": "Uganda",
        "province": "Northern Region",
        "population": -1,
        "latitude": 3.038678,
        "longitude": 30.833618
    },
    {
        "name": "Nyero",
        "country": "Uganda",
        "province": "Eastern Region",
        "population": -1,
        "latitude": 1.483333,
        "longitude": 33.85
    },
    {
        "name": "Nyaravur",
        "country": "Uganda",
        "province": "Northern Region",
        "population": -1,
        "latitude": 2.439396,
        "longitude": 31.207034
    },
    {
        "name": "Nyapea",
        "country": "Uganda",
        "province": "Northern Region",
        "population": -1,
        "latitude": 2.459952,
        "longitude": 30.948573
    },
    {
        "name": "Nyantungo",
        "country": "Uganda",
        "province": "Western Region",
        "population": -1,
        "latitude": 0.6,
        "longitude": 30.65
    },
    {
        "name": "Nyamushasha",
        "country": "Uganda",
        "province": "Western Region",
        "population": -1,
        "latitude": -0.466667,
        "longitude": 29.766667
    },
    {
        "name": "Nyamufumura",
        "country": "Uganda",
        "province": "Western Region",
        "population": -1,
        "latitude": -0.566667,
        "longitude": 30.35
    },
    {
        "name": "Nyambogo",
        "country": "Uganda",
        "province": "Eastern Region",
        "population": -1,
        "latitude": 0.6,
        "longitude": 34.033333
    },
    {
        "name": "Nyalushanje",
        "country": "Uganda",
        "province": "Western Region",
        "population": -1,
        "latitude": -0.983333,
        "longitude": 29.966667
    },
    {
        "name": "Nyako",
        "country": "Uganda",
        "province": "Eastern Region",
        "population": -1,
        "latitude": 1.3,
        "longitude": 33.8
    },
    {
        "name": "Nyakisanju",
        "country": "Uganda",
        "province": "Western Region",
        "population": -1,
        "latitude": -0.566667,
        "longitude": 29.65
    },
    {
        "name": "Nyakayojo",
        "country": "Uganda",
        "province": "Western Region",
        "population": -1,
        "latitude": -0.6336111,
        "longitude": 30.6130556
    },
    {
        "name": "Nyakashashara",
        "country": "Uganda",
        "province": "Western Region",
        "population": -1,
        "latitude": -0.393611,
        "longitude": 31.103611
    },
    {
        "name": "Nyakakoni",
        "country": "Uganda",
        "province": "Western Region",
        "population": -1,
        "latitude": -0.45,
        "longitude": 30.716667
    },
    {
        "name": "Nyakagyeme",
        "country": "Uganda",
        "province": "Western Region",
        "population": -1,
        "latitude": -0.8588889,
        "longitude": 29.9038889
    },
    {
        "name": "Nyakageyi",
        "country": "Uganda",
        "province": "Northern Region",
        "population": -1,
        "latitude": 2.225495,
        "longitude": 31.303219
    },
    {
        "name": "Nyakagando",
        "country": "Uganda",
        "province": "Western Region",
        "population": -1,
        "latitude": -0.666667,
        "longitude": 30.433333
    },
    {
        "name": "Nyabisirira",
        "country": "Uganda",
        "province": "Western Region",
        "population": -1,
        "latitude": -0.316667,
        "longitude": 30.616667
    },
    {
        "name": "Nyaada",
        "country": "Uganda",
        "province": "Eastern Region",
        "population": -1,
        "latitude": 2.216667,
        "longitude": 33.683333
    },
    {
        "name": "Ntungamo",
        "country": "Uganda",
        "province": "Western Region",
        "population": 15300,
        "latitude": -0.879444,
        "longitude": 30.264167
    },
    {
        "name": "Nsololo",
        "country": "Uganda",
        "province": "Central Region",
        "population": -1,
        "latitude": 0.516667,
        "longitude": 31.866667
    },
    {
        "name": "Nsangi",
        "country": "Uganda",
        "province": "Central Region",
        "population": -1,
        "latitude": 0.280115,
        "longitude": 32.45812
    },
    {
        "name": "Nsagu",
        "country": "Uganda",
        "province": "Central Region",
        "population": -1,
        "latitude": 0.217442,
        "longitude": 32.481235
    },
    {
        "name": "Nkanya",
        "country": "Uganda",
        "province": "Central Region",
        "population": -1,
        "latitude": 1.25,
        "longitude": 32.516667
    },
    {
        "name": "Nkalwe",
        "country": "Uganda",
        "province": "Central Region",
        "population": -1,
        "latitude": -0.183333,
        "longitude": 31.6
    },
    {
        "name": "Ndoya",
        "country": "Uganda",
        "province": "Eastern Region",
        "population": -1,
        "latitude": 0.735743,
        "longitude": 33.391774
    },
    {
        "name": "Njokero",
        "country": "Uganda",
        "province": "Eastern Region",
        "population": -1,
        "latitude": 0.388364,
        "longitude": 33.431837
    },
    {
        "name": "Ngurua",
        "country": "Uganda",
        "province": "Northern Region",
        "population": -1,
        "latitude": 3.163487,
        "longitude": 31.275711
    },
    {
        "name": "Ngulamo",
        "country": "Uganda",
        "province": "Eastern Region",
        "population": -1,
        "latitude": 0.383333,
        "longitude": 33.766667
    },
    {
        "name": "Ngogwe",
        "country": "Uganda",
        "province": "Central Region",
        "population": -1,
        "latitude": 0.24227,
        "longitude": 32.99113
    },
    {
        "name": "Ngai",
        "country": "Uganda",
        "province": "Northern Region",
        "population": -1,
        "latitude": 2.477222,
        "longitude": 32.507222
    },
    {
        "name": "Ndeese",
        "country": "Uganda",
        "province": "Central Region",
        "population": -1,
        "latitude": 0.119185,
        "longitude": 32.023227
    },
    {
        "name": "Nazigo",
        "country": "Uganda",
        "province": "Central Region",
        "population": -1,
        "latitude": 0.6425,
        "longitude": 32.99
    },
    {
        "name": "Nawanago",
        "country": "Uganda",
        "province": "Eastern Region",
        "population": -1,
        "latitude": 0.738056,
        "longitude": 33.150278
    },
    {
        "name": "Nawanago",
        "country": "Uganda",
        "province": "Eastern Region",
        "population": -1,
        "latitude": 0.7794444,
        "longitude": 33.1505556
    },
    {
        "name": "Napopongo",
        "country": "Uganda",
        "province": "Eastern Region",
        "population": -1,
        "latitude": 1.233333,
        "longitude": 33.65
    },
    {
        "name": "Nansagazi",
        "country": "Uganda",
        "province": "Central Region",
        "population": -1,
        "latitude": 0.115503,
        "longitude": 32.9954
    },
    {
        "name": "Nanoko",
        "country": "Uganda",
        "province": "Eastern Region",
        "population": -1,
        "latitude": 1.05,
        "longitude": 33.733333
    },
    {
        "name": "Nankongolo",
        "country": "Uganda",
        "province": "Eastern Region",
        "population": -1,
        "latitude": 0.529167,
        "longitude": 33.840278
    },
    {
        "name": "Nankodo",
        "country": "Uganda",
        "province": "Eastern Region",
        "population": -1,
        "latitude": 1.1,
        "longitude": 33.7
    },
    {
        "name": "Namataba",
        "country": "Uganda",
        "province": "Central Region",
        "population": -1,
        "latitude": 0.5019444,
        "longitude": 32.8063889
    },
    {
        "name": "Namusuka",
        "country": "Uganda",
        "province": "Eastern Region",
        "population": -1,
        "latitude": 0.866667,
        "longitude": 34.083333
    },
    {
        "name": "Namulo",
        "country": "Uganda",
        "province": "Eastern Region",
        "population": -1,
        "latitude": 0.916667,
        "longitude": 34
    },
    {
        "name": "Namulikya",
        "country": "Uganda",
        "province": "Eastern Region",
        "population": -1,
        "latitude": 0.75,
        "longitude": 33.116667
    },
    {
        "name": "Namazzi",
        "country": "Uganda",
        "province": "Central Region",
        "population": -1,
        "latitude": 0.733333,
        "longitude": 32.2
    },
    {
        "name": "Namawogya",
        "country": "Uganda",
        "province": "Central Region",
        "population": -1,
        "latitude": 0.667222,
        "longitude": 32.661111
    },
    {
        "name": "Namasagali",
        "country": "Uganda",
        "province": "Eastern Region",
        "population": -1,
        "latitude": 1.016667,
        "longitude": 32.95
    },
    {
        "name": "Namalira",
        "country": "Uganda",
        "province": "Central Region",
        "population": -1,
        "latitude": 0.628889,
        "longitude": 32.824444
    },
    {
        "name": "Namakoko",
        "country": "Uganda",
        "province": "Eastern Region",
        "population": -1,
        "latitude": 0.5,
        "longitude": 33.666667
    },
    {
        "name": "Nama",
        "country": "Uganda",
        "province": "Central Region",
        "population": -1,
        "latitude": 0.284947,
        "longitude": 32.353938
    },
    {
        "name": "Nakotimoru",
        "country": "Uganda",
        "province": "Northern Region",
        "population": -1,
        "latitude": 3.65593,
        "longitude": 34.240403
    },
    {
        "name": "Nakiyumbi",
        "country": "Uganda",
        "province": "Eastern Region",
        "population": -1,
        "latitude": 0.551383,
        "longitude": 33.600638
    },
    {
        "name": "Nakimira",
        "country": "Uganda",
        "province": "Eastern Region",
        "population": -1,
        "latitude": 0.323835,
        "longitude": 33.496972
    },
    {
        "name": "Nakifuma",
        "country": "Uganda",
        "province": "Central Region",
        "population": -1,
        "latitude": 0.543611,
        "longitude": 32.79
    },
    {
        "name": "Nakhupa",
        "country": "Uganda",
        "province": "Eastern Region",
        "population": -1,
        "latitude": 0.866667,
        "longitude": 34.25
    },
    {
        "name": "Nakazigo",
        "country": "Uganda",
        "province": "Eastern Region",
        "population": -1,
        "latitude": 0.424369,
        "longitude": 33.600349
    },
    {
        "name": "Nakawoiza",
        "country": "Uganda",
        "province": "Eastern Region",
        "population": -1,
        "latitude": 0.631044,
        "longitude": 33.666736
    },
    {
        "name": "Nakawa",
        "country": "Uganda",
        "province": "Central Region",
        "population": -1,
        "latitude": 0.332407,
        "longitude": 32.619996
    },
    {
        "name": "Nakawuka",
        "country": "Uganda",
        "province": "Central Region",
        "population": -1,
        "latitude": 0.188269,
        "longitude": 32.462933
    },
    {
        "name": "Nakabala",
        "country": "Uganda",
        "province": "Central Region",
        "population": -1,
        "latitude": 0.55,
        "longitude": 31.433333
    },
    {
        "name": "Najjembe",
        "country": "Uganda",
        "province": "Central Region",
        "population": -1,
        "latitude": 0.396799,
        "longitude": 33.007587
    },
    {
        "name": "Najja",
        "country": "Uganda",
        "province": "Central Region",
        "population": -1,
        "latitude": 0.312993,
        "longitude": 33.103048
    },
    {
        "name": "Naitakwai",
        "country": "Uganda",
        "province": "Northern Region",
        "population": -1,
        "latitude": 2.524807,
        "longitude": 34.635812
    },
    {
        "name": "Naigana",
        "country": "Uganda",
        "province": "Western Region",
        "population": -1,
        "latitude": 1.004167,
        "longitude": 30.873889
    },
    {
        "name": "Nagongera",
        "country": "Uganda",
        "province": "Eastern Region",
        "population": -1,
        "latitude": 0.761605,
        "longitude": 34.026231
    },
    {
        "name": "Nagojje",
        "country": "Uganda",
        "province": "Central Region",
        "population": -1,
        "latitude": 0.440098,
        "longitude": 32.883402
    },
    {
        "name": "Nadiket",
        "country": "Uganda",
        "province": "Northern Region",
        "population": -1,
        "latitude": 2.511257,
        "longitude": 34.65702
    },
    {
        "name": "Nabyeso",
        "country": "Uganda",
        "province": "Northern Region",
        "population": -1,
        "latitude": 1.868211,
        "longitude": 32.792387
    },
    {
        "name": "Nabusanke",
        "country": "Uganda",
        "province": "Central Region",
        "population": -1,
        "latitude": 0.014295,
        "longitude": 32.053072
    },
    {
        "name": "Nabulesa",
        "country": "Uganda",
        "province": "Eastern Region",
        "population": -1,
        "latitude": 0.499818,
        "longitude": 33.217669
    },
    {
        "name": "Nabuwigulu",
        "country": "Uganda",
        "province": "Eastern Region",
        "population": -1,
        "latitude": 0.9805556,
        "longitude": 33.1002778
    },
    {
        "name": "Nabiswera",
        "country": "Uganda",
        "province": "Central Region",
        "population": -1,
        "latitude": 1.46,
        "longitude": 32.264722
    },
    {
        "name": "Nabbingo",
        "country": "Uganda",
        "province": "Central Region",
        "population": -1,
        "latitude": 0.288395,
        "longitude": 32.482789
    },
    {
        "name": "Mweruka",
        "country": "Uganda",
        "province": "Western Region",
        "population": -1,
        "latitude": 0.9833333,
        "longitude": 31.4833333
    },
    {
        "name": "Mwerasandu",
        "country": "Uganda",
        "province": "Western Region",
        "population": -1,
        "latitude": -0.983333,
        "longitude": 30.383333
    },
    {
        "name": "Mutungo Central",
        "country": "Uganda",
        "province": "Central Region",
        "population": -1,
        "latitude": 0.204418,
        "longitude": 32.58188
    },
    {
        "name": "Mutaikanyale",
        "country": "Uganda",
        "province": "Eastern Region",
        "population": -1,
        "latitude": 0.577283,
        "longitude": 33.206521
    },
    {
        "name": "Mutaibusibe",
        "country": "Uganda",
        "province": "Eastern Region",
        "population": -1,
        "latitude": 0.5587,
        "longitude": 33.218102
    },
    {
        "name": "Musenyi",
        "country": "Uganda",
        "province": "Central Region",
        "population": -1,
        "latitude": -0.483333,
        "longitude": 31.466667
    },
    {
        "name": "Mundenge",
        "country": "Uganda",
        "province": "Western Region",
        "population": -1,
        "latitude": 1.772445,
        "longitude": 32.103814
    },
    {
        "name": "Mulondo",
        "country": "Uganda",
        "province": "Eastern Region",
        "population": -1,
        "latitude": 1.399722,
        "longitude": 33.161111
    },
    {
        "name": "Mulingire",
        "country": "Uganda",
        "province": "Eastern Region",
        "population": -1,
        "latitude": 0.540017,
        "longitude": 33.378024
    },
    {
        "name": "Mulamba",
        "country": "Uganda",
        "province": "Western Region",
        "population": -1,
        "latitude": -0.95,
        "longitude": 29.833333
    },
    {
        "name": "Mukura",
        "country": "Uganda",
        "province": "Eastern Region",
        "population": -1,
        "latitude": 1.561549,
        "longitude": 33.615214
    },
    {
        "name": "Mkongoro",
        "country": "Uganda",
        "province": "Eastern Region",
        "population": -1,
        "latitude": 1.301667,
        "longitude": 33.887222
    },
    {
        "name": "Muhororo",
        "country": "Uganda",
        "province": "Western Region",
        "population": 1567,
        "latitude": 0.9380556,
        "longitude": 30.7594444
    },
    {
        "name": "Muhokya",
        "country": "Uganda",
        "province": "Western Region",
        "population": -1,
        "latitude": 0.1213889,
        "longitude": 30.0155556
    },
    {
        "name": "Mugusu",
        "country": "Uganda",
        "province": "Western Region",
        "population": -1,
        "latitude": 0.611549,
        "longitude": 30.212656
    },
    {
        "name": "Magalama",
        "country": "Uganda",
        "province": "Eastern Region",
        "population": -1,
        "latitude": 1.365556,
        "longitude": 33.219167
    },
    {
        "name": "Mucwini",
        "country": "Uganda",
        "province": "Northern Region",
        "population": -1,
        "latitude": 3.41205,
        "longitude": 33.024683
    },
    {
        "name": "Mubumba",
        "country": "Uganda",
        "province": "Eastern Region",
        "population": -1,
        "latitude": 0.256687,
        "longitude": 33.774217
    },
    {
        "name": "Mpute",
        "country": "Uganda",
        "province": "Central Region",
        "population": -1,
        "latitude": 0.8,
        "longitude": 32.616667
    },
    {
        "name": "Mpondwe",
        "country": "Uganda",
        "province": "Western Region",
        "population": -1,
        "latitude": 0.04008,
        "longitude": 29.7248
    },
    {
        "name": "Mpatta",
        "country": "Uganda",
        "province": "Central Region",
        "population": -1,
        "latitude": 0.234612,
        "longitude": 32.716033
    },
    {
        "name": "Mpambwe",
        "country": "Uganda",
        "province": "Eastern Region",
        "population": -1,
        "latitude": 0.608936,
        "longitude": 33.364271
    },
    {
        "name": "Morungatuny",
        "country": "Uganda",
        "province": "Eastern Region",
        "population": -1,
        "latitude": 2.116667,
        "longitude": 33.5
    },
    {
        "name": "Morungatuny",
        "country": "Uganda",
        "province": "Eastern Region",
        "population": -1,
        "latitude": 2.1,
        "longitude": 33.466667
    },
    {
        "name": "Mocha",
        "country": "Uganda",
        "province": "Northern Region",
        "population": -1,
        "latitude": 3.533333,
        "longitude": 31.25
    },
    {
        "name": "Mitandi",
        "country": "Uganda",
        "province": "Western Region",
        "population": -1,
        "latitude": 0.599002,
        "longitude": 30.148581
    },
    {
        "name": "Miramura",
        "country": "Uganda",
        "province": "Western Region",
        "population": -1,
        "latitude": 1.432444,
        "longitude": 31.596109
    },
    {
        "name": "Mikyerere",
        "country": "Uganda",
        "province": "Western Region",
        "population": -1,
        "latitude": -0.633333,
        "longitude": 30.366667
    },
    {
        "name": "Migingye",
        "country": "Uganda",
        "province": "Central Region",
        "population": -1,
        "latitude": 0.666667,
        "longitude": 32.35
    },
    {
        "name": "Miduuma",
        "country": "Uganda",
        "province": "Western Region",
        "population": -1,
        "latitude": 1.40204,
        "longitude": 31.824809
    },
    {
        "name": "Michu",
        "country": "Uganda",
        "province": "Northern Region",
        "population": -1,
        "latitude": 3.116601,
        "longitude": 30.867596
    },
    {
        "name": "Meru",
        "country": "Uganda",
        "province": "Central Region",
        "population": -1,
        "latitude": -0.15,
        "longitude": 31.666667
    },
    {
        "name": "Mera",
        "country": "Uganda",
        "province": "Eastern Region",
        "population": -1,
        "latitude": 0.696218,
        "longitude": 34.262147
    },
    {
        "name": "Media",
        "country": "Uganda",
        "province": "Northern Region",
        "population": -1,
        "latitude": 3.432685,
        "longitude": 30.980908
    },
    {
        "name": "Mbulamuti",
        "country": "Uganda",
        "province": "Eastern Region",
        "population": -1,
        "latitude": 0.84167,
        "longitude": 33.04861
    },
    {
        "name": "Masindi Port",
        "country": "Uganda",
        "province": "Western Region",
        "population": 7828,
        "latitude": 1.696058,
        "longitude": 32.086081
    },
    {
        "name": "Manyamye",
        "country": "Uganda",
        "province": "Eastern Region",
        "population": -1,
        "latitude": 0.781913,
        "longitude": 33.900808
    },
    {
        "name": "Katuba-Mangaliba",
        "country": "Uganda",
        "province": "Central Region",
        "population": -1,
        "latitude": 0.287305,
        "longitude": 32.766565
    },
    {
        "name": "Mamunye",
        "country": "Uganda",
        "province": "Central Region",
        "population": -1,
        "latitude": 0.733333,
        "longitude": 32.75
    },
    {
        "name": "Maliri",
        "country": "Uganda",
        "province": "Eastern Region",
        "population": -1,
        "latitude": 0.812433,
        "longitude": 34.143631
    },
    {
        "name": "Maliba",
        "country": "Uganda",
        "province": "Western Region",
        "population": -1,
        "latitude": 0.316667,
        "longitude": 30.1
    },
    {
        "name": "Makutu",
        "country": "Uganda",
        "province": "Eastern Region",
        "population": -1,
        "latitude": 0.501111,
        "longitude": 33.594167
    },
    {
        "name": "Makulubita",
        "country": "Uganda",
        "province": "Central Region",
        "population": -1,
        "latitude": 0.583333,
        "longitude": 32.416667
    },
    {
        "name": "Makondo",
        "country": "Uganda",
        "province": "Central Region",
        "population": -1,
        "latitude": -0.4391667,
        "longitude": 31.5936111
    },
    {
        "name": "Makindye",
        "country": "Uganda",
        "province": "Central Region",
        "population": -1,
        "latitude": 0.280891,
        "longitude": 32.591508
    },
    {
        "name": "Mailye",
        "country": "Uganda",
        "province": "Central Region",
        "population": -1,
        "latitude": 1.233333,
        "longitude": 32.483333
    },