[
    {
        "name": "Road Town",
        "country": "British Virgin Islands",
        "province": "British Virgin Islands",
        "population": 8449,
        "latitude": 18.42693,
        "longitude": -64.62079
    },
    {
        "name": "The Settlement",
        "country": "British Virgin Islands",
        "province": "British Virgin Islands",
        "population": -1,
        "latitude": 18.719827,
        "longitude": -64.316702
    },
    {
        "name": "Spanish Town",
        "country": "British Virgin Islands",
        "province": "British Virgin Islands",
        "population": -1,
        "latitude": 18.448104,
        "longitude": -64.434737
    },
    {
        "name": "Nottingham Estate",
        "country": "British Virgin Islands",
        "province": "British Virgin Islands",
        "population": -1,
        "latitude": 18.432865,
        "longitude": -64.578383
    },
    {
        "name": "East End",
        "country": "British Virgin Islands",
        "province": "British Virgin Islands",
        "population": -1,
        "latitude": 18.440237,
        "longitude": -64.55638
    },
    {
        "name": "Wesley Will",
        "country": "British Virgin Islands",
        "province": "British Virgin Islands",
        "population": -1,
        "latitude": 18.44676,
        "longitude": -64.60223
    },
    {
        "name": "Maya Cove",
        "country": "British Virgin Islands",
        "province": "British Virgin Islands",
        "population": -1,
        "latitude": 18.4166667,
        "longitude": -64.5666667
    },
    {
        "name": "Long Swamp",
        "country": "British Virgin Islands",
        "province": "British Virgin Islands",
        "population": -1,
        "latitude": 18.43333,
        "longitude": -64.56667
    },
    {
        "name": "Little Harbour",
        "country": "British Virgin Islands",
        "province": "British Virgin Islands",
        "population": -1,
        "latitude": 18.44004,
        "longitude": -64.73323
    },
    {
        "name": "Lettsome Settlement",
        "country": "British Virgin Islands",
        "province": "British Virgin Islands",
        "population": -1,
        "latitude": 18.45354,
        "longitude": -64.72359
    },
    {
        "name": "Leonards",
        "country": "British Virgin Islands",
        "province": "British Virgin Islands",
        "population": -1,
        "latitude": 18.4275,
        "longitude": -64.64111
    },
    {
        "name": "Kingstown",
        "country": "British Virgin Islands",
        "province": "British Virgin Islands",
        "population": -1,
        "latitude": 18.41784,
        "longitude": -64.59952
    },
    {
        "name": "Freshwater Pond",
        "country": "British Virgin Islands",
        "province": "British Virgin Islands",
        "population": -1,
        "latitude": 18.39142,
        "longitude": -64.68132
    },
    {
        "name": "Cane Garden Bay",
        "country": "British Virgin Islands",
        "province": "British Virgin Islands",
        "population": -1,
        "latitude": 18.42693,
        "longitude": -64.65701
    },
    {
        "name": "Belle Vue",
        "country": "British Virgin Islands",
        "province": "British Virgin Islands",
        "population": -1,
        "latitude": 18.44615,
        "longitude": -64.75151
    },
    {
        "name": "Cotton Ground",
        "country": "British Virgin Islands",
        "province": "British Virgin Islands",
        "population": -1,
        "latitude": 18.447209,
        "longitude": -64.752392
    },
    {
        "name": "Spring Bay Land",
        "country": "British Virgin Islands",
        "province": "British Virgin Islands",
        "population": -1,
        "latitude": 18.43328,
        "longitude": -64.441882
    },
    {
        "name": "Rhymers Estate",
        "country": "British Virgin Islands",
        "province": "British Virgin Islands",
        "population": -1,
        "latitude": 18.435031,
        "longitude": -64.435036
    },
    {
        "name": "The Country",
        "country": "British Virgin Islands",
        "province": "British Virgin Islands",
        "population": -1,
        "latitude": 18.432066,
        "longitude": -64.436409
    },
    {
        "name": "Crab Hill",
        "country": "British Virgin Islands",
        "province": "British Virgin Islands",
        "population": -1,
        "latitude": 18.452378,
        "longitude": -64.429958
    },
    {
        "name": "Little Dix Bay",
        "country": "British Virgin Islands",
        "province": "British Virgin Islands",
        "population": -1,
        "latitude": 18.458647,
        "longitude": -64.433978
    },
    {
        "name": "Pond Bay",
        "country": "British Virgin Islands",
        "province": "British Virgin Islands",
        "population": -1,
        "latitude": 18.470132,
        "longitude": -64.413335
    },
    {
        "name": "Bakers Bay",
        "country": "British Virgin Islands",
        "province": "British Virgin Islands",
        "population": -1,
        "latitude": 18.492902,
        "longitude": -64.385235
    },
    {
        "name": "North Sound",
        "country": "British Virgin Islands",
        "province": "British Virgin Islands",
        "population": -1,
        "latitude": 18.490579,
        "longitude": -64.383071
    },
    {
        "name": "The Bond",
        "country": "British Virgin Islands",
        "province": "British Virgin Islands",
        "population": -1,
        "latitude": 18.489758,
        "longitude": -64.392424
    },
    {
        "name": "North Sound Settlement",
        "country": "British Virgin Islands",
        "province": "British Virgin Islands",
        "population": -1,
        "latitude": 18.497215,
        "longitude": -64.384809
    },
    {
        "name": "Dawson",
        "country": "British Virgin Islands",
        "province": "British Virgin Islands",
        "population": -1,
        "latitude": 18.391772,
        "longitude": -64.705604
    },
    {
        "name": "Belmont",
        "country": "British Virgin Islands",
        "province": "British Virgin Islands",
        "population": -1,
        "latitude": 18.392299,
        "longitude": -64.700857
    },
    {
        "name": "West End",
        "country": "British Virgin Islands",
        "province": "British Virgin Islands",
        "population": -1,
        "latitude": 18.388021,
        "longitude": -64.697751
    },
    {
        "name": "Long Bay",
        "country": "British Virgin Islands",
        "province": "British Virgin Islands",
        "population": -1,
        "latitude": 18.396578,
        "longitude": -64.686119
    },
    {
        "name": "Little Apple Bay",
        "country": "British Virgin Islands",
        "province": "British Virgin Islands",
        "population": -1,
        "latitude": 18.395211,
        "longitude": -64.681861
    },
    {
        "name": "Cappoons Bay",
        "country": "British Virgin Islands",
        "province": "British Virgin Islands",
        "population": -1,
        "latitude": 18.399528,
        "longitude": -64.67979
    },
    {
        "name": "Apple Bay",
        "country": "British Virgin Islands",
        "province": "British Virgin Islands",
        "population": -1,
        "latitude": 18.402067,
        "longitude": -64.676782
    },
    {
        "name": "Cart Path",
        "country": "British Virgin Islands",
        "province": "British Virgin Islands",
        "population": -1,
        "latitude": 18.394722,
        "longitude": -64.675141
    },
    {
        "name": "Recovery",
        "country": "British Virgin Islands",
        "province": "British Virgin Islands",
        "population": -1,
        "latitude": 18.388598,
        "longitude": -64.673482
    },
    {
        "name": "Boway",
        "country": "British Virgin Islands",
        "province": "British Virgin Islands",
        "population": -1,
        "latitude": 18.385036,
        "longitude": -64.673109
    },
    {
        "name": "Daseys",
        "country": "British Virgin Islands",
        "province": "British Virgin Islands",
        "population": -1,
        "latitude": 18.386875,
        "longitude": -64.672867
    },
    {
        "name": "Pockwood Pond",
        "country": "British Virgin Islands",
        "province": "British Virgin Islands",
        "population": -1,
        "latitude": 18.394451,
        "longitude": -64.652568
    },
    {
        "name": "Havers",
        "country": "British Virgin Islands",
        "province": "British Virgin Islands",
        "population": -1,
        "latitude": 18.394419,
        "longitude": -64.643856
    },
    {
        "name": "Arundell",
        "country": "British Virgin Islands",
        "province": "British Virgin Islands",
        "population": -1,
        "latitude": 18.416071,
        "longitude": -64.657065
    },
    {
        "name": "Ballast Bay",
        "country": "British Virgin Islands",
        "province": "British Virgin Islands",
        "population": -1,
        "latitude": 18.415094,
        "longitude": -64.667469
    },
    {
        "name": "Edney",
        "country": "British Virgin Islands",
        "province": "British Virgin Islands",
        "population": -1,
        "latitude": 18.410529,
        "longitude": -64.651179
    },
    {
        "name": "Shannon",
        "country": "British Virgin Islands",
        "province": "British Virgin Islands",
        "population": -1,
        "latitude": 18.420657,
        "longitude": -64.651289
    },
    {
        "name": "Hodge",
        "country": "British Virgin Islands",
        "province": "British Virgin Islands",
        "population": -1,
        "latitude": 18.427897,
        "longitude": -64.655668
    },
    {
        "name": "McIntosh",
        "country": "British Virgin Islands",
        "province": "British Virgin Islands",
        "population": -1,
        "latitude": 18.431961,
        "longitude": -64.653313
    },
    {
        "name": "Ross",
        "country": "British Virgin Islands",
        "province": "British Virgin Islands",
        "population": -1,
        "latitude": 18.43336,
        "longitude": -64.657133
    },
    {
        "name": "Martin",
        "country": "British Virgin Islands",
        "province": "British Virgin Islands",
        "population": -1,
        "latitude": 18.438713,
        "longitude": -64.653136
    },
    {
        "name": "Mount Healthy",
        "country": "British Virgin Islands",
        "province": "British Virgin Islands",
        "population": -1,
        "latitude": 18.448499,
        "longitude": -64.642929
    },
    {
        "name": "Spooner",
        "country": "British Virgin Islands",
        "province": "British Virgin Islands",
        "population": -1,
        "latitude": 18.443289,
        "longitude": -64.633471
    },
    {
        "name": "Henley",
        "country": "British Virgin Islands",
        "province": "British Virgin Islands",
        "population": -1,
        "latitude": 18.439594,
        "longitude": -64.632916
    },
    {
        "name": "Turnbull Hill",
        "country": "British Virgin Islands",
        "province": "British Virgin Islands",
        "population": -1,
        "latitude": 18.440411,
        "longitude": -64.624438
    },
    {
        "name": "Trunk Bay",
        "country": "British Virgin Islands",
        "province": "British Virgin Islands",
        "population": -1,
        "latitude": 18.446549,
        "longitude": -64.611217
    },
    {
        "name": "Fahie Hill",
        "country": "British Virgin Islands",
        "province": "British Virgin Islands",
        "population": -1,
        "latitude": 18.438427,
        "longitude": -64.621059
    },
    {
        "name": "Green Bank",
        "country": "British Virgin Islands",
        "province": "British Virgin Islands",
        "population": -1,
        "latitude": 18.431636,
        "longitude": -64.643514
    },
    {
        "name": "New Bush",
        "country": "British Virgin Islands",
        "province": "British Virgin Islands",
        "population": -1,
        "latitude": 18.432844,
        "longitude": -64.637724
    },
    {
        "name": "Primrose Garden",
        "country": "British Virgin Islands",
        "province": "British Virgin Islands",
        "population": -1,
        "latitude": 18.436914,
        "longitude": -64.633307
    },
    {
        "name": "Pasea",
        "country": "British Virgin Islands",
        "province": "British Virgin Islands",
        "population": -1,
        "latitude": 18.43049,
        "longitude": -64.614679
    },
    {
        "name": "Meyers",
        "country": "British Virgin Islands",
        "province": "British Virgin Islands",
        "population": -1,
        "latitude": 18.42634,
        "longitude": -64.645184
    },
    {
        "name": "Martins Joes Hill",
        "country": "British Virgin Islands",
        "province": "British Virgin Islands",
        "population": -1,
        "latitude": 18.42739,
        "longitude": -64.63916
    },
    {
        "name": "Diamond",
        "country": "British Virgin Islands",
        "province": "British Virgin Islands",
        "population": -1,
        "latitude": 18.431457,
        "longitude": -64.634379
    },
    {
        "name": "Pleasant Valley",
        "country": "British Virgin Islands",
        "province": "British Virgin Islands",
        "population": -1,
        "latitude": 18.404188,
        "longitude": -64.641291
    },
    {
        "name": "Duffs Bottom",
        "country": "British Virgin Islands",
        "province": "British Virgin Islands",
        "population": -1,
        "latitude": 18.408549,
        "longitude": -64.624474
    },
    {
        "name": "Slaney",
        "country": "British Virgin Islands",
        "province": "British Virgin Islands",
        "population": -1,
        "latitude": 18.407312,
        "longitude": -64.617955
    },
    {
        "name": "Fisher",
        "country": "British Virgin Islands",
        "province": "British Virgin Islands",
        "population": -1,
        "latitude": 18.412797,
        "longitude": -64.616462
    },
    {
        "name": "Macnamara",
        "country": "British Virgin Islands",
        "province": "British Virgin Islands",
        "population": -1,
        "latitude": 18.414379,
        "longitude": -64.617785
    },
    {
        "name": "Albion",
        "country": "British Virgin Islands",
        "province": "British Virgin Islands",
        "population": -1,
        "latitude": 18.414354,
        "longitude": -64.628699
    },
    {
        "name": "Blyden",
        "country": "British Virgin Islands",
        "province": "British Virgin Islands",
        "population": -1,
        "latitude": 18.420648,
        "longitude": -64.629947
    },
    {
        "name": "Nibbs",
        "country": "British Virgin Islands",
        "province": "British Virgin Islands",
        "population": -1,
        "latitude": 18.414315,
        "longitude": -64.635482
    },
    {
        "name": "Chalwell",
        "country": "British Virgin Islands",
        "province": "British Virgin Islands",
        "population": -1,
        "latitude": 18.419541,
        "longitude": -64.645391
    },
    {
        "name": "Doty",
        "country": "British Virgin Islands",
        "province": "British Virgin Islands",
        "population": -1,
        "latitude": 18.414126,
        "longitude": -64.646176
    },
    {
        "name": "Georges Hollow",
        "country": "British Virgin Islands",
        "province": "British Virgin Islands",
        "population": -1,
        "latitude": 18.421832,
        "longitude": -64.625355
    },
    {
        "name": "Wickhams Cay One",
        "country": "British Virgin Islands",
        "province": "British Virgin Islands",
        "population": -1,
        "latitude": 18.422213,
        "longitude": -64.615697
    },
    {
        "name": "Wickhams Cay Two",
        "country": "British Virgin Islands",
        "province": "British Virgin Islands",
        "population": -1,
        "latitude": 18.427083,
        "longitude": -64.613671
    },
    {
        "name": "Steep Hill",
        "country": "British Virgin Islands",
        "province": "British Virgin Islands",
        "population": -1,
        "latitude": 18.417455,
        "longitude": -64.627142
    },
    {
        "name": "Cocodella",
        "country": "British Virgin Islands",
        "province": "British Virgin Islands",
        "population": -1,
        "latitude": 18.419108,
        "longitude": -64.629808
    },
    {
        "name": "Rogues Bay",
        "country": "British Virgin Islands",
        "province": "British Virgin Islands",
        "population": -1,
        "latitude": 18.446422,
        "longitude": -64.604899
    },
    {
        "name": "Carrot Bay",
        "country": "British Virgin Islands",
        "province": "British Virgin Islands",
        "population": -1,
        "latitude": 18.451702,
        "longitude": -64.604086
    },
    {
        "name": "Cooten Bay",
        "country": "British Virgin Islands",
        "province": "British Virgin Islands",
        "population": -1,
        "latitude": 18.446469,
        "longitude": -64.599919
    },
    {
        "name": "Pickering",
        "country": "British Virgin Islands",
        "province": "British Virgin Islands",
        "population": -1,
        "latitude": 18.431851,
        "longitude": -64.630261
    },
    {
        "name": "Lambert",
        "country": "British Virgin Islands",
        "province": "British Virgin Islands",
        "population": -1,
        "latitude": 18.451503,
        "longitude": -64.575103
    },
    {
        "name": "Upper Hope",
        "country": "British Virgin Islands",
        "province": "British Virgin Islands",
        "population": -1,
        "latitude": 18.436163,
        "longitude": -64.594103
    },
    {
        "name": "Lower Hope",
        "country": "British Virgin Islands",
        "province": "British Virgin Islands",
        "population": -1,
        "latitude": 18.437596,
        "longitude": -64.590389
    },
    {
        "name": "Belle Vue",
        "country": "British Virgin Islands",
        "province": "British Virgin Islands",
        "population": -1,
        "latitude": 18.430984,
        "longitude": -64.594689
    },
    {
        "name": "Brandywine Bay",
        "country": "British Virgin Islands",
        "province": "British Virgin Islands",
        "population": -1,
        "latitude": 18.41809,
        "longitude": -64.584359
    },
    {
        "name": "Fish Bay",
        "country": "British Virgin Islands",
        "province": "British Virgin Islands",
        "population": -1,
        "latitude": 18.420494,
        "longitude": -64.599586
    },
    {
        "name": "Paraquita Bay",
        "country": "British Virgin Islands",
        "province": "British Virgin Islands",
        "population": -1,
        "latitude": 18.425924,
        "longitude": -64.581755
    },
    {
        "name": "Josias Bay",
        "country": "British Virgin Islands",
        "province": "British Virgin Islands",
        "population": -1,
        "latitude": 18.443095,
        "longitude": -64.588064
    },
    {
        "name": "Hodge’s Creek",
        "country": "British Virgin Islands",
        "province": "British Virgin Islands",
        "population": -1,
        "latitude": 18.425988,
        "longitude": -64.569004
    },
    {
        "name": "Parham Town",
        "country": "British Virgin Islands",
        "province": "British Virgin Islands",
        "population": -1,
        "latitude": 18.442468,
        "longitude": -64.559931
    },
    {
        "name": "Hawks Nest",
        "country": "British Virgin Islands",
        "province": "British Virgin Islands",
        "population": -1,
        "latitude": 18.456422,
        "longitude": -64.560748
    },
    {
        "name": "Balsom Ghut",
        "country": "British Virgin Islands",
        "province": "British Virgin Islands",
        "population": -1,
        "latitude": 18.454114,
        "longitude": -64.568239
    },
    {
        "name": "Creek Village",
        "country": "British Virgin Islands",
        "province": "British Virgin Islands",
        "population": -1,
        "latitude": 18.4911111,
        "longitude": -64.3811111
    },
    {
        "name": "Threllfall",
        "country": "British Virgin Islands",
        "province": "British Virgin Islands",
        "population": -1,
        "latitude": 18.41215,
        "longitude": -64.63484
    },
    {
        "name": "The Mill",
        "country": "British Virgin Islands",
        "province": "British Virgin Islands",
        "population": -1,
        "latitude": 18.44322,
        "longitude": -64.53476
    },
    {
        "name": "South Sound",
        "country": "British Virgin Islands",
        "province": "British Virgin Islands",
        "population": -1,
        "latitude": 18.48185,
        "longitude": -64.39018
    },
    {
        "name": "Little Carrot Bay",
        "country": "British Virgin Islands",
        "province": "British Virgin Islands",
        "population": -1,
        "latitude": 18.40592,
        "longitude": -64.67407
    },
    {
        "name": "Hannah",
        "country": "British Virgin Islands",
        "province": "British Virgin Islands",
        "population": -1,
        "latitude": 18.40262,
        "longitude": -64.63646
    },
    {
        "name": "Great Mountain",
        "country": "British Virgin Islands",
        "province": "British Virgin Islands",
        "population": -1,
        "latitude": 18.43678,
        "longitude": -64.62965
    },
    {
        "name": "Great Carrot Bay",
        "country": "British Virgin Islands",
        "province": "British Virgin Islands",
        "population": -1,
        "latitude": 18.41103,
        "longitude": -64.67121
    },
    {
        "name": "Anderson",
        "country": "British Virgin Islands",
        "province": "British Virgin Islands",
        "population": -1,
        "latitude": 18.44149,
        "longitude": -64.63922
    },
    {
        "name": "South Side",
        "country": "British Virgin Islands",
        "province": "British Virgin Islands",
        "population": -1,
        "latitude": 18.440954,
        "longitude": -64.747326
    },
    {
        "name": "Skeleton Land",
        "country": "British Virgin Islands",
        "province": "British Virgin Islands",
        "population": -1,
        "latitude": 18.445387,
        "longitude": -64.733299
    },
    {
        "name": "Copper Mine",
        "country": "British Virgin Islands",
        "province": "British Virgin Islands",
        "population": -1,
        "latitude": 18.432682,
        "longitude": -64.425523
    },
    {
        "name": "Windy Hill",
        "country": "British Virgin Islands",
        "province": "British Virgin Islands",
        "population": -1,
        "latitude": 18.440285,
        "longitude": -64.431111
    },
    {
        "name": "Trunk Bay Land",
        "country": "British Virgin Islands",
        "province": "British Virgin Islands",
        "population": -1,
        "latitude": 18.438693,
        "longitude": -64.439513
    },
    {
        "name": "Taylors Bay",
        "country": "British Virgin Islands",
        "province": "British Virgin Islands",
        "population": -1,
        "latitude": 18.445797,
        "longitude": -64.431111
    },
    {
        "name": "Princess Quarters",
        "country": "British Virgin Islands",
        "province": "British Virgin Islands",
        "population": -1,
        "latitude": 18.44329,
        "longitude": -64.436548
    },
    {
        "name": "Stevens Pasture",
        "country": "British Virgin Islands",
        "province": "British Virgin Islands",
        "population": -1,
        "latitude": 18.44928,
        "longitude": -64.433543
    },
    {
        "name": "Church Hill",
        "country": "British Virgin Islands",
        "province": "British Virgin Islands",
        "population": -1,
        "latitude": 18.441857,
        "longitude": -64.433523
    },
    {
        "name": "Town Bay",
        "country": "British Virgin Islands",
        "province": "British Virgin Islands",
        "population": -1,
        "latitude": 18.444225,
        "longitude": -64.439891
    },
    {
        "name": "Head of the Bay",
        "country": "British Virgin Islands",
        "province": "British Virgin Islands",
        "population": -1,
        "latitude": 18.454209,
        "longitude": -64.433859
    },
    {
        "name": "Handsome Bay",
        "country": "British Virgin Islands",
        "province": "British Virgin Islands",
        "population": -1,
        "latitude": 18.457035,
        "longitude": -64.42765
    },
    {
        "name": "Fanny Mac Hill",
        "country": "British Virgin Islands",
        "province": "British Virgin Islands",
        "population": -1,
        "latitude": 18.454906,
        "longitude": -64.428426
    },
    {
        "name": "Harrigan Pasture",
        "country": "British Virgin Islands",
        "province": "British Virgin Islands",
        "population": -1,
        "latitude": 18.45594,
        "longitude": -64.42974
    },
    {
        "name": "John Tarter",
        "country": "British Virgin Islands",
        "province": "British Virgin Islands",
        "population": -1,
        "latitude": 18.47869,
        "longitude": -64.413003
    },
    {
        "name": "Plum Tree Bay",
        "country": "British Virgin Islands",
        "province": "British Virgin Islands",
        "population": -1,
        "latitude": 18.483979,
        "longitude": -64.411637
    },
    {
        "name": "Huntums Ghut",
        "country": "British Virgin Islands",
        "province": "British Virgin Islands",
        "population": -1,
        "latitude": 18.43347,
        "longitude": -64.626419
    },
    {
        "name": "Johnson Ghut",
        "country": "British Virgin Islands",
        "province": "British Virgin Islands",
        "population": -1,
        "latitude": 18.435172,
        "longitude": -64.60961
    },
    {
        "name": "Long Bush",
        "country": "British Virgin Islands",
        "province": "British Virgin Islands",
        "population": -1,
        "latitude": 18.424192,
        "longitude": -64.625241
    },
    {
        "name": "Lower Estate",
        "country": "British Virgin Islands",
        "province": "British Virgin Islands",
        "population": -1,
        "latitude": 18.429459,
        "longitude": -64.625723
    },
    {
        "name": "John’s Hole",
        "country": "British Virgin Islands",
        "province": "British Virgin Islands",
        "population": -1,
        "latitude": 18.428908,
        "longitude": -64.619036
    },
    {
        "name": "Free Bottom",
        "country": "British Virgin Islands",
        "province": "British Virgin Islands",
        "population": -1,
        "latitude": 18.430144,
        "longitude": -64.60809
    },
    {
        "name": "Blyden Yard",
        "country": "British Virgin Islands",
        "province": "British Virgin Islands",
        "population": -1,
        "latitude": 18.423307,
        "longitude": -64.622897
    },
    {
        "name": "Russell Hill",
        "country": "British Virgin Islands",
        "province": "British Virgin Islands",
        "population": -1,
        "latitude": 18.419465,
        "longitude": -64.620351
    },
    {
        "name": "Road Reef",
        "country": "British Virgin Islands",
        "province": "British Virgin Islands",
        "population": -1,
        "latitude": 18.412711,
        "longitude": -64.612957
    },
    {
        "name": "Purcell",
        "country": "British Virgin Islands",
        "province": "British Virgin Islands",
        "population": -1,
        "latitude": 18.431309,
        "longitude": -64.610032
    },
    {
        "name": "Fort Hill",
        "country": "British Virgin Islands",
        "province": "British Virgin Islands",
        "population": -1,
        "latitude": 18.426317,
        "longitude": -64.606189
    },
    {
        "name": "Martin Spring Ghut",
        "country": "British Virgin Islands",
        "province": "British Virgin Islands",
        "population": -1,
        "latitude": 18.435145,
        "longitude": -64.582575
    },
    {
        "name": "Hedrington Spring Ghut",
        "country": "British Virgin Islands",
        "province": "British Virgin Islands",
        "population": -1,
        "latitude": 18.429216,
        "longitude": -64.584231
    },
    {
        "name": "Baughers Bay",
        "country": "British Virgin Islands",
        "province": "British Virgin Islands",
        "population": -1,
        "latitude": 18.42565,
        "longitude": -64.60207
    },
    {
        "name": "Fat Hogs Bay",
        "country": "British Virgin Islands",
        "province": "British Virgin Islands",
        "population": -1,
        "latitude": 18.431847,
        "longitude": -64.569534
    },
    {
        "name": "Hodge Estate",
        "country": "British Virgin Islands",
        "province": "British Virgin Islands",
        "population": -1,
        "latitude": 18.433911,
        "longitude": -64.569819
    },
    {
        "name": "Vanterpool",
        "country": "British Virgin Islands",
        "province": "British Virgin Islands",
        "population": -1,
        "latitude": 18.436088,
        "longitude": -64.57006
    },
    {
        "name": "Long Look",
        "country": "British Virgin Islands",
        "province": "British Virgin Islands",
        "population": -1,
        "latitude": 18.437015,
        "longitude": -64.573916
    },
    {
        "name": "Old Plantation",
        "country": "British Virgin Islands",
        "province": "British Virgin Islands",
        "population": -1,
        "latitude": 18.44048,
        "longitude": -64.57248
    },
    {
        "name": "Greenland",
        "country": "British Virgin Islands",
        "province": "British Virgin Islands",
        "population": -1,
        "latitude": 18.441561,
        "longitude": -64.57084
    },
    {
        "name": "Major Bay",
        "country": "British Virgin Islands",
        "province": "British Virgin Islands",
        "population": -1,
        "latitude": 18.439898,
        "longitude": -64.566071
    },
    {
        "name": "Tarris Hill",
        "country": "British Virgin Islands",
        "province": "British Virgin Islands",
        "population": -1,
        "latitude": 18.440699,
        "longitude": -64.562946
    },
    {
        "name": "Red Bay",
        "country": "British Virgin Islands",
        "province": "British Virgin Islands",
        "population": -1,
        "latitude": 18.440715,
        "longitude": -64.559762
    },
    {
        "name": "James Young",
        "country": "British Virgin Islands",
        "province": "British Virgin Islands",
        "population": -1,
        "latitude": 18.441499,
        "longitude": -64.566515
    },
    {
        "name": "Thomas Land",
        "country": "British Virgin Islands",
        "province": "British Virgin Islands",
        "population": -1,
        "latitude": 18.443422,
        "longitude": -64.554809
    },
    {
        "name": "Lloyds",
        "country": "British Virgin Islands",
        "province": "British Virgin Islands",
        "population": -1,
        "latitude": 18.447469,
        "longitude": -64.560902
    }
]